     2              OBSERVATION DATA    GPS                 RINEX VERSION / TYPE
srx v1.3 (5/19/93)  STARR               93/12/15 17:01:22   PGM / RUN BY / DATE
aspe                                                        MARKER NAME
0                   TURBOROGUE          93.05.25            REC # / TYPE / VERS
 -3226566.9148 -1344933.7172  5317044.0363                  APPROX POSITION XYZ
    60                                                      INTERVAL
     1     1     0                                          WAVELENGTH FACT L1/2
     4    L1    L2    P1    P2                              # / TYPES OF OBSERV
SNR is mapped to signal strength [0,1,4-9]                  COMMENT
 SNR:   >500  >100   >50   >10    >5    >0   bad   n/a      COMMENT
 sig:      9     8     7     6     5     4     1     0      COMMENT
  1993    07    23    01    31   00.000000                  TIME OF FIRST OBS
  1993    07    23    23    59   00.000000                  TIME OF LAST OBS
    24                                                      # OF SATELLITES
    01   456   456   456   456                              PRN / # OF OBS
    02   494   494   494   494                              PRN / # OF OBS
    03   374   374   374   374                              PRN / # OF OBS
    07   524   524   524   524                              PRN / # OF OBS
    09   324   324   324   324                              PRN / # OF OBS
    12   447   447   447   447                              PRN / # OF OBS
    13   531   531   531   531                              PRN / # OF OBS
    14   367   367   367   367                              PRN / # OF OBS
    15   419   419   419   419                              PRN / # OF OBS
    16   511   511   511   511                              PRN / # OF OBS
    17   379   379   379   379                              PRN / # OF OBS
    18   414   414   414   414                              PRN / # OF OBS
    19   327   327   327   327                              PRN / # OF OBS
    20   432   432   432   432                              PRN / # OF OBS
    21   289   289   289   289                              PRN / # OF OBS
    22   396   396   396   396                              PRN / # OF OBS
    23   425   425   425   425                              PRN / # OF OBS
    24   526   526   526   526                              PRN / # OF OBS
    25   489   489   489   489                              PRN / # OF OBS
    26   402   402   402   402                              PRN / # OF OBS
    27   361   361   361   361                              PRN / # OF OBS
    28   329   329   329   329                              PRN / # OF OBS
    29   459   459   459   459                              PRN / # OF OBS
    31   245   245   245   245                              PRN / # OF OBS
                                                            END OF HEADER
 93 07 23 01 31 00.0000000  0  7 21 23 17 26 27 22 28
   -806757.00008   -628641.32108  21464343.47808  21464344.80608
   -116952.07508    -91131.01408  21020804.97508  21020806.06408
    909459.20908    708669.58608  22653577.31908  22653579.37108
    107267.74608     83585.11108  23884046.17408  23884048.22508
        -0.56418        -0.04417  24467000.50618  24467003.14517
    997635.66508    777377.31308  23770851.86108  23770854.17208
   -254454.18509   -198275.33609  20254132.95709  20254133.22709
 93 07 23 01 32 00.0000000  0  7 21 23 28 26 17 27 22
   -963193.64408   -750539.93508  21434574.53908  21434575.83608
   -128804.49108   -100366.66208  21018549.53208  21018550.64508
   -299283.83509   -233207.52309  20245602.07909  20245602.39909
    139373.71908    108602.74408  23890155.77208  23890157.96108
   1093700.19808    852233.90708  22688637.27208  22688639.35308
      6039.71808      4706.66708  24468149.90008  24468152.64808
   1199146.39508    934398.54208  23809198.12008  23809200.46408
 93 07 23 01 33 00.0000000  0  7 21 23 17 26 27 22 28
  -1119148.48108   -872063.11908  21404897.22508  21404898.57608
   -139511.44508   -108709.74508  21016512.11308  21016513.19408
   1277554.00108    995496.52508  22723623.71208  22723625.72108
    172559.57308    134461.83908  23896471.14608  23896473.19908
     13248.91908     10324.23208  24469521.99008  24469524.86108
   1400017.10908   1090921.03408  23847422.63508  23847425.07608
   -343107.55709   -267355.87509  20237262.86609  20237263.17709
 93 07 23 01 34 00.0000000  0  7 21 23 28 26 17 27 22
  -1272998.74608   -991946.37708  21375620.46508  21375621.78508
   -147499.10708   -114933.90208  21014992.06308  21014993.13208
   -384276.16009   -299435.30209  20229428.62309  20229428.88809
    208331.30708    162335.90908  23903278.14608  23903280.07508
   1462507.13708   1139615.76708  22758819.18108  22758821.13308
     23211.14408     18087.01008  24471417.58008  24471420.66808
   1601706.00208   1248081.06008  23885802.77808  23885805.37708
 93 07 23 01 35 00.0000000  0  7 21 23 17 26 27 22 28
  -1424408.19208  -1109927.70608  21346808.15508  21346809.46808
   -152643.52408   -118942.54608  21014013.13508  21014014.21908
   1648782.48808   1284765.31708  22794266.31108  22794268.25408
    246888.15608    192380.19308  23910615.38108  23910617.32308
     36155.18108     28173.27008  24473880.77808  24473883.78808
   1804524.05008   1406120.93208  23924397.79608  23924400.58908
   -422580.14209   -329282.55709  20222139.56509  20222139.85809
 93 07 23 01 36 00.0000000  0  7 21 23 17 26 27 22 28
  -1573399.12708  -1226024.48608  21318456.09308  21318457.42408
   -155062.65708   -120827.59508  21013552.84908  21013553.89808
   1836367.15908   1430935.10208  22829962.49308  22829964.57508
    288135.97908    224521.33508  23918464.42708  23918466.58408
     52000.96808     40520.64308  24476896.01208  24476899.32408
   2008523.68308   1565081.50508  23963217.66908  23963220.55208
   -458222.71609   -357055.98809  20215357.07209  20215357.38909
 93 07 23 01 37 00.0000000  0  7 21 23 17 26 27 22 28
  -1720130.54208  -1340360.60408  21290534.00808  21290535.31508
   -154817.09408   -120636.25508  21013599.55408  21013600.61408
   2025196.02808   1578074.39008  22865895.52008  22865897.59808
    331948.27608    258660.76508  23926801.47508  23926803.70508
     70670.60608     55068.41808  24480448.73308  24480452.14108
   2213559.75108   1724849.68608  24002234.85608  24002237.85408
   -491440.23009   -382939.76609  20209035.96309  20209036.25609
 93 07 23 01 38 00.0000000  0  7 21 23 17 26 27 28 22
  -1864703.33908  -1453014.68808  21263022.69508  21263023.98608
   -151978.53408   -118424.40008  21014139.68608  21014140.75908
   2215139.98808   1726082.57608  22902040.72108  22902042.88208
    378301.95508    294780.48608  23935622.51408  23935624.61208
     92173.61208     71823.99708  24484540.77808  24484543.78808
   -522241.35909   -406940.64509  20203174.70709  20203175.01609
   2419470.38708   1885299.34008  24041418.51708  24041421.57908
 93 07 23 01 39 00.0000000  0  7 21 23 17 28 26 27 22
  -2007178.07308  -1564033.91808  21235910.59508  21235911.86908
   -146648.98808   -114271.51608  21015153.89308  21015154.97108
   2406000.56408   1874805.01008  22938360.40408  22938362.54008
   -550546.34209   -428996.47709  20197788.32409  20197788.69209
    427153.54308    332846.63008  23944918.56208  23944920.83608
    116379.36908     90685.61108  24489146.72108  24489149.84808
   2626106.46908   2046314.29708  24080740.21608  24080743.25308
 93 07 23 01 40 00.0000000  0  7 21 23 17 26 27 22 28
  -2147522.37108  -1673393.07708  21209203.95608  21209205.21608
   -138833.51708   -108181.54708  21016641.10008  21016642.14708
   2597725.98008   2024201.33608  22974844.54808  22974846.77408
    478487.86308    372847.37908  23954687.43708  23954689.49208
    143173.57708    111564.17508  24494245.64908  24494248.43208
   2833432.51008   2207866.93608  24120193.25508  24120196.20108
   -576329.37009   -449087.15109  20192882.03509  20192882.38709
 93 07 23 01 41 00.0000000  0  7 21 23 17 28 26 27 22
  -2285666.89008  -1781038.12108  21182915.88308  21182917.08408
   -128533.30608   -100155.41008  21018601.13708  21018602.14208
   2790338.06608   2174288.57608  23011497.48108  23011499.71408
   -599636.73609   -467248.73609  20188446.79809  20188447.09809
    532287.98208    414769.52008  23964925.23708  23964927.38608
    172601.95308    134495.34408  24499845.79308  24499848.80208
   3041460.80208   2369966.75208  24159779.76808  24159782.84708
 93 07 23 01 42 00.0000000  0  7 21 23 17 26 27 28 22
  -2421566.30408  -1886933.73308  21157055.14608  21157056.29508
   -115753.04908    -90196.76508  21021033.21408  21021034.26208
   2983897.12108   2325113.71908  23048330.65208  23048333.00408
    588537.74808    458600.45608  23975629.25808  23975631.40508
    204701.05208    159507.62408  24505954.08608  24505957.18008
   -620445.51409   -483463.36809  20184487.07809  20184487.33009
   3250212.20608   2532630.01408  24199503.98808  24199507.08108
 93 07 23 01 43 00.0000000  0  7 21 23 17 28 26 27 22
  -2555275.45408  -1991122.64508  21131611.06508  21131612.27108
   -100498.38208    -78310.01308  21023936.08108  21023937.15508
   3178425.42208   2476694.10408  23085348.17608  23085350.52308
   -638726.39009   -497708.20809  20181008.39209  20181008.61909
    647170.37108    504288.19208  23986786.67308  23986788.95108
    239477.75908    186606.33708  24512571.97608  24512574.96408
   3459663.38708   2695838.53308  24239361.50208  24239364.53908
 93 07 23 01 44 00.0000000  0  7 21 23 17 26 27 28 22
  -2686827.68308  -2093630.84208  21106577.46508  21106578.69508
    -82777.62908    -64501.63308  21027308.20308  21027309.35608
   3373892.65808   2629006.14008  23122544.49908  23122546.82608
    708150.11408    551804.82708  23998390.70608  23998392.99608
    276815.26508    215700.47208  24519676.85608  24519679.78408
   -654504.89509   -510003.14309  20178005.83409  20178006.11009
   3669745.42508   2859538.65508  24279338.87608  24279341.92808
 93 07 23 01 45 00.0000000  0  7 21 23 17 28 26 27 22
  -2816084.64708  -2194350.52408  21081980.63308  21081981.86108
    -62504.54608    -48704.42508  21031166.00508  21031167.16208
   3570345.83008   2782086.42508  23159928.35208  23159930.72408
   -667763.54409   -520334.55609  20175482.78709  20175483.10309
    771563.16608    601217.57008  24010457.98808  24010460.10408
    316725.55207    246799.39508  24527271.52207  24527274.82708
   3880475.23208   3023743.52908  24319439.67008  24319442.70108
 93 07 23 01 46 00.0000000  0  7 21 23 17 26 28 27 22
  -2943019.59908  -2293260.84608  21057825.68408  21057826.90408
    -39700.01708    -30934.66408  21035505.64908  21035506.74008
   3767743.88708   2935902.98008  23197491.93808  23197494.33408
    837420.54008    652534.94308  24022990.19908  24022992.32608
   -678525.59809   -528720.57309  20173434.89409  20173435.25809
    359199.16007    279895.68808  24535354.03107  24535357.52408
   4091888.64108   3188481.08708  24359670.53808  24359673.52208
 93 07 23 01 47 00.0000000  0  7 21 23 28 26 17 27 22
  -3067723.81608  -2390432.93508  21034095.26308  21034096.43108
    -14372.80308    -11199.17508  21040325.31108  21040326.27508
   -686756.94609   -535134.61009  20171868.48009  20171868.85509
    905695.05308    705735.79808  24035982.50808  24035984.69908
   3966071.68408   3090444.01508  23235232.71708  23235234.97208
    404338.39507    315069.09808  24543943.91007  24543947.11708
   4304016.03108   3353774.97308  24400037.17408  24400040.23108
 93 07 23 01 48 00.0000000  0  7 21 23 26 17 28 27 22
  -3184634.96008  -2481532.50508  21011847.80208  21011848.90208
     19140.35408     14914.96808  21046702.65108  21046703.65608
    982056.62608    765238.25908  24050513.74208  24050515.90708
   4170947.51508   3250087.41708  23274219.26208  23274221.60608
   -686772.23709   -535146.52609  20171865.61909  20171865.99909
    457786.42608    356716.90108  24554114.86208  24554117.75708
   4522401.23108   3523945.07808  24441594.57008  24441597.78008
 93 07 23 01 49 00.0000000  0  7 21 23 28 26 17 27 22
  -3259500.63908  -2539869.37008  20997601.34908  20997602.50308
     94991.64308     74019.85808  21061136.65508  21061137.64108
   -644406.39209   -502134.18109  20179927.54009  20179927.89009
   1100726.56908    857708.25908  24073096.06608  24073098.16508
   4416530.09608   3441450.34608  23320952.25608  23320954.66108
    553594.32807    431372.38408  24572346.46107  24572349.24808
   4781097.76808   3725526.63608  24490823.02208  24490826.26908
 93 07 23 01 50 00.0000000  0  7 23 17 26 21 28 27 22
    180753.50608    140847.26808  21077456.62108  21077457.68108
   4670399.65708   3639270.67408  23369262.16408  23369264.52108
   1229219.97908    957832.91408  24097547.36708  24097549.66608
  -3324579.72808  -2590580.32508  20985217.15508  20985218.35008
   -592062.66909   -461346.86509  20189888.35909  20189888.72809
    659379.50608    513802.36608  24592476.82908  24592479.58708
   5047725.62708   3933288.42608  24541560.83008  24541564.06908
 93 07 23 01 51 00.0000000  0  7 23 21 28 26 17 27 22
    253766.59808    197740.56708  21091350.55508  21091351.61208
  -3402425.96308  -2651239.70808  20970403.52508  20970404.65408
   -552335.19109   -430390.39209  20197448.12909  20197448.48809
   1344824.94808   1047914.63108  24119546.26408  24119548.68608
   4909967.92308   3825947.12408  23414850.45908  23414852.92908
    752660.91107    586489.15407  24610227.60107  24610230.29007
   5299836.34608   4129738.13908  24589535.91008  24589539.30308
 93 07 23 01 52 00.0000000  0  7 23 21 28 26 17 27 22
    318439.04508    248134.66208  21103657.35208  21103658.44708
  -3488681.36208  -2718451.68408  20953989.63408  20953990.74308
   -520793.46509   -405812.42609  20203450.37109  20203450.72209
   1451927.45108   1131371.05508  24139927.22608  24139929.61508
   5139697.48908   4004957.04708  23458566.67508  23458569.17408
    837864.48407    652881.53407  24626440.93607  24626444.14207
   5541807.25808   4318286.72908  24635581.51908  24635584.99908
 93 07 23 01 53 00.0000000  0  7 23 21 28 26 17 27 22
    379521.63408    295731.46608  21115280.98408  21115282.05808
  -3578656.80808  -2788562.40008  20936867.82008  20936868.86108
   -492710.27509   -383929.42809  20208794.33409  20208794.68009
   1555342.25608   1211953.94108  24159606.67908  24159608.99708
   5364246.29408   4179930.00808  23501297.02808  23501299.55608
    919566.62607    716545.50607  24641988.57807  24641991.56107
   5778175.58608   4502469.65108  24680561.16308  24680564.68208
 93 07 23 01 54 00.0000000  0  7 23 26 21 28 17 27 22
    439492.71408    342462.16008  21126693.10408  21126694.21708
   1657641.39208   1291667.49208  24179073.60308  24179076.02108
  -3669821.50708  -2859599.80608  20919519.79308  20919520.82008
   -465652.43209   -362845.40609  20213943.20309  20213943.50909
   5585963.49208   4352696.53308  23543488.55108  23543490.99708
   1000135.19808    779326.15907  24657320.41508  24657323.39107
   6011355.04308   4684167.72508  24724933.92108  24724937.40908
 93 07 23 01 55 00.0000000  0  7 23 21 28 26 17 27 22
    497303.47208    387509.48408  21137694.11108  21137695.24208
  -3763119.54008  -2932299.55008  20901765.71608  20901766.76608
   -440597.39009   -343322.01009  20218710.95909  20218711.22709
   1757812.64008   1369722.93508  24198135.56408  24198137.78908
   5803824.50608   4522458.23808  23584946.11408  23584948.67808
   1078546.07408    840425.52307  24672241.84608  24672244.58307
   6240391.79408   4862637.73808  24768518.17708  24768521.87008
 93 07 23 01 56 00.0000000  0  6 23 26 21 28 17 27
    553866.88508    431584.85208  21148457.80008  21148458.97808
   1856677.49008   1446760.41408  24216948.92808  24216951.27708
  -3857649.94708  -3005959.58708  20883777.19908  20883778.25008
   -416557.24209   -324589.43509  20223285.68209  20223285.93709
   6018853.10708   4690012.86908  23625864.93608  23625867.31908
   1155792.44607    900617.44008  24686941.18607  24686944.35008
 93 07 23 01 57 00.0000000  0  6 23 21 28 26 17 27
    612242.64808    477072.44308  21159566.30408  21159567.50308
  -3950488.12708  -3078301.00608  20866110.60808  20866111.70508
   -390563.24909   -304334.37309  20228232.12709  20228232.42009
   1957105.75708   1525016.12108  24236059.91508  24236062.07808
   6234103.80508   4857740.57108  23666825.80708  23666828.30808
   1234950.80507    962299.25507  24702004.15507  24702007.40007
 93 07 23 01 58 00.0000000  0  7 23 21 28 26 17 27 15
    671950.18108    523597.77408  21170928.33408  21170929.47208
  -4042163.98808  -3149736.72508  20848665.32308  20848666.44408
   -363136.09309   -282962.56609  20233451.34909  20233451.66809
   2058591.60608   1604095.91408  24255372.01708  24255374.36908
   6449037.16608   5025220.98808  23707726.39908  23707728.90508
   1315581.95407   1025128.68407  24717348.12207  24717350.90807
        -0.14017         0.06217  25283428.81917  25283432.39817
 93 07 23 01 59 00.0000000  0  7 23 21 28 26 17 27 15
    732943.58708    571125.08608  21182535.00308  21182536.11008
  -4132698.69108  -3220283.23008  20831437.11708  20831438.22808
   -334371.59009   -260548.67209  20238925.00509  20238925.31609
   2161130.68108   1683996.38408  24274884.72608  24274887.21908
   6663506.21908   5192339.59808  23748538.54008  23748541.21708
   1397526.28307   1088981.37307  24732941.52507  24732944.69507
   -217231.57207   -169271.02307  25242090.75107  25242094.92607
 93 07 23 02 00 00.0000000  0  7 23 21 28 26 17 27 15
    795270.49808    619691.49308  21194395.50808  21194396.60208
  -4221985.32308  -3289857.21708  20814446.49108  20814447.55308
   -304175.61609   -237019.34909  20244671.32309  20244671.64709
   2264830.78308   1764801.58708  24294618.07908  24294620.73108
   6877534.36208   5359114.66308  23789266.93708  23789269.61008
   1480731.05507   1153816.21107  24748774.69207  24748778.17507
   -435204.53007   -339119.93007  25200611.89907  25200615.80907
 93 07 23 02 01 00.0000000  0  7 23 21 28 26 17 27 15
    858935.44708    669300.52208  21206510.53308  21206511.65108
  -4309846.96808  -3358320.82708  20797726.95108  20797728.03808
   -272375.47309   -212240.02709  20250722.70209  20250723.06709
   2369855.56208   1846638.96808  24314603.92808  24314606.29008
   7091310.67108   5525693.47408  23829947.12708  23829950.01508
   1565327.97607   1219735.87007  24764873.00307  24764876.38707
   -653744.34707   -509410.52607  25159024.87507  25159028.99707
 93 07 23 02 02 00.0000000  0  7 23 21 28 26 17 27 15
    922746.44908    719023.36008  21218653.36908  21218654.50108
  -4397287.00708  -3426455.91508  20781087.70508  20781088.79708
   -240029.01209   -187035.00609  20256878.01909  20256878.43509
   2475167.98308   1928700.49708  24334644.11508  24334646.50408
   7303857.75808   5691314.43908  23870393.70008  23870396.53808
   1650312.90007   1285957.88508  24781044.98107  24781048.67608
   -873899.41107   -680959.74807  25117130.83207  25117134.51207
 93 07 23 02 03 00.0000000  0  7 23 21 28 26 17 27 15
    987184.50308    769234.80908  21230915.54208  21230916.70408
  -4483825.32408  -3493888.36208  20764620.03808  20764621.14608
   -206702.64809   -161066.42609  20263219.94209  20263220.36609
   2581142.91408   2011278.24808  24354810.52208  24354813.00708
   7515595.60408   5856304.82508  23910686.15108  23910689.00808
   1736115.42307   1352816.92107  24797373.21407  24797376.21307
  -1095222.95307   -853419.45207  25075014.17407  25075017.84407
 93 07 23 02 04 00.0000000  0  7 23 21 28 26 17 27 15
   1055421.13108    822406.18408  21243900.54908  21243901.76508
  -4566544.32308  -3558344.72008  20748879.11408  20748880.20008
   -169408.93109   -132006.39809  20270316.70609  20270317.07109
   2690642.73908   2096602.68208  24375647.85608  24375650.49908
   7729385.81308   6022894.45908  23951369.18008  23951371.94508
   1825622.22507   1422562.43907  24814405.86507  24814408.62807
  -1314742.58607  -1024473.46607  25033240.91607  25033244.35907
 93 07 23 02 05 00.0000000  0  6 23 21 28 26 17 15
   1126406.54208    877719.46708  21257408.66608  21257409.81008
  -4646530.08208  -3620671.27908  20733658.29708  20733659.38508
   -129253.05209   -100716.11409  20277957.99509  20277958.32909
   2802507.28308   2183769.74208  24396934.78308  24396937.80108
   7944063.01608   6190175.27108  23992221.04208  23992223.77508
  -1533567.39507  -1194986.05907  24991599.64507  24991603.22507
 93 07 23 02 06 00.0000000  0  6 23 26 17 21 28 15
   1199604.33508    934756.68708  21271337.73508  21271338.94108
   2916342.92808   2272472.74708  24418597.25308  24418600.14408
   8159188.71808   6357805.54308  24033158.17708  24033161.03508
  -4724197.47308  -3681191.31908  20718878.64708  20718879.73008
    -86701.22709    -67558.86009  20286055.53609  20286055.88609
  -1752123.26907  -1365289.10507  24950009.73007  24950013.10707
 93 07 23 02 07 00.0000000  0  6 23 21 28 26 17 15
   1274637.31508    993223.92008  21285616.07308  21285617.29608
  -4799819.95408  -3740117.92408  20704488.21708  20704489.27508
    -42057.98309    -32771.93109  20294550.70809  20294551.12509
   3031937.28708   2362546.18408  24440594.24908  24440597.09808
   8374484.91608   6525568.66408  24074127.80308  24074130.64208
  -1970656.75907  -1535574.74607  24908424.03207  24908427.46807
 93 07 23 02 08 00.0000000  0  6 23 26 17 21 28 15
   1351424.81508   1053058.31108  21300228.29808  21300229.47908
   3149258.88008   2453965.53008  24462919.92308  24462922.49308
   8589940.26607   6693455.79707  24115127.58007  24115130.47507
  -4873522.15708  -3797548.21108  20690463.14708  20690464.18808
      4656.34309      3628.82809  20303440.20609  20303440.62709
  -2189179.92907  -1705852.33607  24866840.23807  24866843.77807
 93 07 23 02 09 00.0000000  0  6 23 21 28 26 17 15
   1430022.80608   1114303.47908  21315185.05408  21315186.12608
  -4945317.37308  -3853492.52808  20676800.95808  20676801.98008
     53551.51009     41728.94709  20312744.74409  20312745.13509
   3268335.42308   2546752.35808  24485579.48108  24485582.16808
   8805621.28607   6861518.79507  24156170.55507  24156173.44207
  -2407660.96607  -1876097.08407  24825264.52907  24825268.02107
 93 07 23 02 10 00.0000000  0  6 23 26 17 21 28 15
   1510502.36908   1177014.80608  21330499.84308  21330500.86108
   3389156.11808   2640898.26508  24508571.03108  24508573.84808
   9021635.28608   7029841.23507  24197276.91408  24197279.77207
  -5015028.33908  -3907812.75508  20663535.39108  20663536.41208
    104694.02609     81580.24609  20322476.71809  20322477.04909
  -2626028.09307  -2046253.17407  24783710.32007  24783713.95207
 93 07 23 02 11 00.0000000  0  6 23 21 28 26 17 15
   1592878.35708   1241203.86708  21346175.48308  21346176.53608
  -5082528.92008  -3960410.60508  20650690.49608  20650691.52608
    158034.17209    123143.98209  20332627.19409  20332627.45109
   3511595.42408   2736305.43208  24531870.49908  24531873.25708
   9237936.74907   7198387.69207  24238437.66907  24238440.61707
  -2844285.57907  -2216323.84207  24742177.07707  24742180.87407
 93 07 23 02 12 00.0000000  0  6 23 26 17 21 28 15
   1677153.06408   1306872.44308  21362212.38508  21362213.57308
   3635614.96008   2832943.92408  24555470.78908  24555473.45308
   9454473.49807   7367117.50907  24279643.27407  24279646.28007
  -5147804.43908  -4011274.63908  20638268.95908  20638269.97908
    213540.61909    166395.74709  20343189.74509  20343190.03209
  -3062441.05407  -2386315.02607  24700663.50507  24700667.17907
 93 07 23 02 13 00.0000000  0  6 23 21 28 26 17 15
   1763347.94108   1374037.25208  21378614.80408  21378615.94608
  -5210952.09008  -4060480.59308  20626252.38808  20626253.43908
    271268.98109    211378.87509  20354174.97909  20354175.27909
   3761331.89708   2930905.08308  24579393.99808  24579396.91908
   9671247.28007   7536031.99807  24320893.93207  24320897.24507
  -3280443.71107  -2556187.07407  24659178.83407  24659182.40407
 93 07 23 02 14 00.0000000  0  6 23 26 21 28 17 15
   1851469.70308   1442703.52908  21395383.88108  21395384.95308
   3888842.09808   3030263.59608  24603658.25708  24603661.02108
  -5271994.81608  -4108046.34808  20614636.37308  20614637.39608
    331210.83509    258086.79909  20365581.60509  20365581.93509
   9888232.04307   7705110.89907  24362184.84807  24362188.18007
  -3498226.50607  -2725887.76208  24617736.06007  24617739.54508
 93 07 23 02 15 00.0000000  0  5 23 26 15 21 28
   1941514.15408   1512868.01508  21412518.68008  21412519.82108
   4018154.92908   3131026.71308  24628265.84808  24628268.56108
  -3715755.99707  -2895391.11208  24576341.43007  24576344.84208
  -5330806.29408  -4153873.46808  20603444.84208  20603445.85608
    393316.82709    306481.06409  20377399.97209  20377400.32209
 93 07 23 02 16 00.0000000  0  5 23 26 15 21 28
   2033490.92408   1584538.19408  21430021.33508  21430022.51408
   4149313.94207   3233228.40808  24653224.74607  24653227.56908
  -3932979.87407  -3064656.32008  24535005.02807  24535008.30408
  -5387251.38608  -4197856.65208  20592703.71708  20592704.76008
    457683.46509    356636.86509  20389648.51609  20389648.88409
 93 07 23 02 17 00.0000000  0  6 23 26 15 21 28 31
   2127273.75208   1657615.69208  21447867.59508  21447868.77908
   4282201.38807   3336776.97307  24678512.32507  24678515.07107
  -4149962.29108  -3233733.38108  24493714.50508  24493717.77808
  -5441401.11108  -4240051.24008  20582399.34608  20582400.37208
    524407.10509    408629.29309  20402345.56309  20402345.95609
        -0.47419        -0.63418  20973012.71019  20973013.20718
 93 07 23 02 18 00.0000000  0  6 23 26 15 21 28 31
   2222910.07708   1732137.47408  21466066.64308  21466067.83008
   4416681.19607   3441566.32407  24704103.27307  24704106.15207
  -4366701.61308  -3402621.03408  24452470.47108  24452473.52308
  -5493359.24908  -4280538.10008  20572512.06108  20572513.05708
    593509.06009    462474.95409  20415495.30209  20415495.73909
    -90870.12009    -70808.13508  20955720.73909  20955721.21108
 93 07 23 02 19 00.0000000  0  6 23 26 15 21 28 31
   2320441.61908   1808136.04308  21484626.25008  21484627.52808
   4552729.94307   3547578.21007  24729992.51407  24729995.48407
  -4583163.93208  -3571292.84808  24411278.92208  24411281.99208
  -5543149.44808  -4319335.65708  20563037.29108  20563038.34508
    664880.45609    518089.00709  20429076.81009  20429077.27009
   -179702.47609   -140028.13608  20938816.59109  20938817.07208
 93 07 23 02 20 00.0000000  0  6 23 26 15 21 28 31
   2419793.71008   1885553.21708  21503532.32108  21503533.68708
   4690365.84407   3654826.84908  24756183.80207  24756186.80708
  -4799359.12608  -3739756.52508  24370138.29808  24370141.28608
  -5590774.43608  -4356446.04008  20553974.55408  20553975.60708
    738367.20109    575351.38709  20443060.72809  20443061.16909
   -266541.12609   -207694.59908  20922291.86309  20922292.36708
 93 07 23 02 21 00.0000000  0  6 23 26 15 21 28 31
   2521032.97808   1964440.91608  21522797.63408  21522798.89708
   4829724.75207   3763418.07908  24782703.16807  24782706.03508
  -5015183.36008  -3907931.11908  24329068.22908  24329071.41408
  -5636160.47008  -4391811.78008  20545337.89008  20545338.95508
    814062.16309    634334.45209  20457465.19309  20457465.67009
   -351314.95609   -273752.11408  20906159.97109  20906160.46208
 93 07 23 02 22 00.0000000  0  6 23 26 15 21 28 31
   2624145.49408   2044788.30008  21542419.40108  21542420.57108
   4970789.58207   3873338.63007  24809546.59707  24809549.62007
  -5230659.11608  -4075834.17108  24288064.51208  24288067.43708
  -5679320.64208  -4425443.08208  20537124.79608  20537125.87208
    891974.50309    695045.34809  20472291.41809  20472291.87509
   -434056.68509   -338226.17308  20890414.59809  20890415.08908
 93 07 23 02 23 00.0000000  0  6 23 26 15 21 28 31
   2729170.24408   2126625.72408  21562404.92508  21562406.16508
   5113544.59207   3984576.20007  24836712.11107  24836715.27707
  -5445765.57108  -4243449.44408  24247131.02108  24247134.00208
  -5720163.75808  -4457268.88708  20529352.56308  20529353.64808
    972130.28209    757504.37809  20487544.59709  20487545.04509
   -514748.24309   -401102.69408  20875059.49109  20875059.97208
 93 07 23 02 24 00.0000000  0  6 23 26 15 21 28 31
   2836015.74708   2209881.92108  21582736.95108  21582738.22008
   5257966.75807   4097112.83407  24864195.16207  24864198.07707
  -5660509.52408  -4410782.24708  24206266.55008  24206269.42208
  -5758587.82508  -4487209.71808  20522040.68008  20522041.76008
   1054571.60809    821744.34809  20503232.79609  20503233.20609
   -593369.85809   -462366.27408  20860098.25709  20860098.72508
 93 07 23 02 25 00.0000000  0  6 23 15 26 21 28 31
   2944548.93508   2294453.20608  21603390.12108  21603391.42908
  -5874942.00708  -4577872.34508  24165461.25908  24165464.05208
   5403898.55307   4210825.77207  24891965.19207  24891967.98807
  -5794696.04608  -4515345.99408  20515169.48608  20515170.62608
   1139320.84109    887782.68809  20519360.09009  20519360.47909
   -669907.93209   -522006.31808  20845533.51209  20845534.03608
 93 07 23 02 26 00.0000000  0  6 23 26 15 21 28 31
   3054761.69908   2380333.24108  21624362.92308  21624364.24008
   5551283.99207   4325671.43007  24920011.86507  24920014.71507
  -6089047.74208  -4744707.84208  24124718.23108  24124720.91408
  -5828597.55608  -4541762.75308  20508718.27608  20508719.37908
   1226382.87809    955623.21509  20535927.37709  20535927.78409
   -744316.02409   -579986.63708  20831374.09609  20831374.62908
 93 07 23 02 27 00.0000000  0  6 23 15 26 21 28 31
   3166719.64908   2467573.16308  21645667.85708  21645669.19808
  -6302798.43008  -4911266.68408  24084042.79208  24084045.29508
   5700147.88007   4441669.15207  24948339.36007  24948342.77307
  -5860307.05208  -4566471.45208  20502684.18008  20502685.29608
   1315647.19309   1025179.80009  20552913.76609  20552914.18009
   -816563.67709   -636283.50508  20817625.77009  20817626.35508
 93 07 23 02 28 00.0000000  0  6 23 26 15 21 28 31
   3280529.12208   2556255.83008  21667325.08108  21667326.44808
   5850559.03007   4558872.53407  24976962.03207  24976965.21407
  -6516143.81408  -5077509.73208  24043444.45208  24043446.81908
  -5889752.69008  -4589416.10708  20497080.88308  20497081.97308
   1407044.44709   1096398.41608  20570306.11909  20570306.57108
   -886651.39009   -690897.30208  20804288.59709  20804289.13908
 93 07 23 02 29 00.0000000  0  5 23 15 21 28 31
   3396181.98008   2646374.89808  21689333.19408  21689334.53808
  -6729040.02208  -5243402.79308  24002931.71208  24002933.90608
  -5916893.78408  -4610565.01508  20491916.15408  20491917.20308
   1500577.96109   1169281.64808  20588105.01609  20588105.44608
   -954573.27109   -743823.43708  20791363.45209  20791363.95608
 93 07 23 02 30 00.0000000  0  6 23 15 26 21 28 31
   3513497.69108   2737789.69808  21711657.66308  21711659.00308
  -6941570.35608  -5409010.77108  23962488.42908  23962490.67708
        -0.70617        -0.36517  25035100.90017  25035104.40017
  -5941782.56209  -4629958.87008  20487179.97309  20487181.02808
   1596247.56609   1243829.36408  20606310.25509  20606310.71808
  -1020429.28109   -795139.79808  20778831.49009  20778831.99708
 93 07 23 02 31 00.0000000  0  6 23 15 26 21 28 31
   3632496.99708   2830516.39008  21734302.51908  21734303.87808
  -7153691.31808  -5574299.75408  23922123.09108  23922125.24108
    155009.69107    120786.83307  25064598.70007  25064602.07507
  -5964309.26308  -4647512.14808  20482893.27908  20482894.34508
   1694176.87709   1320137.89508  20624945.71209  20624946.17608
  -1084183.33509   -844818.26708  20766699.42509  20766699.95008
 93 07 23 02 32 00.0000000  0  6 23 15 26 21 28 31
   3753190.25608   2924563.04808  21757269.70808  21757271.10508
  -7365385.99208  -5739256.53008  23881838.83008  23881841.07708
    311474.96307    242707.74207  25094372.97407  25094376.19807
  -5984492.38608  -4663239.26208  20479052.54908  20479053.64208
   1794392.01409   1398227.58608  20644015.90709  20644016.40108
  -1145803.23309   -892833.75608  20754973.60609  20754974.12608
 93 07 23 02 33 00.0000000  0  5 23 15 21 28 31
   3875583.02408   3019933.99108  21780560.27908  21780561.74208
  -7576645.22808  -5903873.99608  23841637.43208  23841639.75208
  -6002429.75708  -4677216.44308  20475639.16808  20475640.31408
   1896790.18409   1478018.34208  20663501.80209  20663502.26908
  -1205285.76609   -939183.76308  20743654.38309  20743654.94008
 93 07 23 02 34 00.0000000  0  5 23 15 21 28 31
   3999711.28008   3116657.26608  21804181.25708  21804182.61508
  -7787427.57608  -6068119.86608  23801526.72508  23801529.09708
  -6018178.24108  -4689487.99808  20472642.33508  20472643.48708
   2001314.30409   1559465.67908  20683392.13209  20683392.60008
  -1262561.85309   -983814.46508  20732755.08809  20732755.63508
 93 07 23 02 35 00.0000000  0  6 23 15 02 21 28 31
   4125483.60308   3214661.62508  21828114.85808  21828116.27608
  -7997752.81108  -6232009.54608  23761503.12208  23761505.48208
        -0.78417        -0.26617  25553231.04917  25553235.53617
  -6031711.84608  -4700033.67208  20470066.96908  20470068.14208
   2107923.32509   1642537.60908  20703679.15009  20703679.59508
  -1317577.07209  -1026683.44908  20722286.05209  20722286.63008
 93 07 23 02 36 00.0000000  0  6 23 15 02 21 28 31
   4252846.78708   3313905.61408  21852351.37708  21852352.76208
  -8207600.72008  -6395527.28208  23721570.31708  23721572.66108
   -175426.57207   -136695.59807  25519848.66907  25519852.92907
  -6042957.37408  -4708796.42908  20467927.04808  20467928.16408
   2216654.48809   1727263.15908  20724370.04109  20724370.45508
  -1370265.77009  -1067739.56408  20712259.64409  20712260.25608
 93 07 23 02 37 00.0000000  0  6 23 15 02 21 28 31
   4381836.73908   3414417.21708  21876897.37908  21876898.72408
  -8416960.23108  -6558664.44208  23681730.41808  23681732.77308
   -349552.67307   -272378.15207  25486713.59107  25486717.82607
  -6051862.29009  -4715735.33108  20466232.58209  20466233.67708
   2327560.84209   1813683.66008  20745474.87909  20745475.32708
  -1420641.51309  -1106993.38008  20702673.48409  20702674.08208
 93 07 23 02 38 00.0000000  0  6 23 15 02 21 28 31
   4512395.76808   3516151.47708  21901742.09708  21901743.46708
  -8625868.26408  -6721449.81308  23641976.46108  23641978.72008
   -522533.97407   -407168.67707  25453796.33807  25453800.58307
  -6058484.41709  -4720895.43508  20464972.45909  20464973.50308
   2440621.15609   1901782.57308  20766989.59909  20766990.09808
  -1468805.26509  -1144523.57208  20693508.25009  20693508.85508
 93 07 23 02 39 00.0000000  0  6 23 15 02 21 28 31
   4644448.43708   3619049.60408  21926870.80008  21926872.29008
  -8834289.36008  -6883855.77608  23602315.15908  23602317.46708
   -694321.50007   -541028.96107  25421106.15907  25421110.42007
  -6062814.64309  -4724269.64108  20464148.44909  20464149.44908
   2555842.12809   1991565.11308  20788915.31209  20788915.84508
  -1514824.20509  -1180382.48108  20684751.11009  20684751.68808
 93 07 23 02 40 00.0000000  0  6 23 15 02 21 28 31
   4777971.56008   3723093.54708  21952279.46708  21952280.84808
  -9042180.95508  -7045849.14308  23562754.63708  23562756.88908
   -864799.40207   -673868.73007  25388665.06607  25388669.36107
  -6064817.46909  -4725830.28808  20463767.34609  20463768.29808
   2673200.66708   2083013.28808  20811248.05308  20811248.61808
  -1558643.03309  -1214527.02008  20676412.69409  20676413.27308
 93 07 23 02 41 00.0000000  0  6 23 15 02 21 28 31
   4913029.30708   3828333.29408  21977980.07708  21977981.56008
  -9249543.85708  -7207430.53308  23523294.70108  23523296.91508
  -1033885.53707   -805624.06207  25356489.14307  25356493.18707
  -6064525.11209  -4725602.48208  20463822.95509  20463823.95108
   2792626.07708   2176072.01308  20833973.90508  20833974.45108
  -1600239.61309  -1246939.93608  20668497.23309  20668497.75108
 93 07 23 02 42 00.0000000  0  6 23 15 02 21 28 31
   5049713.06808   3934840.06408  22003990.27608  22003991.70508
  -9456360.01508  -7368585.88908  23483938.86508  23483941.06508
  -1201486.79307   -936222.30907  25324595.53407  25324599.30107
  -6062003.45809  -4723637.56708  20464302.78009  20464303.79308
   2914096.65308   2270724.37608  20857089.04608  20857089.55808
  -1639562.90109  -1277581.45408  20661014.22009  20661014.79408
 93 07 23 02 43 00.0000000  0  6 23 15 02 21 28 31
   5188024.39908   4042615.06708  22030310.07108  22030311.48908
  -9662617.50508  -7529305.92208  23444689.31608  23444691.59208
  -1367665.30007  -1065711.97107  25292972.60007  25292976.32707
  -6057281.59008  -4719958.20108  20465201.31208  20465202.43108
   3037605.26708   2366964.81508  20880592.09108  20880592.60608
  -1676577.48109  -1306423.97608  20653970.50609  20653971.10008
 93 07 23 02 44 00.0000000  0  6 23 15 02 21 28 31
   5327873.33308   4151588.20308  22056922.49008  22056924.01008
  -9868306.80308  -7689583.21108  23405547.98808  23405550.09608
  -1532556.51207  -1194198.53407  25261594.59707  25261598.52707
  -6050307.76108  -4714524.05908  20466528.39908  20466529.52608
   3163162.42108   2464801.52208  20904484.68408  20904485.16108
  -1711265.87309  -1333453.88708  20647369.53209  20647370.11008
 93 07 23 02 45 00.0000000  0  6 23 15 02 21 28 31
   5469250.20308   4261751.93408  22083825.64508  22083827.16308
 -10073427.90908  -7849417.76608  23366514.77408  23366516.82008
  -1696106.86607  -1321640.24407  25230472.19407  25230476.08707
  -6041021.25508  -4707287.83008  20468295.63408  20468296.74008
   3290831.29208   2564283.71608  20928779.32008  20928779.83608
  -1743586.06909  -1358638.45308  20641219.23509  20641219.85508
 93 07 23 02 46 00.0000000  0  6 23 15 02 21 28 31
   5612164.37608   4373113.56808  22111021.32408  22111022.81908
 -10277985.27808  -8008813.04608  23327588.70108  23327590.68608
  -1858149.55308  -1447907.13808  25199636.68508  25199640.17008
  -6029479.37308  -4698294.16508  20470491.94208  20470493.08608
   3420586.36508   2665391.52308  20953470.92208  20953471.45108
  -1773552.49109  -1381988.90908  20635516.75309  20635517.42508
 93 07 23 02 47 00.0000000  0  6 28 23 15 02 21 31
   3552363.29408   2768074.80108  20978547.43408  20978547.99908
   5756579.41308   4485644.71108  22138502.69808  22138504.20408
 -10481965.27308  -8167758.41608  23288772.60708  23288774.48208
  -2018612.34608  -1572942.96207  25169101.71208  25169105.02307
  -6015753.59108  -4687598.76508  20473103.84308  20473105.00308
  -1801240.41809  -1403563.91608  20630247.89209  20630248.57408
 93 07 23 02 48 00.0000000  0  6 28 23 15 02 21 31
   3686052.53408   2872248.19608  21003987.59108  21003988.16908
   5902308.85208   4599200.05908  22166234.07708  22166235.63008
 -10685406.13908  -8326283.67108  23250058.95708  23250060.82108
  -2177609.31408  -1696836.58907  25138845.47808  25138848.76307
  -5999855.29208  -4675210.49308  20476129.23808  20476130.34108
  -1826800.96609  -1423481.22408  20625383.90209  20625384.55208
 93 07 23 02 49 00.0000000  0  6 28 23 15 02 21 31
   3821706.53208   2977952.57408  21029801.73108  21029802.32408
   6049294.16008   4713734.00908  22194204.52008  22194206.07108
 -10888248.23608  -8484342.36308  23211459.24708  23211461.24008
  -2335127.76908  -1819578.16708  25108870.48608  25108874.16008
  -5981680.20609  -4661048.10308  20479587.91409  20479589.02908
  -1850173.66109  -1441693.71208  20620936.25709  20620936.88708
 93 07 23 02 50 00.0000000  0  6 28 23 15 02 21 31
   3959389.42008   3085237.89008  21056001.95208  21056002.49508
   6197663.20408   4829346.19308  22222438.23808  22222439.82308
 -11090431.57108  -8641887.74008  23172984.93008  23172986.91808
  -2491059.06008  -1941082.97308  25079197.56008  25079201.36908
  -5961213.28009  -4645099.86208  20483482.59109  20483483.71208
  -1871221.02309  -1458094.24808  20616931.07609  20616931.65908
 93 07 23 02 51 00.0000000  0  6 28 23 15 02 21 31
   4099097.11708   3194100.98108  21082587.54108  21082588.10608
   6347495.51708   4946098.58408  22250950.44808  22250952.04308
 -11291919.64208  -8798891.36208  23134642.97008  23134644.85908
  -2645377.80908  -2061331.28108  25049831.68008  25049835.45508
  -5938497.10509  -4627398.96008  20487805.39309  20487806.51808
  -1889810.28409  -1472579.38308  20613393.59209  20613394.15708
 93 07 23 02 52 00.0000000  0  6 28 23 15 02 21 31
   4240764.82908   3304491.33808  21109545.98808  21109546.61308
   6498708.55808   5063926.85908  22279725.28608  22279726.98008
 -11492772.85108  -8955400.29808  23096421.78908  23096423.74908
  -2798100.54207  -2180335.92508  25020769.11107  25020773.15108
  -5913580.45009  -4607983.39908  20492546.91009  20492548.04208
  -1905993.55809  -1485189.72408  20610314.04509  20610314.54208
 93 07 23 02 53 00.0000000  0  6 28 23 15 02 21 31
   4384397.55808   3416412.87908  21136878.30008  21136878.94208
   6651239.10508   5182781.77308  22308750.97808  22308752.60508
 -11693000.14408  -9111421.51108  23058319.74108  23058321.72508
  -2949253.44907  -2298117.34008  24992005.56007  24992009.48808
  -5886396.95108  -4586801.46608  20497719.69808  20497720.86908
  -1919829.77809  -1495971.19408  20607681.21409  20607681.71608
 93 07 23 02 54 00.0000000  0  6 28 23 15 02 21 31
   4529981.69908   3529855.01608  21164582.13408  21164582.84008
   6805093.61108   5302668.34108  22338028.66108  22338030.27208
 -11892577.53908  -9266936.31208  23020341.42608  23020343.35608
  -3098831.21907  -2414671.34808  24963541.94507  24963545.86708
  -5856941.98909  -4563849.56308  20503324.83309  20503325.97108
  -1931320.61109  -1504925.09008  20605494.58109  20605495.09808
 93 07 23 02 55 00.0000000  0  6 28 23 15 02 21 31
   4677438.99608   3644756.76108  21192642.10408  21192642.89708
   6960316.69608   5423621.33008  22367566.66908  22367568.32408
 -12091498.94908  -9421939.95508  22982487.98808  22982489.83408
  -3246836.53808  -2530000.06808  24935377.49108  24935381.35208
  -5825331.98109  -4539218.39808  20509339.99409  20509341.12608
  -1940470.39809  -1512054.79508  20603753.42009  20603753.90408
 93 07 23 02 56 00.0000000  0  6 28 23 15 02 21 31
   4826714.52708   3761075.29708  21221048.40108  21221049.19308
   7116928.06208   5545656.09508  22397368.83008  22397370.42508
 -12289734.46208  -9576409.12408  22944764.90708  22944766.85508
  -3393238.64208  -2644079.51308  24907517.94508  24907521.74008
  -5791665.54009  -4512984.81708  20515746.56109  20515747.69208
  -1947275.52809  -1517357.49808  20602458.53109  20602459.00108
 93 07 23 02 57 00.0000000  0  6 28 23 15 02 21 31
   4977797.29808   3878802.07308  21249798.70308  21249799.51808
   7274859.96508   5668719.85008  22427422.27808  22427423.98908
 -12487255.95508  -9730321.90508  22907177.75408  22907179.71108
  -3537992.74608  -2756874.80807  24879972.09308  24879975.77607
  -5755871.13509  -4485093.08208  20522558.03209  20522559.16408
  -1951767.74609  -1520857.93708  20601603.68109  20601604.11308
 93 07 23 02 58 00.0000000  0  6 28 23 15 02 21 31
   5130735.20708   3997974.40808  21278901.87508  21278902.69008
   7434028.29008   5792747.04508  22457711.08708  22457712.79308
 -12684028.57708  -9883651.14908  22869733.08608  22869735.05408
  -3681002.76008  -2868311.06208  24852758.27508  24852761.84708
  -5717800.89809  -4455427.97208  20529802.51909  20529803.65608
  -1953922.81309  -1522537.21908  20601193.63309  20601194.10908
 93 07 23 02 59 00.0000000  0  6 28 23 15 02 21 31
   5285517.70708   4118584.08308  21308356.09508  21308356.90308
   7594376.21808   5917693.41108  22488224.36508  22488225.97108
 -12880064.66408 -10036406.47008  22832428.61508  22832430.61508
  -3822217.60708  -2978348.49108  24825885.85508  24825889.30708
  -5677468.69009  -4424000.29108  20537477.48809  20537478.64608
  -1953705.83409  -1522368.15408  20601234.84909  20601235.34208
 93 07 23 03 00 00.0000000  0  6 28 23 15 02 21 31
   5442197.67408   4240672.30908  21338171.37908  21338172.16408
   7755979.77108   6043618.18708  22518976.54608  22518978.27408
 -13075341.45308 -10188570.13408  22795268.62208  22795270.60408
  -3961662.62808  -3087006.82608  24799350.14608  24799353.58808
  -5634928.77108  -4390852.31708  20545572.62708  20545573.74208
  -1951097.40609  -1520335.62208  20601731.27109  20601731.77408
 93 07 23 03 01 00.0000000  0  6 28 23 15 02 21 31
   5600833.31008   4364284.41708  21368358.67808  21368359.48008
   7918843.86708   6170525.19208  22549968.47408  22549970.36508
 -13269852.73608 -10340137.31008  22758254.28008  22758256.26108
  -4099375.31408  -3194315.32708  24773144.21808  24773147.66808
  -5590262.43308  -4356047.39708  20554072.28008  20554073.44308
  -1946084.83309  -1516429.72508  20602685.16409  20602685.69208
 93 07 23 03 02 00.0000000  0  6 28 23 15 02 21 31
   5761385.51908   4489389.96708  21398910.88908  21398911.66208
   8082865.30308   6298334.01908  22581181.00208  22581182.71608
 -13463633.50608 -10491135.25308  22721378.91308  22721380.90208
  -4235381.44808  -3300294.02308  24747263.01208  24747266.69808
  -5543499.95808  -4319609.12108  20562970.94308  20562972.06108
  -1938738.37309  -1510705.21108  20604083.13509  20604083.63108
 93 07 23 03 03 00.0000000  0  6 28 23 15 02 21 31
   5923764.50708   4615918.97408  21429810.62708  21429811.45708
   8248063.99208   6427060.18808  22612617.36808  22612619.20108
 -13656648.41408 -10641536.42008  22684649.34208  22684651.38208
  -4369623.47308  -3404898.07308  24721717.45808  24721721.30008
  -5494538.08508  -4281457.02908  20572288.09008  20572289.27608
  -1929025.11309  -1503136.44008  20605931.48409  20605931.94708
 93 07 23 03 04 00.0000000  0  6 28 23 15 02 21 31
   6087891.17908   4743809.81308  21461042.99108  21461043.83508
   8414447.48108   6556709.57608  22644279.11808  22644280.91008
 -13848883.92808 -10791330.27008  22648068.14108  22648070.10008
  -4502099.28208  -3508125.84508  24696508.12408  24696511.85008
  -5443389.66308  -4241601.13808  20582021.34508  20582022.53608
  -1916892.05409  -1493682.11308  20608240.34609  20608240.85008
 93 07 23 03 05 00.0000000  0  6 28 23 15 02 21 31
   6253690.26008   4873003.83408  21492593.47908  21492594.32008
   8581938.33408   6687221.84208  22676151.70008  22676153.45908
 -14040381.27508 -10940548.92208  22611627.41408  22611629.34508
  -4632897.01608  -3610046.06108  24671618.06308  24671621.49808
  -5390187.55408  -4200144.96908  20592145.30008  20592146.46808
  -1902392.47409  -1482383.74708  20610999.49109  20611000.03808
 93 07 23 03 06 00.0000000  0  6 28 23 15 02 21 31
   6421170.36608   5003507.72708  21524464.04508  21524464.87508
   8750568.19908   6818621.64208  22708240.93308  22708242.84008
 -14231071.32808 -11089138.51908  22575340.39608  22575342.20808
  -4761900.17108  -3710567.89808  24647069.59108  24647072.79008
  -5334916.81508  -4157076.88208  20602663.03008  20602664.23708
  -1885558.44109  -1469266.33108  20614202.87409  20614203.44108
 93 07 23 03 07 00.0000000  0  6 28 23 15 02 21 31
   6590256.31208   5135262.93608  21556640.11508  21556640.94108
   8920357.96608   6950925.27008  22740550.80408  22740552.73608
 -14420903.88308 -11237059.94008  22539216.43208  22539218.21008
  -4888956.61908  -3809572.85308  24622891.55708  24622894.66108
  -5277487.46008  -4112326.75408  20613591.52108  20613592.71008
  -1866404.42509  -1454341.13408  20617847.80909  20617848.37808
 93 07 23 03 08 00.0000000  0  6 28 23 15 02 21 31
   6761049.74408   5268348.64108  21589141.09908  21589141.91108
   9091240.06408   7084080.06408  22773068.54408  22773070.55308
 -14609886.16908 -11384318.80608  22503254.28008  22503255.99808
  -5014022.04608  -3907026.33908  24599092.52208  24599095.52608
  -5217855.38308  -4065860.21908  20624939.17708  20624940.36908
  -1844860.35909  -1437553.56008  20621947.46809  20621948.01608
 93 07 23 03 09 00.0000000  0  6 28 23 15 02 21 31
   6933710.88508   5402889.72008  21621997.43208  21621998.25408
   9263223.58908   7218093.11208  22805796.05508  22805798.16908
 -14797992.47108 -11530895.08608  22467458.75308  22467460.44708
  -5137115.16508  -4002942.99808  24575668.63308  24575671.50408
  -5156086.59108  -4017728.70708  20636693.40308  20636694.60608
  -1820826.44509  -1418825.84208  20626521.01509  20626521.54608
 93 07 23 03 10 00.0000000  0  6 28 23 02 15 21 31
   7108140.96908   5538809.17808  21655190.52108  21655191.38608
   9436274.99908   7352938.27608  22838726.68808  22838728.74708
  -5258377.93608  -4097433.39108  24552592.98808  24552596.07508
 -14985262.96808 -11676820.08808  22431822.37608  22431824.01108
  -5092358.24408  -3968070.27408  20648820.48008  20648821.78408
  -1794377.22709  -1398216.07008  20631554.19209  20631554.70308
 93 07 23 03 11 00.0000000  0  6 28 23 15 02 21 31
   7284155.66208   5675963.38208  21688685.07508  21688686.01308
   9610349.78508   7488580.87708  22871852.14608  22871854.07808
 -15171717.19308 -11822109.02908  22396341.17708  22396342.90908
  -5377805.47508  -4190493.73608  24529866.48708  24529869.65408
  -5026684.67308  -3916896.08308  20661317.75408  20661318.99608
  -1765672.50009  -1375848.75308  20637016.51309  20637017.02908
 93 07 23 03 12 00.0000000  0  6 28 23 02 15 21 31
   7461771.13108   5814364.95308  21722484.11408  21722485.09808
   9785509.93808   7625069.22608  22905184.10508  22905186.15408
  -5495291.48108  -4282041.20108  24507509.55108  24507512.78108
 -15357247.61508 -11966678.12508  22361035.81808  22361037.67208
  -4958846.86308  -3864035.46908  20674226.90208  20674228.09808
  -1734647.72209  -1351673.60608  20642920.29209  20642920.81208
 93 07 23 03 13 00.0000000  0  6 28 23 15 02 21 31
   7641014.29408   5954034.85208  21756593.09808  21756594.07108
   9961754.28408   7762402.39608  22938722.39908  22938724.44908
 -15541846.70708 -12110521.50508  22325907.67308  22325909.66708
  -5610844.78108  -4372082.64608  24485520.30508  24485523.78708
  -4888859.82308  -3809500.13108  20687545.01408  20687546.19208
  -1701212.97209  -1325620.56308  20649282.80209  20649283.33008
 93 07 23 03 14 00.0000000  0  6 28 23 02 15 21 31
   7821910.07808   6094992.50108  21791016.55808  21791017.57908
  10139051.51908   7900556.00508  22972460.94508  22972462.99108
  -5724432.92608  -4460592.79408  24463905.08508  24463908.56908
 -15725513.81308 -12253638.67108  22290956.93308  22290958.91708
  -4816824.09708  -3753368.42208  20701253.00108  20701254.21208
  -1665315.18509  -1297648.27008  20656113.91009  20656114.43108
 93 07 23 03 15 00.0000000  0  6 28 23 02 15 21 31
   8004432.50208   6237217.68108  21825749.45508  21825750.47908
  10317334.55308   8039477.75808  23006387.08808  23006389.30408
  -5835998.68308  -4547527.05508  24442674.86008  24442678.31408
 -15908265.83008 -12396042.78408  22256180.44608  22256182.27608
  -4742775.58308  -3695668.30708  20715343.96608  20715345.20208
  -1626935.85309  -1267742.30608  20663417.25309  20663417.78608
 93 07 23 03 16 00.0000000  0  6 28 23 02 21 31 15
   8188464.39208   6380619.05508  21860769.55908  21860770.64608
  10496444.50008   8179043.85208  23040470.78208  23040472.83708
  -5945604.11508  -4632933.78108  24421817.71908  24421821.19408
  -4666804.41308  -3636470.01908  20729800.83008  20729802.08008
  -1586232.08809  -1236025.09408  20671163.00209  20671163.51308
 -16090200.22508 -12537809.79008  22221559.48408  22221561.17808
 93 07 23 03 17 00.0000000  0  7 01 28 23 02 15 21 31
        -0.03918        -0.11418  22584901.21418  22584903.28018
   8374038.19908   6525221.93608  21896083.22008  21896084.36208
  10676429.46108   8319291.79508  23074720.81308  23074722.74708
  -6053218.18008  -4716788.80808  24401339.27808  24401342.47708
 -16271227.82908 -12678870.20408  22187111.08908  22187112.60708
  -4588917.43108  -3575778.88808  20744622.25708  20744623.48308
  -1543224.34509  -1202512.57708  20679347.01809  20679347.57808
 93 07 23 03 18 00.0000000  0  7 01 28 23 21 31 02 15
   -159053.79908   -123938.03108  22554634.34808  22554636.38908
   8561130.76208   6671008.25608  21931685.70008  21931686.87608
  10857455.54108   8460350.99008  23109168.93408  23109171.06908
  -4509077.96808  -3513566.34108  20759815.20208  20759816.43408
  -1497948.22209  -1167232.49208  20687962.73909  20687963.33108
  -6158775.78308  -4799041.40308  24381252.13308  24381255.21908
 -16451251.12108 -12819148.03508  22152853.78808  22152855.19108
 93 07 23 03 19 00.0000000  0  7 01 28 23 02 15 21 31
   -316516.32208   -246636.03508  22524670.17108  22524672.21708
   8749637.21408   6817896.30608  21967557.42208  21967558.62908
  11039518.28108   8602217.96708  23143814.49008  23143816.59008
  -6262291.06208  -4879702.59808  24361553.89108  24361556.87608
 -16630302.01708 -12958668.15908  22118781.48308  22118782.83108
  -4427225.20408  -3449784.99008  20775391.26708  20775392.55308
  -1450449.69309  -1130220.65808  20697001.46209  20697002.07908
 93 07 23 03 20 00.0000000  0  7 01 28 23 21 31 02 15
   -472280.42708   -368010.60208  22495029.18308  22495031.19308
   8939730.40608   6966020.77208  22003731.02608  22003732.17908
  11222549.96508   8744839.96308  23178644.34508  23178646.40708
  -4343222.53608  -3384328.39108  20791376.45108  20791377.74208
  -1400556.70509  -1091343.00908  20706495.78709  20706496.40608
  -6363670.97008  -4958699.84508  24342262.01008  24342265.08508
 -16808280.50508 -13097352.64208  22084913.24108  22084914.63108
 93 07 23 03 21 00.0000000  0  7 01 28 23 02 15 21 31
   -626303.39208   -488028.43208  22465719.58808  22465721.48108
   9131432.57608   7115398.97008  22040210.79708  22040211.95508
  11406341.41208   8888053.99008  23213618.88908  23213620.81708
  -6462995.14408  -5036095.23208  24323361.28808  24323363.99008
 -16985227.50408 -13235233.36908  22051241.22108  22051242.72708
  -4257207.53708  -3317303.73908  20807744.51908  20807745.78908
  -1348305.37409  -1050627.69408  20716438.89309  20716439.48408
 93 07 23 03 22 00.0000000  0  7 01 28 23 21 31 02 15
   -778587.01508   -606690.93108  22436740.93808  22436742.75808
   9324637.47008   7265948.12008  22076976.65108  22076977.82608
  11590917.45008   9031879.39008  23248742.45008  23248744.55108
  -4169266.61408  -3248778.37308  20824479.10008  20824480.39808
  -1293633.32109  -1008026.10408  20726842.64009  20726843.18008
  -6560279.05008  -5111900.81708  24304848.59408  24304851.47008
 -17161157.15708 -13372321.36308  22017762.93108  22017764.39808
 93 07 23 03 23 00.0000000  0  7 01 28 23 02 15 21 31
   -929209.35808   -724058.92508  22408078.45208  22408080.18708
   9519300.91708   7417633.80908  22114020.00408  22114021.26008
  11776438.09908   9176440.84608  23284045.86608  23284048.12408
  -6655439.79008  -5186051.98308  24286740.09108  24286742.96808
 -17336045.99608 -13508598.33408  21984482.65408  21984484.17308
  -4079362.88408  -3178723.54908  20841587.30508  20841588.56408
  -1236408.63009   -963435.44908  20737732.18309  20737732.72908
 93 07 23 03 24 00.0000000  0  7 01 28 23 02 21 31 15
  -1078206.83408   -840160.79008  22379725.09608  22379726.85208
   9715389.52908   7570430.02908  22151334.36808  22151335.63208
  11962925.62908   9321755.71408  23319533.52708  23319535.64508
  -6748479.97808  -5258550.76608  24269034.94508  24269037.96508
  -3987517.25808  -3107155.56108  20859064.98708  20859066.25608
  -1176694.93809   -916905.31208  20749095.30209  20749095.87708
 -17509919.38308 -13644084.04208  21951395.65308  21951397.09108
 93 07 23 03 25 00.0000000  0  7 01 28 23 02 15 21 31
  -1225542.91508   -954968.06508  22351687.91708  22351689.78908
   9912810.39208   7724264.36008  22188902.55108  22188903.76708
  12150274.29708   9467741.59908  23355184.80508  23355186.91708
  -6839481.33308  -5329460.84308  24251717.89308  24251721.01408
 -17682821.95608 -13778813.27508  21918493.36008  21918494.79708
  -3893864.65108  -3034179.53508  20876886.57508  20876887.82308
  -1114768.91309   -868651.27908  20760879.35609  20760879.96508
 93 07 23 03 26 00.0000000  0  7 01 28 23 02 21 31 15
  -1371019.23808  -1068326.17908  22324004.67008  22324006.40408
  10111570.05208   7879141.90308  22226725.34808  22226726.59008
  12338435.79408   9614360.84608  23390990.71708  23390992.96708
  -6928330.39908  -5398693.80208  24234810.43108  24234813.68808
  -3798370.71508  -2959768.71308  20895058.49108  20895059.77108
  -1050722.06309   -818744.65708  20773067.10909  20773067.67308
 -17854653.91108 -13912708.26308  21885794.76008  21885796.25308
 93 07 23 03 27 00.0000000  0  7 01 28 23 02 15 21 31
  -1514676.63408  -1180266.94908  22296667.54708  22296669.19208
  10311614.78708   8035020.81208  22264792.74008  22264793.96008
  12527212.51908   9761459.50008  23426913.81908  23426916.16408
  -7015030.56108  -5466252.30008  24218311.84608  24218315.08008
 -18025456.29108 -14045800.98408  21853292.12208  21853293.67808
  -3701034.72808  -2883922.52308  20913580.99308  20913582.27408
   -984508.75409   -767149.88608  20785667.13409  20785667.69408
 93 07 23 03 28 00.0000000  0  7 01 28 23 02 21 31 15
  -1656479.64208  -1290762.72708  22269683.31408  22269684.86208
  10513133.47108   8192048.24308  22303140.49408  22303141.80908
  12716770.93008   9909167.24208  23462985.60308  23462988.16508
  -7099438.44908  -5532024.61608  24202249.60208  24202252.76208
  -3601696.88608  -2806516.44808  20932484.40208  20932485.70808
   -915816.11109   -713623.16508  20798738.91109  20798739.48308
 -18195086.29608 -14177980.16408  21821012.58008  21821014.09708
 93 07 23 03 29 00.0000000  0  7 01 28 23 02 15 21 31
  -1795311.76608  -1398943.54708  22243264.42008  22243265.92908
  10717278.05308   8351121.82408  22341988.03208  22341989.35008
  12908362.97208  10058459.62608  23499444.44608  23499447.03908
  -7180458.74808  -5595157.26508  24186831.75608  24186835.05408
 -18362354.45008 -14308318.94508  21789182.47108  21789183.92408
  -3499238.70508  -2726678.93608  20951981.56008  20951982.86108
   -843442.75709   -657228.35908  20812511.15909  20812511.72608
 93 07 23 03 30 00.0000000  0  7 01 28 23 02 21 31 15
  -1931688.67608  -1505211.20708  22217312.65508  22217314.17008
  10923419.10308   8511751.11708  22381215.37808  22381216.73208
  13101444.31708  10208912.51208  23536186.61208  23536189.07808
  -7258678.33708  -5656107.54408  24171947.30408  24171950.38708
  -3394197.90108  -2644828.98908  20971970.15508  20971971.51008
   -768006.75109   -598447.07008  20826866.13109  20826866.69508
 -18527771.02908 -14437214.94208  21757704.68408  21757706.18608
 93 07 23 03 31 00.0000000  0  7 01 21 28 23 02 15 31
  -2067926.76008  -1611370.69708  22191387.33608  22191388.89908
  -3289019.84808  -2562872.09208  20991984.84508  20991986.15308
  11129038.03608   8671973.57208  22420343.33708  22420344.62608
  13293565.59508  10358617.29408  23572746.25608  23572748.66608
  -7336464.82508  -5716720.32908  24157144.98608  24157147.68508
 -18693786.68908 -14566577.75608  21726112.84808  21726114.41408
   -692071.38209   -539276.66708  20841316.21909  20841316.77608
 93 07 23 03 32 00.0000000  0  7 01 21 28 23 31 02 15
  -2202802.24808  -1716468.41908  22165721.37408  22165722.94808
  -3182657.48608  -2479992.35208  21012224.96208  21012226.25008
  11335225.59108   8832639.09808  22459579.66308  22459580.88908
  13485830.29408  10508433.84108  23609333.08208  23609335.65108
   -614520.88809   -478847.72608  20856073.58209  20856074.17708
  -7412556.65908  -5776012.63008  24142665.14308  24142667.46208
 -18859303.35608 -14695551.74408  21694616.03908  21694617.66808
 93 07 23 03 33 00.0000000  0  7 01 21 28 23 02 15 31
  -2335862.19508  -1820151.43408  22140400.86608  22140402.46308
  -3074696.46308  -2395866.90208  21032769.27208  21032770.52908
  11542468.36508   8994126.86808  22499016.71408  22499018.01408
  13678652.08008  10658684.46108  23646025.87608  23646028.51208
  -7486501.34808  -5833631.83408  24128593.74908  24128596.56908
 -19023850.91808 -14823770.58508  21663303.62508  21663305.23608
   -534872.01509   -416783.69008  20871230.33909  20871230.89608
 93 07 23 03 34 00.0000000  0  7 01 21 28 23 31 02 15
  -2467034.90008  -1922363.87508  22115439.54608  22115441.12308
  -2964962.63008  -2310360.04108  21053651.03308  21053652.31008
  11750933.70408   9156567.28708  22538686.44408  22538687.75308
  13872129.40708  10809445.89908  23682843.51908  23682846.12008
   -452993.78808   -352982.49708  20886811.20908  20886811.78608
  -7558312.57708  -5889588.56908  24114928.50108  24114931.48008
 -19187235.49508 -14951083.20008  21632212.59808  21632214.14808
 93 07 23 03 35 00.0000000  0  7 01 21 28 23 02 15 31
  -2596343.37008  -2023123.66508  22090832.91408  22090834.51008
  -2853405.49908  -2223432.43208  21074879.64608  21074880.97308
  11960700.98208   9320022.18708  22578603.86508  22578605.20708
  14066312.67108  10960757.41608  23719795.43008  23719798.08708
  -7628064.21408  -5943940.43408  24101655.16308  24101657.96108
 -19349415.24908 -15077456.98808  21601350.81808  21601352.31308
   -368890.89108   -287447.79708  20902815.46408  20902816.01708
 93 07 23 03 36 00.0000000  0  7 01 21 28 23 31 02 15
  -2723523.52408  -2122225.04008  22066631.31108  22066632.86108
  -2739842.37408  -2134941.71808  21096489.99608  21096491.29608
  12172029.02808   9484693.26208  22618818.41108  22618819.84108
  14261355.02108  11112738.35908  23756910.93008  23756913.62208
   -282365.07709   -220025.11108  20919280.85809  20919281.38608
  -7695424.08708  -5996428.61108  24088837.12908  24088839.70508
 -19510200.08608 -15202743.82908  21570754.54808  21570755.89908
 93 07 23 03 37 00.0000000  0  7 01 21 28 23 02 15 31
  -2848584.67108  -2219675.23808  22042832.84508  22042834.45008
  -2624401.01208  -2044987.43908  21118457.72208  21118459.06708
  12384728.22608   9650432.76108  22659293.78208  22659295.28108
  14457096.90908  11265264.39508  23794159.43008  23794162.20908
  -7760292.88108  -6046975.67908  24076493.13508  24076495.90008
 -19669679.04208 -15327013.11008  21540406.69808  21540408.00308
   -193472.55108   -150758.23208  20936196.54308  20936197.08208
 93 07 23 03 38 00.0000000  0  7 01 21 28 23 31 02 15
  -2971578.29808  -2315514.38208  22019427.86208  22019429.44608
  -2507215.98608  -1953674.46608  21140757.39508  21140758.78608
  12598596.18208   9817082.98708  22699991.66408  22699993.20208
  14653548.33208  11418343.31608  23831542.98108  23831545.76908
   -102258.65109    -79682.49808  20953554.03209  20953554.55208
  -7822707.33008  -6095610.27508  24064615.91308  24064618.57808
 -19827891.85408 -15450295.78808  21510299.76608  21510301.06808
 93 07 23 03 39 00.0000000  0  7 01 21 28 23 02 15 31
  -3092578.21708  -2409799.99008  21996402.36808  21996403.92708
  -2388349.54908  -1861051.30108  21163376.89108  21163378.23308
  12813454.96108   9984505.27408  22740877.98008  22740879.60208
  14850703.33708  11571970.46708  23869060.45208  23869063.13108
  -7882791.10708  -6142428.76808  24053182.19108  24053184.89508
 -19984863.36908 -15572611.22308  21480429.03908  21480430.31208
     -8734.32209     -6806.43008  20971351.13309  20971351.67108
 93 07 23 03 40 00.0000000  0  7 01 21 28 23 31 02 15
  -3211558.21508  -2502511.64608  21973761.18108  21973762.76008
  -2267745.58708  -1767074.22208  21186327.13308  21186328.53308
  13029382.57708  10152760.43608  22781967.91508  22781969.51408
  15048499.75608  11726097.42208  23906700.01008  23906702.62708
     87114.85608     67881.21108  20989590.69508  20989591.18808
  -7940647.24008  -6187511.43908  24042172.45608  24042175.63308
 -20140536.42408 -15693914.87208  21450805.42908  21450806.68608
 93 07 23 03 41 00.0000000  0  7 01 21 28 23 31 02 15
  -3328457.75508  -2593602.16808  21951515.92008  21951517.43808
  -2145354.51508  -1671704.59008  21209617.38908  21209618.73508
  13246447.32808  10321901.68108  22823273.88208  22823275.52208
  15246877.26708  11880677.17808  23944450.02408  23944452.62208
    185205.83308    144315.70808  21008256.84108  21008257.34808
  -7996302.24708  -6230878.93008  24031581.77408  24031584.75408
 -20294889.31108 -15814189.82408  21421432.99908  21421434.31308
 93 07 23 03 42 00.0000000  0  7 01 21 28 23 31 02 15
  -3443329.17908  -2683112.33508  21929656.60308  21929658.08608
  -2021282.70008  -1575025.28908  21233227.45608  21233228.91808
  13464561.50908  10491860.66208  22864779.88008  22864781.55808
  15445842.36208  12035714.79507  23982312.13308  23982314.50707
    285385.14708    222377.48308  21027320.31008  21027320.84508
  -8049720.33808  -6272503.39708  24021416.55408  24021419.33108
 -20447986.54808 -15933486.34608  21392299.47608  21392300.99708
 93 07 23 03 43 00.0000000  0  7 01 21 28 23 31 02 15
  -3556052.71108  -2770948.80608  21908206.02908  21908207.46708
  -1895469.29408  -1476988.90908  21257168.95308  21257170.43208
  13683791.69908  10662689.24608  22906497.93108  22906499.68808
  15645498.37708  12191290.80008  24020305.43208  24020308.16908
    387694.32508    302098.88308  21046789.12908  21046789.72508
  -8100735.27708  -6312255.25208  24011708.63408  24011711.30808
 -20599730.02708 -16051727.99108  21363423.55908  21363425.16508
 93 07 23 03 44 00.0000000  0  7 01 21 28 23 31 02 15
  -3666637.64708  -2857118.85208  21887162.35708  21887163.87708
  -1767934.81508  -1377611.43108  21281437.89708  21281439.36508
  13904135.64008  10834385.68608  22948428.24608  22948429.98808
  15845785.59808  12347358.60808  24058418.97708  24058421.69308
    492242.81308    383565.19708  21066684.02508  21066684.65408
  -8149323.00308  -6350115.80708  24002462.84608  24002465.41508
 -20750096.39108 -16168896.55808  21334809.79508  21334811.35608
 93 07 23 03 45 00.0000000  0  7 01 21 28 23 31 02 15
  -3775137.69208  -2941664.30208  21866515.44608  21866516.91408
  -1638792.79808  -1276981.32408  21306012.89908  21306014.34908
  14125516.68608  11006890.25908  22990555.88608  22990557.65908
  16046523.43208  12503777.56308  24096618.17508  24096621.02808
    598997.57508    466750.68508  21086998.81308  21086999.41608
  -8195571.42808  -6386153.52108  23993661.97508  23993664.67008
 -20899155.38608 -16285046.39308  21306444.87108  21306446.29308
 93 07 23 03 46 00.0000000  0  7 01 21 28 23 31 02 15
  -3881531.26708  -3024568.34308  21846269.49108  21846270.84208
  -1508103.37908  -1175145.45408  21330882.42408  21330883.87508
  14347881.25308  11180161.21408  23032870.38208  23032872.18108
  16247626.81508  12660481.36507  24134886.89608  24134889.86807
    707848.94808    551569.89208  21107712.63808  21107713.21808
  -8239547.77808  -6420420.79408  23985293.57408  23985296.19008
 -21046953.50508 -16400213.72308  21278319.82708  21278321.14608
 93 07 23 03 47 00.0000000  0  7 01 21 28 23 31 02 15
  -3985702.56208  -3105740.73808  21826446.21208  21826447.70808
  -1375728.22908  -1071996.03108  21356072.64708  21356074.00408
  14571313.16808  11354263.87408  23075388.21808  23075390.08608
  16449265.47108  12817602.24707  24173257.43808  24173260.50207
    818873.65208    638082.60808  21128840.00108  21128840.56908
  -8281163.91408  -6452848.93508  23977374.32608  23977377.20708
 -21193374.82308 -16514308.22108  21250456.77008  21250458.04308
 93 07 23 03 48 00.0000000  0  7 01 21 28 23 31 02 15
  -4087786.28108  -3185286.45708  21807020.30008  21807021.82208
  -1241785.93108   -967625.45308  21381561.01708  21381562.37308
  14795686.34508  11529099.97808  23118085.16808  23118087.12308
  16651431.86408  12975134.38107  24211728.65608  24211731.44107
    931994.13408    726228.39208  21150366.12508  21150366.74408
  -8320510.53308  -6483508.62408  23969886.83008  23969889.46708
 -21338475.03708 -16627373.29208  21222845.11308  21222846.38508
 93 07 23 03 49 00.0000000  0  7 01 21 28 23 31 02 15
  -4187847.79008  -3263256.43408  21787979.19408  21787980.73008
  -1106377.21408   -862112.20708  21407328.44708  21407329.89808
  15020900.92208  11704591.73108  23160942.02108  23160944.13508
  16854094.34408  13133053.07707  24250294.13508  24250296.82307
   1047183.84908    815986.54908  21172286.00908  21172286.67908
  -8357582.98708  -6512396.23308  23962832.21408  23962834.82508
 -21482218.24908 -16739380.96508  21195491.65708  21195492.95808
 93 07 23 03 50 00.0000000  0  7 01 21 28 23 31 02 15
  -4285815.65908  -3339595.00308  21769336.49008  21769338.03308
   -969478.50008   -755437.92708  21433379.46908  21433380.92108
  15246862.81508  11880665.78908  23203941.38208  23203943.51408
  17057080.25507  13291223.79907  24288921.11107  24288923.97007
   1164392.71608    907318.07408  21194590.19808  21194590.87908
  -8392372.55108  -6539504.97108  23956211.76908  23956214.47008
 -21624598.65208 -16850326.71108  21168397.51708  21168398.83808
 93 07 23 03 51 00.0000000  0  7 01 21 28 23 31 02 15
  -4381379.86308  -3414060.58908  21751151.25008  21751152.72508
   -830769.77408   -647353.24708  21459774.87008  21459776.36408
  15473832.33708  12057525.00908  23247132.28008  23247134.37008
  17260598.10207  13449809.03207  24327649.40407  24327652.29207
   1283856.52908   1000406.71208  21217323.38508  21217324.08908
  -8424630.59608  -6564641.08308  23950073.44808  23950076.18208
 -21765430.54608 -16960065.82908  21141598.06308  21141599.38608
 93 07 23 03 52 00.0000000  0  7 01 21 28 23 31 02 15
  -4474683.14908  -3486764.42608  21733396.23208  21733397.62608
   -690409.92308   -537981.97408  21486484.50308  21486486.02408
  15701771.77408  12235140.01608  23290507.77208  23290509.98208
  17464664.31507  13608821.55907  24366481.98207  24366484.99907
   1405496.76908   1095191.23908  21240470.82008  21240471.57008
  -8454479.54108  -6587899.98908  23944393.51708  23944395.92308
 -21904845.45708 -17068700.80908  21115068.25008  21115069.59208
 93 07 23 03 53 00.0000000  0  7 01 21 28 23 31 02 15
  -4565832.18708  -3557789.62708  21716051.09108  21716052.56208
   -548608.76908   -427487.61508  21513468.34608  21513469.95108
  15930575.94308  12413428.83908  23334047.93808  23334050.26008
  17669228.79107  13768222.30507  24405409.36007  24405412.56307
   1529209.98508   1191591.08308  21264012.69308  21264013.46808
  -8482081.77408  -6609408.21808  23939140.95108  23939143.22908
 -22042897.65308 -17176273.93308  21088797.82108  21088799.07108
 93 07 23 03 54 00.0000000  0  7 01 21 28 23 31 02 15
  -4653561.61108  -3626150.18808  21699356.74808  21699358.23108
   -404183.26508   -314948.30308  21540951.64208  21540953.25808
  16161328.86308  12593236.16908  23377958.70708  23377961.09008
  17875366.85107  13928849.23607  24444636.23407  24444639.42107
   1656138.12608   1290496.07108  21288166.34508  21288167.19208
  -8506192.08508  -6628195.45908  23934552.87408  23934555.65608
 -22178326.12008 -17281802.59608  21063026.63608  21063027.90908
 93 07 23 03 55 00.0000000  0  7 01 21 28 23 31 02 15
  -4738334.10908  -3692206.65408  21683225.06508  21683226.51508
   -257587.74708   -200718.08108  21568847.89208  21568849.48008
  16393508.97008  12774155.59508  23422141.33008  23422143.71608
  18082461.95407  14090221.94407  24484045.41807  24484048.39907
   1785727.32308   1391474.61608  21312826.32208  21312827.17208
  -8527173.50308  -6644544.58208  23930560.33508  23930563.19208
 -22311602.88008 -17385654.59508  21037664.86808  21037666.17608
 93 07 23 03 56 00.0000000  0  7 01 21 28 23 31 02 15
  -4822607.95108  -3757874.55508  21667188.28008  21667189.70908
   -111214.56508    -86661.10208  21596701.81108  21596703.41708
  16624779.47808  12954366.25908  23466150.70308  23466153.11608
  18288203.83507  14250540.16707  24523196.86807  24523199.94507
   1915524.09408   1492614.91208  21337525.87608  21337526.72508
  -8547376.71508  -6660287.30908  23926715.41308  23926718.38208
 -22445108.45008 -17489684.88308  21012259.59208  21012260.85508
 93 07 23 03 57 00.0000000  0  7 01 21 28 23 31 02 15
  -4905403.36008  -3822390.43208  21651432.79908  21651434.20208
     35909.36808     27980.87108  21624698.60508  21624700.19608
  16856176.18308  13134675.24708  23510184.12608  23510186.59108
  18493754.19107  14410709.14307  24562311.81407  24562314.89707
   2046562.05708   1594722.37108  21362461.62608  21362462.51508
  -8565864.94108  -6674693.69908  23923197.08508  23923199.95808
 -22577798.62608 -17593079.80108  20987009.48708  20987010.73808
 93 07 23 03 58 00.0000000  0  8 01 21 28 23 14 31 02 15
  -4986174.14408  -3885328.67808  21636062.60608  21636063.98208
    184219.52608    143547.17908  21652921.12908  21652922.70308
  17088146.32908  13315431.05908  23554326.78508  23554329.22908
  18699533.14007  14571056.24907  24601470.50707  24601473.48107
        -0.35117        -0.28717  25376895.90717  25376900.08217
   2179392.03008   1698226.19908  21387738.43008  21387739.27708
  -8582279.14508  -6687483.97008  23920073.65908  23920076.38608
 -22709198.77808 -17695469.51008  20962004.90708  20962006.11308
 93 07 23 03 59 00.0000000  0  8 01 21 28 23 14 31 02 15
  -5064494.26608  -3946357.31808  21621158.72708  21621160.16108
    334071.07308    260314.57308  21681437.05108  21681438.57708
  17320940.66408  13496829.09408  23598626.04308  23598628.48908
  18905674.71107  14731685.92507  24640697.92207  24640700.81307
   -221569.12408   -172651.04307  25334732.68708  25334736.51307
   2314313.66208   1803359.88908  21413413.15208  21413413.99208
  -8596262.88908  -6698380.39908  23917412.60808  23917415.22408
 -22839005.52008 -17796617.59708  20937303.56408  20937304.65508
 93 07 23 04 00 00.0000000  0  8 01 21 28 23 14 31 02 15
  -5140307.36808  -4005432.43508  21606731.96708  21606733.36308
    485580.04808    378373.46808  21710268.20308  21710269.81908
  17554534.70908  13678850.27808  23643077.72208  23643080.22108
  19112198.15207  14892613.14707  24679998.20007  24680000.88207
   -442852.18607   -345079.18407  25292623.52507  25292627.63907
   2451312.37708   1910112.07108  21439483.21308  21439484.01608
  -8607746.24508  -6707328.44808  23915227.42708  23915229.98808
 -22967165.91008 -17896482.81108  20912915.40708  20912916.55108
 93 07 23 04 01 00.0000000  0  8 01 21 28 23 14 31 02 15
  -5213718.26408  -4062635.70108  21592762.36408  21592763.70108
    638667.39708    497662.26208  21739399.84208  21739401.38308
  17788815.61708  13861406.67708  23687659.98008  23687662.51108
  19319199.58607  15053912.85707  24719389.15607  24719392.18707
   -663807.47608   -517251.91707  25250577.09708  25250581.00507
   2590361.51408   2018461.99008  21465943.51508  21465944.33308
  -8616836.40308  -6714411.71708  23913498.01308  23913500.21908
 -23093701.01908 -17995081.56908  20888836.46208  20888837.69408
 93 07 23 04 02 00.0000000  0  8 01 21 28 23 14 31 02 15
  -5284798.77508  -4118023.08808  21579236.16408  21579237.50708
    793143.60108    618033.29008  21768795.74708  21768797.27908
  18023770.03708  14044487.88708  23732370.52908  23732373.08208
  19526652.71407  15215564.51807  24758866.40707  24758869.42807
   -884432.96108   -689167.65907  25208593.47308  25208597.11107
   2731444.63008   2128396.82908  21492790.70708  21492791.56808
  -8623631.43408  -6719706.55408  23912204.87408  23912207.41508
 -23218651.37308 -18092445.45008  20865059.13008  20865060.42608
 93 07 23 04 03 00.0000000  0  8 01 21 28 23 14 31 02 15
  -5353496.53708  -4171553.79508  21566163.43408  21566164.74908
    948988.96308    739471.19208  21798452.11508  21798453.71108
  18259470.32908  14228150.28408  23777222.81008  23777225.45508
  19734476.14307  15377504.75507  24798413.86807  24798417.08407
  -1104788.00808   -860872.70707  25166660.96008  25166664.75607
   2874596.61008   2239943.75508  21520031.66108  21520032.52508
  -8628048.54708  -6723148.46908  23911364.02608  23911366.62308
 -23341968.77608 -18188536.90208  20841592.62208  20841593.92308
 93 07 23 04 04 00.0000000  0  8 01 21 28 23 14 31 02 15
  -5419817.39008  -4223232.36208  21553543.00708  21553544.31108
   1106207.05808    861978.76008  21828369.75108  21828371.38508
  18495889.70108  14412373.00308  23822212.20508  23822214.89308
  19942572.40807  15539657.60907  24838013.04907  24838016.39907
  -1324984.61508  -1032454.34607  25124758.82108  25124762.65007
   3019694.84608   2353007.26808  21547642.98608  21547643.85308
  -8629983.77308  -6724656.43508  23910996.05208  23910998.28208
 -23463663.00309 -18283363.54408  20818435.00709  20818436.24008
 93 07 23 04 05 00.0000000  0  8 01 21 28 23 14 31 02 15
  -5483768.61708  -4273064.47108  21541373.53408  21541374.80508
   1264763.91808    985529.51608  21858542.14608  21858543.86208
  18732957.10208  14597100.68108  23867324.83708  23867327.52008
  20150851.68707  15701953.01307  24877647.45907  24877650.80407
  -1545011.59308  -1203903.74007  25082888.96008  25082892.75807
   3166626.29508   2467499.25608  21575603.10408  21575604.00808
  -8629399.88908  -6724201.47108  23911107.05808  23911109.40208
 -23583755.25909 -18376941.90308  20795582.21509  20795583.43608
 93 07 23 04 06 00.0000000  0  8 01 21 28 23 14 31 02 15
  -5545303.17808  -4321013.45408  21529663.84608  21529665.16608
   1424659.47208   1110123.40408  21888969.28008  21888971.00108
  18970634.65208  14782303.80408  23912553.50108  23912556.19808
  20359395.38607  15864454.48707  24917332.25007  24917335.52807
  -1764694.60808  -1375085.10207  25041084.55908  25041088.36407
   3315397.06508   2583424.46508  21603913.25208  21603914.17608
  -8626309.60008  -6721793.44408  23911695.33808  23911697.73908
 -23702192.04309 -18469230.28708  20773044.42009  20773045.67808
 93 07 23 04 07 00.0000000  0  7 01 21 28 14 31 02 15
  -5604498.41008  -4367139.58408  21518399.34508  21518400.65408
   1585808.50108   1235694.03508  21919634.98308  21919636.67008
  19208757.82108  14967854.16608  23957866.92908  23957869.64708
  -1984074.09008  -1546029.96907  24999337.81008  24999341.63307
   3465860.96408   2700668.97908  21632545.78608  21632546.67408
  -8620935.57708  -6717605.88608  23912717.78408  23912720.52708
 -23819053.16409 -18560290.88308  20750806.47809  20750807.73308
 93 07 23 04 08 00.0000000  0  7 01 21 28 14 31 02 15
  -5661289.90908  -4411392.67408  21507592.18408  21507593.53908
   1748364.49108   1362360.99208  21950568.41908  21950570.13608
  19447470.50708  15153863.86508  24003292.38208  24003295.30408
  -2203084.58008  -1716687.34607  24957661.32708  24957665.17007
   3618160.00508   2819343.48508  21661527.43308  21661528.27708
  -8613284.50208  -6711643.99608  23914173.46508  23914176.34208
 -23934213.42409 -18650026.12908  20728892.18709  20728893.40708
 93 07 23 04 09 00.0000000  0  8 01 21 28 12 14 31 02 15
  -5715783.10708  -4453854.88308  21497222.43108  21497223.83508
   1912265.14808   1490075.74308  21981757.64208  21981759.42908
  19686760.10008  15340323.11908  24048827.78108  24048830.74808
        -0.02617        -0.81717  24431359.08917  24431363.14617
  -2421849.47608  -1887153.31308  24916031.70008  24916035.40808
   3772314.72308   2939463.98908  21690862.15208  21690862.96108
  -8603410.83908  -6703950.23708  23916052.53708  23916055.28108
 -24047724.51109 -18738476.30708  20707291.68909  20707292.93808
 93 07 23 04 10 00.0000000  0  8 01 21 28 12 14 31 02 15
  -5767934.62908  -4494492.41008  21487298.34108  21487299.66308
   2077497.62908   1618828.27008  22013200.42808  22013202.14908
  19926579.87308  15527195.46808  24094464.24908  24094467.19208
   -104693.97007    -81580.43807  24411436.41007  24411440.46007
  -2640342.32508  -2057407.33508  24874453.71908  24874457.40708
   3928409.99508   3061096.61308  21720566.12008  21720566.94808
  -8591146.39008  -6694393.52508  23918386.42408  23918389.20908
 -24159567.94309 -18825627.01208  20686008.59509  20686009.84908
 93 07 23 04 11 00.0000000  0  8 01 21 28 12 14 31 02 15
  -5817697.81808  -4533268.89808  21477828.69508  21477830.00608
   2243936.27708   1748520.67508  22044872.72608  22044874.38108
  20166866.88608  15714431.90808  24140189.51508  24140192.62208
   -207049.39808   -161337.82107  24391958.75308  24391963.03207
  -2858556.57108  -2227444.21908  24832928.89308  24832932.47608
   4086322.70008   3184145.39808  21750616.01308  21750616.84408
  -8576342.05808  -6682857.70308  23921203.62008  23921206.13708
 -24269760.30909 -18911491.17208  20665039.71309  20665040.92208
 93 07 23 04 12 00.0000000  0  8 01 21 28 12 14 31 02 15
  -5865082.12008  -4570191.70908  21468811.76308  21468813.06408
   2411525.60808   1879109.71508  22076763.88608  22076765.68508
  20407555.84208  15901981.54008  24185991.18608  24185994.24908
   -307085.52508   -239287.93607  24372922.42008  24372926.48007
  -3076484.98108  -2397258.39608  24791458.42908  24791461.91108
   4245867.54208   3308465.99408  21780976.37508  21780977.29408
  -8559109.05308  -6669429.40208  23924482.92208  23924485.45108
 -24378326.76909 -18996088.38708  20644380.17009  20644381.42008
 93 07 23 04 13 00.0000000  0  8 01 21 28 12 14 31 02 15
  -5910017.62908  -4605206.36808  21460260.85108  21460262.14608
   2580309.27108   2010629.39908  22108882.44108  22108884.21408
  20648659.30708  16089854.19308  24231871.64108  24231874.82408
   -404732.45708   -315376.33207  24354340.82608  24354344.75707
  -3294051.70008  -2566790.72408  24750056.65208  24750060.18208
   4407075.33708   3434082.40208  21811653.24208  21811654.19708
  -8539613.18408  -6654237.83408  23928192.73408  23928195.77508
 -24485202.67709 -19079368.29309  20624042.30509  20624043.61109
 93 07 23 04 14 00.0000000  0  8 01 21 28 12 14 31 02 15
  -5952482.73408  -4638296.04108  21452179.93308  21452181.24308
   2750309.82608   2143097.31408  22141232.52708  22141234.30008
  20890070.96508  16277967.00108  24277811.11008  24277814.19508
   -499979.85007   -389594.98907  24336215.58307  24336219.67207
  -3511296.75108  -2736072.46108  24708716.25608  24708719.62508
   4569970.04008   3561013.27108  21842651.17108  21842652.14508
  -8517920.72408  -6637334.61208  23932320.63508  23932323.83508
 -24590383.03109 -19161326.99209  20604027.10209  20604028.45809
 93 07 23 04 15 00.0000000  0  8 01 21 28 12 14 31 02 15
  -5992497.30308  -4669476.20708  21444565.44808  21444566.77908
   2921521.30608   2276508.80108  22173812.88008  22173814.74608
  21131833.02708  16466352.83108  24323816.95408  24323820.09908
   -592796.17707   -461919.34208  24318553.25107  24318557.39108
  -3728241.03208  -2905119.79808  24667432.94408  24667436.27708
   4734587.17308   3689286.26608  21873976.77108  21873977.72908
  -8493891.92708  -6618610.88508  23936893.29308  23936896.06308
 -24693841.00209 -19241943.57609  20584339.68109  20584341.01609
 93 07 23 04 16 00.0000000  0  8 01 21 28 12 14 31 02 15
  -6030130.34808  -4698800.64108  21437404.01308  21437405.41708
   3093884.91308   2410818.04708  22206612.70008  22206614.55808
  21374049.18908  16655092.52908  24369909.40208  24369912.33608
   -683163.05708   -532335.00608  24301357.01208  24301361.20608
  -3944802.91508  -3073869.16708  24626222.33408  24626225.82608
   4900897.14908   3818878.37908  21905624.59008  21905625.60408
  -8467509.34108  -6598053.05608  23941914.10208  23941916.33208
 -24795563.62109 -19321207.94409  20564982.51309  20564983.82009
 93 07 23 04 17 00.0000000  0  8 01 21 28 12 14 31 02 15
  -6065388.55708  -4726274.56508  21430694.54008  21430695.95608
   3267394.87008   2546020.54808  22239630.61208  22239632.49808
  21616661.86208  16844141.17208  24416077.16608  24416080.37408
   -771082.50308   -600843.56708  24284626.31908  24284630.41408
  -4160901.33308  -3242257.35808  24585100.11508  24585103.58208
   5068829.07008   3949734.34308  21937581.09608  21937582.12508
  -8438864.52108  -6575732.44608  23947364.92008  23947367.22808
 -24895556.19109 -19399124.22209  20545954.60609  20545955.83809
 93 07 23 04 18 00.0000000  0  8 01 21 28 12 14 31 02 15
  -6098390.02508  -4751989.98108  21424414.66508  21424416.00208
   3441937.95008   2682028.07908  22272845.08308  22272846.88408
  21859439.07808  17033318.05508  24462276.20308  24462279.33108
   -856709.37908   -667565.72908  24268332.11008  24268336.22708
  -4376764.03108  -3410461.86608  24544022.71008  24544026.07608
   5238212.24308   4081721.15808  21969813.64008  21969814.68708
  -8408125.17708  -6551779.75308  23953214.55708  23953216.83408
 -24993977.78109 -19475816.35409  20527225.62509  20527226.78509
 93 07 23 04 19 00.0000000  0  8 01 21 31 28 12 14 02 15
  -6126014.54908  -4773515.57108  21419157.90108  21419159.28408
   3620599.60908   2821244.90608  22306843.42808  22306845.16508
   5412238.21508   4217325.73908  22002929.73608  22002930.81208
  22105498.66908  17225052.60707  24509099.80208  24509102.97807
   -936865.65008   -730025.08308  24253078.92308  24253082.90308
  -4589287.23208  -3576064.19708  24503580.74408  24503584.09808
  -8372072.79408  -6523687.02108  23960075.16908  23960077.46308
 -25087654.10209 -19548810.86909  20509399.59309  20509400.76109
 93 07 23 04 20 00.0000000  0  8 01 21 28 12 14 31 02 15
  -6152017.20408  -4793777.36808  21414209.77908  21414211.03808
   3799529.20908   2960670.50408  22340892.63608  22340894.41808
  22351129.83108  17416453.35707  24555842.11508  24555845.36607
  -1015266.37408   -791116.47008  24238159.59008  24238163.58908
  -4802184.25108  -3741957.81908  24463067.75808  24463071.02108
   5587151.15908   4353621.47808  22036214.63308  22036215.73308
  -8334493.48408  -6494404.47008  23967226.19508  23967228.72908
 -25180303.23609 -19621004.97709  20491769.00509  20491770.20709
 93 07 23 04 21 00.0000000  0  8 01 21 28 12 14 31 02 15
  -6177565.86008  -4813685.39808  21409348.05408  21409349.26408
   3977478.89508   3099332.54108  22374755.34908  22374757.10508
  22595021.30308  17606498.49007  24602253.21208  24602256.37607
  -1093151.81608   -851806.35208  24223338.47008  24223342.45708
  -5016724.61208  -3909131.91008  24422241.78208  24422245.19408
   5761626.32208   4489576.07708  22069416.22408  22069417.38808
  -8296656.90308  -6464921.43208  23974426.29008  23974428.78208
 -25273169.29409 -19693368.11909  20474097.19709  20474098.38709
 93 07 23 04 22 00.0000000  0  8 01 21 31 28 12 14 02 15
  -6201351.14008  -4832219.37908  21404821.79608  21404823.07608
   4155780.95408   3238269.15008  22408685.10908  22408686.98208
   5936882.29808   4626139.09908  22102766.31508  22102767.51708
  22838360.67808  17796113.40407  24648559.15808  24648562.41607
  -1169266.77408   -911116.63508  24208854.33908  24208858.19608
  -5231616.33008  -4076579.76608  24381349.08508  24381352.43708
  -8257226.60208  -6434196.56908  23981929.62908  23981932.42708
 -25364999.39309 -19764924.02209  20456622.50309  20456623.69909
 93 07 23 04 23 00.0000000  0  7 01 21 31 28 14 02 15
  -6222823.14808  -4848950.81208  21400735.82108  21400737.10108
   4334996.66208   3377917.68508  22442788.85608  22442790.69108
   6113528.30308   4763785.26608  22136381.03508  22136382.26008
  23081734.87908  17985755.50807  24694871.94208  24694875.00907
  -5446231.09308  -4243811.79308  24340509.03008  24340512.31808
  -8215597.39208  -6401758.24308  23989851.44908  23989854.26608
 -25455191.86709 -19835203.85309  20439459.44409  20439460.60109
 93 07 23 04 24 00.0000000  0  8 01 21 31 28 07 14 02 15
  -6241905.62808  -4863820.27508  21397104.54408  21397105.79608
   4515222.26908   3518353.15508  22477084.57808  22477086.52708
   6291721.19608   4902636.77608  22170289.99008  22170291.26508
  23325343.76008  18175580.39907  24741229.37408  24741232.75807
        -0.45017        -0.27717  25423293.24417  25423296.51817
  -5660418.93208  -4410711.15608  24299750.26808  24299753.45908
  -8171674.87308  -6367532.93608  23998209.62708  23998212.07908
 -25543543.89009 -19904049.56709  20422646.58909  20422647.71609
 93 07 23 04 25 00.0000000  0  8 01 21 31 28 07 14 02 15
  -6258498.18408  -4876749.53108  21393947.07908  21393948.36008
   4696567.60508   3659661.13308  22511593.56408  22511595.46808
   6471513.59808   5042734.65808  22204503.35908  22204504.69208
  23569210.46008  18365606.24707  24787635.82108  24787638.91907
   -214137.60907   -166860.30707  25382544.23807  25382547.71707
  -5874069.98108  -4577192.26408  24259093.70108  24259096.79308
  -8125461.58808  -6331522.60908  24007003.59508  24007006.19008
 -25629939.91009 -19971371.11909  20406205.93909  20406207.08309
 93 07 23 04 26 00.0000000  0  8 01 21 31 28 07 14 02 15
  -6272448.48708  -4887619.88908  21391292.43108  21391293.71108
   4879192.62008   3801966.27008  22546346.06208  22546347.98608
   6652946.32508   5184110.72108  22239028.99508  22239030.30708
  23813362.49908  18555854.37407  24834096.66508  24834099.92207
   -427293.11507   -332955.37807  25341982.12907  25341985.39707
  -6087040.30208  -4743142.92208  24218566.70608  24218569.57508
  -8076865.55308  -6293655.60008  24016251.01408  24016254.14208
 -25714291.61609 -20037099.70009  20390154.29609  20390155.46409
 93 07 23 04 27 00.0000000  0  8 01 21 31 28 07 14 02 15
  -6283855.48308  -4896508.45308  21389121.76808  21389123.05108
   5062969.64508   3945169.06508  22581317.62208  22581319.72708
   6835942.51108   5326705.07708  22273852.05808  22273853.44508
  24057733.66207  18746273.29707  24880598.80907  24880602.25407
   -639714.58207   -498478.51507  25301559.41007  25301563.08507
  -6299421.99408  -4908634.94908  24178151.65708  24178154.49908
  -8025992.29008  -6254014.11608  24025932.14908  24025935.36508
 -25796719.19209 -20101328.96009  20374468.87609  20374470.01309
 93 07 23 04 28 00.0000000  0  8 01 21 31 28 07 14 02 15
  -6292668.93708  -4903376.07608  21387444.65008  21387445.85008
   5247929.88208   4089293.83808  22616514.61408  22616516.57508
   7020558.43608   5470561.53808  22308983.33908  22308984.75708
  24302475.93408  18936981.37807  24927172.12208  24927175.40207
   -851375.52907   -663409.00007  25261281.53107  25261284.98807
  -6511189.80408  -5073648.62408  24137853.40008  24137856.21808
  -7972740.33108  -6212519.11808  24036065.66208  24036068.69908
 -25877121.75209 -20163980.29009  20359168.82509  20359169.90309
 93 07 23 04 29 00.0000000  0  8 01 21 31 28 07 14 02 15
  -6299053.80808  -4908351.29308  21386229.66408  21386230.89208
   5433894.90508   4234201.57008  22651902.57308  22651904.48108
   7206647.02808   5615565.51508  22344394.94908  22344396.35608
  24547447.59907  19127868.20507  24973788.78707  24973792.18707
  -1062332.22807   -827790.73007  25221137.92907  25221141.25307
  -6722473.90508  -5238285.40908  24097647.30208  24097649.96808
  -7917211.50108  -6169249.94608  24046632.49008  24046635.35908
 -25955585.41809 -20225120.79109  20344237.66409  20344238.72909
 93 07 23 04 30 00.0000000  0  8 01 21 31 28 07 14 02 15
  -6302968.13008  -4911401.41208  21385484.78408  21385486.03108
   5620847.14808   4379878.56408  22687478.39208  22687480.46308
   7394148.44108   5761670.43108  22380075.31108  22380076.75708
  24792554.16307  19318860.28007  25020431.17807  25020434.61007
  -1272467.98407   -991532.78207  25181150.33507  25181153.46607
  -6933198.70108  -5402486.37508  24057547.53108  24057550.20008
  -7859466.56508  -6124253.94508  24057620.85708  24057623.72408
 -26032096.84909 -20284740.06909  20329678.01009  20329679.04209
 93 07 23 04 31 00.0000000  0  8 01 21 28 07 14 31 02 15
  -6304422.06008  -4912534.34408  21385208.12808  21385209.31908
   5808739.99008   4526288.48608  22723233.37008  22723235.44708
  25037673.01407  19509861.80807  25067075.92407  25067079.34907
  -1481759.09207  -1154616.60207  25141323.47007  25141326.87007
  -7143300.34308  -5566201.80608  24017566.40608  24017568.96208
   7583000.59308   5908827.88108  22416012.77808  22416014.23208
  -7799614.46408  -6077615.97308  24069010.26608  24069012.98108
 -26106712.72909 -20342882.29309  20315479.03309  20315480.07309
 93 07 23 04 32 00.0000000  0  8 01 21 28 07 14 31 02 15
  -6303310.00008  -4911667.80208  21385419.73508  21385420.83408
   5997678.35708   4673513.11108  22759187.19308  22759189.26608
  25282902.75707  19700949.88107  25113741.45507  25113744.96407
  -1690074.20407  -1316939.94407  25101682.23407  25101685.20707
  -7352666.72008  -5729344.30308  23977725.07208  23977727.75208
   7773332.11108   6057138.05908  22452231.70208  22452233.16608
  -7737486.37708  -6029204.51008  24080833.22608  24080835.84208
 -26179309.57309 -20399451.24509  20301664.30609  20301665.37909
 93 07 23 04 33 00.0000000  0  7 01 21 07 14 31 02 15
  -6299937.02108  -4909039.50708  21386061.60908  21386062.75408
   6187374.19408   4821327.97308  22795285.12708  22795287.26608
  -1897729.48907  -1478749.10907  25062166.49207  25062169.53107
  -7561681.62108  -5892212.95308  23937950.84908  23937953.39208
   7964865.77008   6206384.97008  22488679.36108  22488680.84208
  -7673273.43508  -5979168.49808  24093052.61708  24093055.34208
 -26250145.76909 -20454648.26609  20288184.64809  20288185.71709
 93 07 23 04 34 00.0000000  0  8 01 21 12 07 14 31 02 15
  -6293933.05208  -4904361.08608  21387204.10408  21387205.29808
   6378148.07608   4969982.86208  22831588.26608  22831590.42208
        -0.53218        -0.64018  24074221.76718  24074225.49718
  -2104398.33707  -1639789.60307  25022838.34207  25022841.82107
  -7770131.05108  -6054640.97508  23898284.09808  23898286.62008
   8157869.03508   6356777.01908  22525406.70208  22525408.23308
  -7606692.05008  -5927286.93808  24105722.76508  24105725.18608
 -26318907.91809 -20508229.15009  20275099.65009  20275100.69409
 93 07 23 04 35 00.0000000  0  8 01 21 12 07 14 31 02 15
  -6285435.40408  -4897739.54408  21388821.18008  21388822.35308
   6569806.05408   5119326.65508  22868059.51508  22868061.67408
    -41464.77908    -32310.38808  24066331.59108  24066335.21908
  -2310164.13007  -1800126.44507  24983682.40007  24983685.80607
  -7978107.91708  -6216700.75908  23858707.30208  23858709.78208
   8352193.70908   6508198.74208  22562385.54908  22562387.12708
  -7537971.20208  -5873738.27208  24118799.88908  24118802.38908
 -26385734.37409 -20560301.70309  20262382.99309  20262384.02409
 93 07 23 04 36 00.0000000  0  8 01 21 12 07 14 31 02 15
  -6274545.72908  -4889254.08508  21390893.33608  21390894.56808
   6762236.28708   5269272.22408  22904677.86408  22904680.02908
    -80284.75208    -62559.67008  24058944.13908  24058948.21508
  -2515073.51407  -1959795.95807  24944689.33707  24944692.67207
  -8185543.12908  -6378338.47808  23819233.74908  23819236.12808
   8547807.29108   6660624.80808  22599609.66108  22599611.22708
  -7467170.99508  -5818569.34508  24132272.58908  24132275.20908
 -26450654.57409 -20610888.86109  20250029.07609  20250030.11509
 93 07 23 04 37 00.0000000  0  8 01 21 12 07 14 31 02 15
  -6261269.95508  -4878909.33208  21393419.59208  21393420.84708
   6955514.23508   5419878.33608  22941457.66108  22941459.82208
   -116389.85908    -90693.52008  24052073.71508  24052077.52908
  -2719132.96208  -2118803.18207  24905858.01708  24905861.34907
  -8392283.47108  -6539434.76408  23779892.36808  23779894.73008
   8744684.01008   6814035.13508  22637074.16508  22637075.73808
  -7394204.86708  -5761712.67408  24146157.63708  24146160.24408
 -26513595.63809 -20659933.83509  20238051.76209  20238052.77809
 93 07 23 04 38 00.0000000  0  8 01 21 12 07 14 31 02 15
  -6245596.02708  -4866695.89008  21396402.33708  21396403.54508
   7149649.08908   5571152.15508  22978400.29608  22978402.62808
   -149788.75508   -116718.60208  24045718.10308  24045721.85808
  -2922305.02408  -2277118.91907  24867195.49608  24867198.78907
  -8598311.43508  -6699975.95608  23740686.47508  23740688.76008
   8942713.34108   6968343.60108  22674757.99408  22674759.53808
  -7319112.45208  -5703199.15808  24160447.35708  24160450.06308
 -26574564.36109 -20707441.91909  20226449.77509  20226450.79709
 93 07 23 04 39 00.0000000  0  8 01 21 12 07 14 31 02 15
  -6227529.61108  -4852618.17308  21399840.31908  21399841.51608
   7344614.79908   5723073.40608  23015501.06308  23015503.33208
   -180496.90908   -140647.01208  24039874.62708  24039878.33308
  -3124511.83308  -2434682.54008  24828716.64308  24828720.11608
  -8803680.17808  -6860003.45408  23701606.03708  23701608.29008
   9141873.23808   7123533.02308  22712657.08808  22712658.59408
  -7241963.18108  -5643082.89408  24175128.32608  24175130.81108
 -26633571.86009 -20753421.77709  20215221.05209  20215222.04509
 93 07 23 04 40 00.0000000  0  8 01 21 12 07 14 31 02 15
  -6207029.15508  -4836643.80108  21403741.44808  21403742.67708
   7540415.24608   5875645.10208  23052760.70508  23052763.02708
   -208475.35208   -162448.34408  24034550.51108  24034554.07208
  -3325694.81708  -2591448.38308  24790432.88908  24790436.16308
  -9008458.68208  -7019571.01608  23662637.97008  23662640.16708
   9342194.11608   7279627.10208  22750776.89108  22750778.45108
  -7162749.06208  -5581357.66108  24190202.14808  24190205.05408
 -26690576.69309 -20797841.11609  20204373.37209  20204374.37209
 93 07 23 04 41 00.0000000  0  8 01 21 12 07 14 31 02 15
  -6184135.18808  -4818804.36008  21408097.99408  21408099.21208
   7736934.15308   6028776.62308  23090157.02408  23090159.44608
   -233807.42308   -182187.59808  24029730.05408  24029733.60108
  -3525956.27408  -2747496.13408  24752324.29308  24752327.16608
  -9212826.98108  -7178818.92808  23623747.92608  23623750.23608
   9543587.76408   7436557.09608  22789100.98808  22789102.51908
  -7081587.20708  -5518114.72108  24205646.69108  24205649.58308
 -26745659.24709 -20840762.57609  20193891.48409  20193892.49409
 93 07 23 04 42 00.0000000  0  8 01 21 12 07 14 31 02 15
  -6158661.73508  -4798954.92208  21412945.44108  21412946.62808
   7934308.84608   6182574.99408  23127716.25708  23127718.74508
   -256316.07208   -199726.78208  24025446.62508  24025450.31708
  -3725085.12108  -2902661.31008  24714431.11308  24714434.41108
  -9416542.94108  -7337558.51508  23584981.88108  23584984.13408
   9746302.19208   7594516.27308  22827676.37908  22827677.81708
  -6998338.93408  -5453245.99708  24221488.45808  24221491.40908
 -26798638.82109 -20882045.34909  20183809.81509  20183810.78609
 93 07 23 04 43 00.0000000  0  8 01 21 12 07 14 31 02 15
  -6130794.74208  -4777240.39008  21418248.31908  21418249.53808
   8132430.82408   6336955.65608  23165417.70108  23165420.20308
   -276090.08908   -215135.09208  24021683.74008  24021687.20808
  -3923187.75508  -3057026.84608  24676733.63208  24676736.59008
  -9619566.71208  -7495758.73508  23546347.62508  23546349.95508
   9950260.35208   7753444.59808  22866488.39408  22866489.82408
  -6913105.96108  -5386830.75108  24237707.83108  24237710.69108
 -26849599.51309 -20921754.96509  20174112.32509  20174113.31009
 93 07 23 04 44 00.0000000  0  8 01 21 12 07 14 31 02 15
  -6100628.51208  -4753734.24108  21423988.80608  21423990.07008
   8331258.81308   6491886.46408  23203253.55708  23203255.84908
   -293134.78108   -228416.66808  24018440.27108  24018443.75808
  -4120334.49508  -3210647.54108  24639217.87408  24639220.64008
  -9821893.63008  -7653415.94608  23507846.04208  23507848.35708
  10155294.31408   7913211.20108  22905505.27508  22905506.69608
  -6825922.22708  -5318895.39708  24254298.29608  24254301.57308
 -26898542.17509 -20959892.09709  20164798.81609  20164799.85009
 93 07 23 04 45 00.0000000  0  8 01 21 12 07 14 31 02 15
  -6066827.19808  -4727395.55708  21430420.97008  21430422.16908
   8532094.55108   6648381.75208  23241471.42308  23241473.61408
   -306157.77308   -238564.44808  24015962.06108  24015965.51908
  -4315175.43008  -3362471.50008  24602140.67608  24602143.41208
 -10022309.56008  -7809584.07108  23469708.07208  23469710.45408
  10362565.74208   8074721.27708  22944947.65208  22944949.12208
  -6735501.82308  -5248437.99008  24271505.01808  24271508.05208
 -26944169.35109 -20995445.73409  20156116.23809  20156117.29409
 93 07 23 04 46 00.0000000  0  8 01 21 12 07 14 31 02 15
  -6029836.14708  -4698571.36608  21437460.10908  21437461.32508
   8734475.80108   6806081.33908  23279983.31008  23279985.64408
   -315676.67708   -245981.77108  24014150.54908  24014154.22208
  -4508123.71308  -3512820.66908  24565423.77808  24565426.63408
 -10221336.68808  -7964670.02608  23431834.32208  23431836.63908
  10571613.94108   8237615.86108  22984728.25208  22984729.80108
  -6642324.08208  -5175831.99108  24289236.20808  24289239.42308
 -26986993.89709 -21028815.50309  20147966.99409  20147968.02009
 93 07 23 04 47 00.0000000  0  8 01 21 12 07 14 31 02 15
  -5992203.11308  -4669246.93008  21444621.42908  21444622.65308
   8935907.06908   6963040.67208  23318314.46208  23318316.83108
   -324154.67808   -252587.98008  24012537.36308  24012540.91208
  -4701598.71908  -3663580.28608  24528606.58308  24528609.40408
 -10421387.84408  -8120553.93008  23393765.79508  23393768.05408
  10780067.32108   8400046.94508  23024395.68808  23024397.28208
  -6548798.56308  -5102955.02008  24307033.45108  24307036.45108
 -27029473.40709 -21061916.41209  20139883.41609  20139884.41409
 93 07 23 04 48 00.0000000  0  8 01 21 12 07 14 31 02 15
  -5953057.82308  -4638744.11208  21452070.48708  21452071.78508
   9137373.31808   7120027.26008  23356652.24308  23356654.72308
   -330567.06108   -257584.64108  24011317.15608  24011320.49308
  -4894600.64308  -3813971.28808  24491879.58208  24491882.39908
 -10621429.47408  -8276430.41308  23355699.03208  23355701.26908
  10988879.68608   8562757.75808  23064131.48008  23064133.09508
  -6453971.40908  -5029063.79908  24325078.47708  24325081.68208
 -27070577.03209 -21093945.20609  20132061.68009  20132062.68809
 93 07 23 04 49 00.0000000  0  8 01 21 12 07 14 31 02 15
  -5911939.36808  -4606703.76908  21459895.08908  21459896.40608
   9339221.67808   7277311.61008  23395062.85608  23395065.22508
   -334500.14208   -260649.36208  24010568.74508  24010572.27208
  -5086701.25608  -3963659.96608  24455323.68508  24455326.73408
 -10821038.47308  -8431969.78308  23317714.56108  23317716.82608
  11198333.07808   8725968.06708  23103989.31808  23103990.90908
  -6357552.32008  -4953932.11208  24343426.48108  24343429.43708
 -27109885.78009 -21124575.39909  20124581.46909  20124582.49709
 93 07 23 04 50 00.0000000  0  8 01 21 12 07 14 31 02 15
  -5868250.67208  -4572660.63908  21468208.82208  21468210.12108
   9541854.20208   7435206.99408  23433622.56408  23433625.01008
   -335537.21808   -261457.42108  24010371.20208  24010374.91308
  -5277480.19708  -4112318.77208  24419019.62308  24419022.68808
 -11019778.58908  -8586832.10208  23279895.54708  23279897.71408
  11408858.62508   8890013.83708  23144051.02308  23144052.61308
  -6259188.56808  -4877285.08908  24362144.52908  24362147.50208
 -27146975.93709 -21153476.82109  20117523.42109  20117524.45409
 93 07 23 04 51 00.0000000  0  7 01 21 07 14 31 02 15
  -5821930.55808  -4536567.06008  21477023.27008  21477024.55008
   9745231.66608   7593682.83908  23472324.02108  23472326.57208
  -5466942.54608  -4259951.68008  24382966.16708  24382969.03608
 -11217626.78808  -8740999.44108  23242246.17008  23242248.22908
  11620534.36808   9054955.85308  23184331.68108  23184333.34708
  -6158856.70908  -4799104.45708  24381237.02808  24381240.01108
 -27181855.97109 -21180656.06809  20110886.00609  20110886.97609
 93 07 23 04 52 00.0000000  0  7 01 21 07 14 31 02 15
  -5773053.15708  -4498480.78508  21486324.32808  21486325.57308
   9949403.50208   7752777.68008  23511176.71908  23511179.25108
  -5655077.59308  -4406550.30408  24347164.97508  24347167.97208
 -11414539.01608  -8894437.45708  23204774.77608  23204776.94208
  11833372.05608   9220803.27708  23224833.42008  23224835.18208
  -6056469.18408  -4719322.01408  24400720.86008  24400723.85008
 -27214491.10809 -21206086.04409  20104675.74709  20104676.72009
 93 07 23 04 53 00.0000000  0  7 01 21 07 14 31 02 15
  -5721765.62508  -4458516.49008  21496084.03008  21496085.26408
  10154358.93408   7912483.12508  23550178.33908  23550181.09108
  -5841917.25708  -4552139.53008  24311610.58008  24311613.70508
 -11610630.36208  -9047235.84208  23167459.80908  23167461.90508
  12047250.09708   9387461.36508  23265533.07808  23265535.03008
  -5952047.45308  -4637954.47408  24420591.59108  24420594.56208
 -27244947.74009 -21229818.48509  20098880.06709  20098881.04309
 93 07 23 04 54 00.0000000  0  7 01 21 07 14 31 02 15
  -5668131.78008  -4416723.89408  21506290.22508  21506291.43508
  10360033.46408   8072748.88908  23589317.01808  23589319.73508
  -6027445.02408  -4696706.47908  24276305.88908  24276308.59708
 -11805999.11808  -9199471.17108  23130282.36108  23130284.41908
  12262056.13308   9554842.56608  23306409.39908  23306411.42708
  -5845649.64808  -4555047.15808  24440838.37008  24440841.77408
 -27273284.06909 -21251898.74109  20093487.84409  20093488.82109
 93 07 23 04 55 00.0000000  0  7 01 21 07 14 31 02 15
  -5612167.56808  -4373115.43108  21516939.91308  21516941.12408
  10566255.32508   8233441.14908  23628559.85908  23628562.54608
  -6211606.31408  -4840208.62708  24241261.05108  24241263.71908
 -12000644.96208  -9351143.21108  23093242.34308  23093244.48908
  12477647.85508   9722836.00308  23347435.25308  23347437.30108
  -5737425.46008  -4470716.66608  24461432.77908  24461435.91308
 -27299498.92109 -21272325.89609  20088499.29909  20088500.29309
 93 07 23 04 56 00.0000000  0  7 01 21 07 14 31 02 15
  -5553855.88308  -4327677.76708  21528036.23308  21528037.48208
  10772955.89408   8394506.44108  23667893.92508  23667896.50308
  -6394398.38208  -4982643.85708  24206476.76308  24206479.42408
 -12194445.61208  -9502156.66808  23056363.33308  23056365.42008
  12693994.01308   9891417.29508  23388604.66308  23388606.65208
  -5627433.87608  -4385009.03708  24482363.52508  24482366.72608
 -27323540.42209 -21291059.52809  20083924.32009  20083925.34209
 93 07 23 04 57 00.0000000  0  7 01 21 07 14 31 02 15
  -5493226.00708  -4280433.72208  21539573.79208  21539574.96808
  10980254.95208   8556038.08907  23707341.56408  23707344.05407
  -6575885.76908  -5124062.49508  24171940.68308  24171943.20408
 -12387373.59708  -9652490.15008  23019650.39308  23019652.50108
  12911176.84008  10060650.55208  23429933.27508  23429935.31208
  -5515642.59108  -4297898.96608  24503636.62808  24503639.93108
 -27345417.66909 -21308106.72809  20079761.22809  20079762.23509
 93 07 23 04 58 00.0000000  0  7 01 21 07 14 31 02 15
  -5430283.56008  -4231387.67508  21551551.27308  21551552.56508
  11188300.26708   8718151.23707  23746931.38008  23746933.95207
  -6755964.72808  -5264383.65608  24137672.71108  24137675.27108
 -12579451.02408  -9802160.84808  22983099.23708  22983101.38608
  13129320.51308  10230632.53508  23471444.72108  23471446.72708
  -5402001.81508  -4209347.79707  24525261.68708  24525264.79807
 -27365126.34309 -21323464.12909  20076010.80609  20076011.79309
 93 07 23 04 59 00.0000000  0  7 01 21 07 14 31 02 15
  -5365118.93808  -4180610.06308  21563951.69908  21563952.96608
  11396958.84308   8880742.20208  23786637.87108  23786640.52008
  -6934601.35708  -5403580.93508  24103679.11608  24103681.68708
 -12770769.82208  -9951240.40408  22946692.49708  22946694.68508
  13348251.40008  10401227.91608  23513106.04408  23513108.02908
  -5286631.87108  -4119449.19408  24547216.12208  24547219.36408
 -27382711.23909 -21337166.63809  20072664.47309  20072665.45509
 93 07 23 05 00 00.0000000  0  7 01 21 07 14 31 02 15
  -5297765.97808  -4128127.25408  21576768.55508  21576769.86908
  11606093.71408   9043704.38808  23826434.93008  23826437.59808
  -7111843.52008  -5541691.60808  24069951.03708  24069953.67108
 -12961313.81308 -10099716.21808  22910433.15008  22910435.42708
  13567791.65108  10572298.11608  23554883.27908  23554885.22608
  -5169593.71808  -4028250.70007  24569488.00408  24569491.00107
 -27398159.73009 -21349204.41809  20069724.71409  20069725.68809
 93 07 23 05 01 00.0000000  0  7 01 14 21 07 31 02 15
  -5228151.67808  -4073882.35708  21590015.75408  21590016.96108
 -13150943.07808 -10247479.24308  22874347.93208  22874350.18708
  11815784.12208   9207099.42408  23866337.70108  23866340.47508
  -7287703.25908  -5678725.08708  24036485.77508  24036488.38208
  13788042.60708  10743922.10408  23596795.72008  23596797.78908
  -5050798.83508  -3935683.35507  24592093.80708  24592097.00407
 -27411424.71109 -21359540.76109  20067200.49109  20067201.43109
 93 07 23 05 02 00.0000000  0  7 01 21 07 14 31 02 15
  -5156253.33308  -4017857.68808  21603697.53508  21603698.75208
  12026068.40007   9370957.20708  23906353.61607  23906356.40608
  -7462152.90008  -5814659.74908  24003289.19808  24003291.70808
 -13339668.45808 -10394537.92508  22838434.67208  22838436.85008
  14009129.53808  10916197.50508  23638867.26708  23638869.31008
  -4930230.82808  -3841734.28907  24615037.18708  24615040.53507
 -27422541.50809 -21368203.19309  20065084.99709  20065086.00009
 93 07 23 05 03 00.0000000  0  7 01 14 21 07 31 02 15
  -5082163.31008  -3960125.21608  21617796.38908  21617797.60808
 -13527567.75708 -10540952.91308  22802678.66008  22802680.78208
  12236837.19307   9535192.51808  23946461.70407  23946464.46008
  -7635134.54408  -5949450.56408  23970371.80308  23970374.15308
  14230976.18408  11089064.89608  23681083.44108  23681085.47608
  -4808046.16608  -3746525.51107  24638288.28508  24638291.29407
 -27431536.08609 -21375211.95109  20063373.38809  20063374.40509
 93 07 23 05 04 00.0000000  0  7 01 14 21 07 31 02 15
  -5005964.63608  -3900749.64008  21632296.55608  21632297.82408
 -13714701.11008 -10686771.05708  22767068.33208  22767070.47708
  12447994.52907   9699730.60408  23986643.72707  23986646.50208
  -7806625.88108  -6083080.09008  23937738.07908  23937740.38108
  14453455.56408  11262425.32908  23723419.79208  23723421.99108
  -4684376.74108  -3650159.83607  24661822.06508  24661825.13707
 -27438406.12009 -21380565.22209  20062066.07109  20062067.08109
 93 07 23 05 05 00.0000000  0  7 01 14 21 07 31 02 15
  -4927580.55608  -3839671.15408  21647212.52108  21647213.79308
 -13901058.97808 -10831984.93308  22731605.59508  22731607.69908
  12659593.50107   9864612.82607  24026909.68807  24026912.51507
  -7976591.59708  -6215520.83608  23905394.63508  23905396.88108
  14676495.74908  11436222.74508  23765863.08908  23765865.24608
  -4559230.78108  -3552643.53507  24685636.37508  24685639.75707
 -27443137.90409 -21384252.32509  20061165.67709  20061166.62209
 93 07 23 05 06 00.0000000  0  7 01 14 21 07 31 02 15
  -4846920.52308  -3776819.19808  21662561.71908  21662562.88108
 -14086537.71208 -10976513.74308  22696310.11208  22696312.25608
  12871677.95607  10029873.36707  24067268.02407  24067270.92007
  -8145030.84508  -6346772.10508  23873341.74308  23873343.91508
  14900117.80708  11610473.55208  23808416.94108  23808419.25908
  -4432479.05008  -3453876.03907  24709756.39808  24709759.32707
 -27445689.60509 -21386240.66409  20060680.06809  20060681.07809
 93 07 23 05 07 00.0000000  0  7 01 14 21 07 31 02 15
  -4763987.41508  -3712196.01108  21678343.32608  21678344.57408
 -14271120.04108 -11120344.04208  22661185.15008  22661187.27008
  13084173.31807  10195454.07707  24107704.65807  24107707.35707
  -8312006.03808  -6476882.55208  23841567.27808  23841569.37008
  15124336.82408  11785189.52408  23851084.49108  23851086.92308
  -4304073.89308  -3353820.16507  24734191.40708  24734194.77807
 -27446048.31309 -21386520.18109  20060611.82109  20060612.76909
 93 07 23 05 08 00.0000000  0  7 01 14 21 07 31 02 15
  -4678828.88108  -3645838.73108  21694548.50008  21694549.74908
 -14454786.42208 -11263460.59908  22626234.44708  22626236.49908
  13297034.66407  10361319.99807  24148210.87007  24148213.77207
  -8477447.90908  -6605798.19708  23810084.59508  23810086.75108
  15349137.32808  11960358.59808  23893862.80408  23893865.21808
  -4174080.00508  -3252526.24707  24758928.36108  24758931.92207
 -27444216.09809 -21385092.48209  20060960.46709  20060961.44009
 93 07 23 05 09 00.0000000  0  7 01 14 21 07 31 02 15
  -4591561.90508  -3577838.51008  21711154.85508  21711156.13008
 -14637509.34508 -11405842.00208  22591463.36408  22591465.34808
  13510301.30107  10527501.70707  24188794.20007  24188797.22107
  -8641269.35708  -6733451.15408  23778910.32008  23778912.69508
  15574517.05908  12135979.01108  23936751.22308  23936753.70208
  -4042533.11208  -3150022.24907  24783960.72108  24783963.98607
 -27440206.64909 -21381968.23909  20061723.46609  20061724.42709
 93 07 23 05 10 00.0000000  0  7 01 14 21 07 31 02 15
  -4502276.04208  -3508265.13408  21728145.34008  21728146.63908
 -14819260.51808 -11547466.20008  22556877.22308  22556879.13608
  13724069.26107  10694074.02007  24229473.04207  24229476.04607
  -8803443.59308  -6859820.58208  23748049.48908  23748051.97408
  15800422.00408  12312008.67908  23979739.61108  23979742.15908
  -3909472.54208  -3046338.77607  24809281.41808  24809284.90007
 -27434024.52709 -21377151.00509  20062899.93209  20062900.84509
 93 07 23 05 11 00.0000000  0  7 01 14 21 07 31 02 15
  -4411017.13108  -3437154.31808  21745511.41408  21745512.72808
 -15000116.76608 -11688393.06908  22522461.31408  22522463.22508
  13938313.71507  10861017.60807  24270242.62407  24270245.53107
  -8964001.11908  -6984930.24108  23717496.24108  23717498.49308
  16026815.63108  12488419.16908  24022821.02208  24022823.60008
  -3774944.94108  -2941512.08608  24834881.24408  24834885.05408
 -27425694.21909 -21370659.86109  20064485.14109  20064486.05809
 93 07 23 05 12 00.0000000  0  7 01 21 07 14 31 02 15
  -4317704.28908  -3364443.04108  21763268.22708  21763269.61308
  14152952.99607  11028268.87607  24311087.20607  24311090.04407
  -9122979.02108  -7108809.04208  23687243.81508  23687245.96408
 -15180175.60608 -11828698.59208  22488197.25408  22488199.03208
  16253648.13108  12665171.60308  24065985.95608  24065988.55008
  -3639017.31608  -2835594.50907  24860747.69808  24860750.68807
 -27415207.04509 -21362488.04109  20066480.80009  20066481.68409
 93 07 23 05 13 00.0000000  0  7 01 14 21 07 31 02 15
  -4222244.21608  -3290058.60008  21781433.68908  21781435.11408
 -15359363.51808 -11968325.46208  22454098.86208  22454100.67308
  14367892.92807  11195754.44107  24351988.85507  24351991.85407
  -9280316.70708  -7231409.76208  23657303.26208  23657305.37908
  16480931.79608  12842275.61608  24109236.79908  24109239.33808
  -3501676.15708  -2728575.58207  24886882.97108  24886886.28607
 -27402511.93309 -21352595.75009  20068896.59709  20068897.49509
 93 07 23 05 14 00.0000000  0  7 01 21 07 14 31 02 15
  -4124609.53808  -3213979.66408  21800012.94908  21800014.45308
  14583155.00107  11363491.01907  24392952.01407  24392954.84907
  -9435910.07508  -7352651.28408  23627694.82608  23627696.92408
 -15537523.87808 -12107151.64908  22420195.94308  22420197.74808
  16708750.46808  13019796.55508  24152589.26708  24152591.87008
  -3362843.52208  -2620394.35108  24913301.86408  24913305.63908
 -27387568.17109 -21340951.26109  20071740.27309  20071741.20109
 93 07 23 05 15 00.0000000  0  7 01 14 21 07 31 02 15
  -4024911.86808  -3136293.19508  21818984.80008  21818986.26108
 -15714645.76808 -12245168.64208  22386490.80708  22386492.56008
  14798776.33507  11531507.59107  24433983.34807  24433986.41707
  -9589745.06408  -7472522.63308  23598420.99908  23598422.99408
  16937049.78508  13197691.98508  24196033.21608  24196035.70308
  -3222536.55008  -2511064.31507  24940001.47908  24940004.70907
 -27370416.35809 -21327586.21509  20075004.15509  20075005.09009
 93 07 23 05 16 00.0000000  0  5 01 14 07 31 15
  -3923228.58408  -3057059.49708  21838334.51308  21838336.01108
 -15890754.22608 -12382395.94608  22352978.41008  22352980.14708
  -9741852.35008  -7591047.72408  23569475.85808  23569477.94208
  17165748.57908  13375898.68708  24239553.20708  24239555.79408
 -27351101.68409 -21312535.82209  20078679.65509  20078680.53309
 93 07 23 05 17 00.0000000  0  6 01 07 14 31 29 15
  -3819506.55508  -2976237.17108  21858072.19408  21858073.71108
  -9892228.01408  -7708223.49608  23540860.27308  23540862.36408
 -16065814.27508 -12518806.31208  22319665.56808  22319667.28008
  17394748.36808  13554339.93108  24283130.54508  24283133.17108
        -0.38717        -0.24717  25269396.79817  25269400.31117
 -27329594.83409 -21295777.24009  20082772.28609  20082773.17509
 93 07 23 05 18 00.0000000  0  7 01 12 07 14 31 29 15
  -3713726.22908  -2893810.97108  21878201.58008  21878202.98808
        -0.04418         0.48818  24217949.99018  24217953.56718
 -10040879.04208  -7824055.39908  23512572.75308  23512574.99708
 -16239928.25608 -12654479.47408  22286532.79908  22286534.40608
  17624002.25308  13732979.14808  24326756.18608  24326758.76108
   -229691.76207   -178980.50907  25225688.23207  25225691.51907
 -27305923.27709 -21277331.87609  20087276.81109  20087277.70709
 93 07 23 05 19 00.0000000  0  7 01 12 07 14 31 29 15
  -3605942.49908  -2809823.67508  21898712.22408  21898713.57308
     77522.24908     60407.46608  24232702.00008  24232705.62108
 -10187816.47508  -7938552.03308  23484611.48408  23484613.55108
 -16413153.70708 -12789460.25608  22253568.99608  22253570.62808
  17853540.56108  13911840.02708  24370436.02508  24370438.64808
   -459366.66707   -357947.89407  25181982.40407  25181985.76507
 -27280085.64009 -21257198.65609  20092193.52909  20092194.42309
 93 07 23 05 20 00.0000000  0  7 01 07 12 14 31 29 15
  -3496211.49008  -2724319.01808  21919593.32608  21919594.76208
 -10332994.20608  -8051677.47108  23456985.02708  23456987.39008
    157631.75408    122830.45408  24247946.35308  24247950.07408
 -16585379.83008 -12923662.35208  22220795.39308  22220797.12108
  18083439.79308  14090982.13808  24414184.58008  24414187.13808
   -688933.59407   -536831.16807  25138297.14407  25138300.48607
 -27252024.43709 -21235332.78909  20097533.40309  20097534.29909
 93 07 23 05 21 00.0000000  0  7 01 12 07 14 31 29 15
  -3384553.49008  -2637312.81108  21940841.15208  21940842.57408
    240309.85908    187254.94008  24263679.18808  24263682.89508
 -10476327.81508  -8163365.94408  23429709.56508  23429711.82508
 -16756503.10708 -13057005.07508  22188231.61408  22188233.40708
  18313703.20308  14270408.04408  24458002.32008  24458004.93308
   -918316.49208   -715570.90607  25094647.04908  25094650.22307
 -27221744.21009 -21211737.81609  20103295.53809  20103296.46409
 93 07 23 05 22 00.0000000  0  7 01 07 12 14 31 29 15
  -3270963.87308  -2548801.44308  21962456.50908  21962457.95908
 -10617738.44008  -8273555.99508  23402799.97408  23402802.25308
    325525.18408    253656.45908  24279895.11608  24279898.85008
 -16926530.63508 -13189493.96208  22155876.33608  22155878.14508
  18544259.39808  14450062.05708  24501875.97308  24501878.52008
  -1147457.73307   -894122.38307  25051042.61807  25051045.88407
 -27189261.92809 -21186426.96209  20109476.71109  20109477.67009
 93 07 23 05 23 00.0000000  0  7 01 12 07 14 31 29 15
  -3155445.35608  -2458787.03808  21984438.95108  21984440.43808
    413269.50208    322028.63108  24296592.58708  24296596.15508
 -10757259.12808  -8382273.37808  23376250.12508  23376252.15908
 -17095529.55908 -13321181.36008  22123716.95708  22123718.76608
  18775090.64208  14629930.43008  24545801.71508  24545804.41308
  -1376391.12908  -1072511.82207  25007478.02608  25007481.09507
 -27154572.87409 -21159396.54409  20116077.81509  20116078.75109
 93 07 23 05 24 00.0000000  0  7 01 12 07 14 31 29 15
  -3038065.60908  -2367322.32508  22006775.62308  22006777.10008
    503492.19808    392332.00608  24313761.40508  24313765.10008
 -10895000.92708  -8489604.62108  23350038.69408  23350040.85708
 -17263512.42508 -13452077.02808  22091750.70508  22091752.56308
  19006101.63608  14809938.87108  24589761.82608  24589764.46808
  -1605225.53708  -1250824.18307  24963932.10708  24963935.26407
 -27117712.55209 -21130674.22709  20123092.10609  20123093.04609
 93 07 23 05 25 00.0000000  0  7 01 12 07 14 31 29 15
  -2918755.32208  -2274353.28908  22029479.63008  22029481.08808
    596207.41308    464577.60008  24331404.56808  24331408.14108
 -11030887.98108  -8595490.60008  23324180.18208  23324182.30408
 -17430452.22608 -13582159.91508  22059983.02908  22059984.83408
  19237291.30908  14990086.53008  24633755.81808  24633758.53708
  -1833938.42808  -1429041.83407  24920409.46808  24920412.42007
 -27078652.74609 -21100238.02509  20130524.96309  20130525.88909
 93 07 23 05 26 00.0000000  0  7 01 07 12 14 31 29 15
  -2797428.08508  -2179812.60808  22052567.46608  22052568.88308
 -11164800.12808  -8699837.68408  23298697.53108  23298699.64608
    691416.13308    538766.17508  24349522.31708  24349525.73408
 -17596411.60108 -13711478.83708  22028402.01308  22028403.74908
  19468654.60308  15170369.49108  24677782.86108  24677785.59308
  -2062457.95908  -1607108.81108  24876923.40508  24876926.52808
 -27037378.55009 -21068076.32509  20138379.19409  20138380.11709
 93 07 23 05 27 00.0000000  0  7 01 12 07 14 31 29 15
  -2674163.87408  -2083762.59608  22076023.90008  22076025.32808
    789102.20608    614885.16008  24368111.43608  24368114.64808
 -11296734.38908  -8802643.54308  23273591.34808  23273593.32808
 -17761325.53408 -13839983.14208  21997019.88008  21997021.51608
  19700207.26808  15350799.97907  24721846.04508  24721848.89307
  -2290697.07908  -1784957.27708  24833490.94008  24833493.89508
 -26993890.75609 -21034189.74509  20146654.67409  20146655.59209
 93 07 23 05 28 00.0000000  0  7 01 12 07 14 31 29 15
  -2549084.75108  -1986298.37008  22099825.64908  22099827.17408
    889245.23708    692918.65808  24387167.84108  24387171.51308
 -11426722.42208  -8903932.86208  23248855.41308  23248857.35308
 -17925043.18008 -13967555.29008  21965865.49908  21965867.04308
  19931947.84408  15531376.91607  24765944.70808  24765947.75407
  -2518632.51508  -1962569.12607  24790115.93508  24790118.90107
 -26948195.14409 -20998582.78509  20155350.25609  20155351.19709
 93 07 23 05 29 00.0000000  0  8 01 25 12 07 14 31 29 15
  -2422291.84008  -1887498.72808  22123953.49408  22123955.11808
        -0.10718        -0.15518  24027620.80318  24027622.35818
    991767.48708    772806.09608  24406677.14008  24406680.88308
 -11554830.50008  -9003757.28208  23224477.18808  23224479.17508
 -18087585.16608 -14094211.32908  21934934.70908  21934936.23208
  20163759.45008  15712009.17407  24810057.30208  24810060.35107
  -2746356.38608  -2140016.13307  24746781.56408  24746784.26307
 -26900355.48809 -20961305.14209  20164453.83309  20164454.77909
 93 07 23 05 30 00.0000000  0  8 01 25 12 07 14 31 29 15
  -2293725.34408  -1787317.06908  22148418.94008  22148420.48908
   -179440.89408   -139824.02508  23993474.29408  23993475.79508
   1096693.93508    854566.95508  24426643.95108  24426647.44408
 -11680987.97708  -9102061.75708  23200470.02708  23200472.00308
 -18249013.42508 -14219999.53208  21904215.84008  21904217.37708
  20395597.32508  15892661.93207  24854174.51108  24854177.75807
  -2973877.49108  -2317305.13608  24703485.53608  24703488.17808
 -26850330.74109 -20922324.82809  20173973.23109  20173974.19309
 93 07 23 05 31 00.0000000  0  8 01 25 12 07 14 31 29 15
  -2163334.00908  -1685713.45808  22173231.54508  22173233.09808
   -357836.03208   -278833.09608  23959526.52908  23959528.17608
   1204068.40208    938235.32608  24447076.74408  24447080.36408
 -11805101.77808  -9198773.75008  23176851.78908  23176853.80208
 -18409367.06108 -14344950.37508  21873701.47208  21873703.04408
  20627531.78808  16073389.99507  24898310.35508  24898313.46307
  -3201117.89808  -2494375.39608  24660243.06408  24660245.67208
 -26798062.75009 -20881596.53209  20183919.52109  20183920.46209
 93 07 23 05 32 00.0000000  0  8 01 25 12 07 14 31 29 15
  -2031156.27408  -1582717.84408  22198384.16408  22198385.76308
   -535175.96108   -417019.90208  23925779.77708  23925781.35608
   1313857.51308   1023785.25708  24467968.87108  24467972.66908
 -11927090.95108  -9293830.20308  23153637.91108  23153639.99908
 -18568674.65508 -14469086.11008  21843386.20108  21843387.79908
  20859594.32608  16254217.81607  24942470.46608  24942473.64407
  -3428008.73208  -2671173.26208  24617067.03408  24617069.77008
 -26743570.38109 -20839134.95709  20194289.06609  20194290.05509
 93 07 23 05 33 00.0000000  0  8 01 25 12 07 14 31 29 15
  -1897153.15608  -1478299.85408  22223884.11108  22223885.74208
   -711424.57108   -554356.33008  23892240.74208  23892242.39108
   1426026.59508   1111189.70808  24489313.85308  24489317.65108
 -12046936.15108  -9387216.02708  23130832.10308  23130834.23008
 -18726875.25008 -14592359.24808  21813281.57408  21813283.21708
  21091761.66708  16435127.32107  24986650.61408  24986653.77507
  -3654488.03808  -2847650.48908  24573969.35508  24573971.87608
 -26686872.06509 -20794954.46009  20205078.41809  20205079.39109
 93 07 23 05 34 00.0000000  0  8 01 25 12 07 14 31 29 15
  -1761365.61408  -1372491.40608  22249723.61808  22249725.24508
   -886549.90208   -690817.47608  23858915.17008  23858916.92208
   1540541.19308   1200421.83608  24511105.30808  24511109.17608
 -12164754.02708  -9479022.12508  23108412.05708  23108414.20008
 -18883892.13608 -14714710.01608  21783402.19408  21783403.85608
  21323978.69308  16616075.46907  25030840.23208  25030843.29207
  -3880605.00608  -3023845.38608  24530940.62808  24530943.10308
 -26627988.38509 -20749071.08409  20216283.62009  20216284.58009
 93 07 23 05 35 00.0000000  0  8 01 25 12 07 14 31 29 15
  -1623899.58308  -1265375.03308  22275882.61108  22275884.18608
  -1060595.19208   -826437.04808  23825795.49508  23825797.16908
   1657367.43908   1291455.24708  24533336.49508  24533340.63308
 -12280641.30608  -9569323.86708  23086359.44608  23086361.52508
 -19039699.95608 -14836118.65708  21753753.04508  21753754.65008
  21556213.89208  16797037.82607  25075032.99108  25075036.13907
  -4106409.77608  -3199797.00608  24487971.36608  24487973.69108
 -26566937.51009 -20701498.98609  20227901.22409  20227902.16909
 93 07 23 05 36 00.0000000  0  7 01 25 07 14 31 29 15
  -1484764.90408  -1156958.42408  22302359.09608  22302360.76008
  -1233522.73508   -961185.66208  23792888.34508  23792889.98308
 -12394544.27508  -9658079.38008  23064684.53808  23064686.56008
 -19194330.62808 -14956610.04008  21724327.75108  21724329.34708
  21788432.15108  16977986.94507  25119222.96508  25119226.11907
  -4331873.50508  -3375482.88808  24445066.78008  24445069.12908
 -26503719.83109 -20652238.46709  20239931.13009  20239932.06709
 93 07 23 05 37 00.0000000  0  8 01 25 13 07 14 31 29 15
  -1343907.16308  -1047199.18208  22329163.44208  22329165.12408
  -1405162.13708  -1094930.53008  23760226.44908  23760227.97108
        -0.16818        -0.06616  25253824.09718  25253828.03616
 -12506295.67108  -9745158.33608  23043419.02708  23043420.99608
 -19347752.28008 -15076159.33308  21695132.52108  21695134.05108
  22020606.64607  17158901.99107  25163404.18507  25163407.66407
  -4556945.12508  -3550863.22708  24402237.01208  24402239.38008
 -26438304.58309 -20601265.55309  20252379.26009  20252380.17409
 93 07 23 05 38 00.0000000  0  8 01 25 13 07 14 31 29 15
  -1201372.71808   -936133.41308  22356286.86308  22356288.54008
  -1575556.86908  -1227705.52808  23727801.35808  23727802.84508
   -238600.34707   -185922.14906  25208419.89107  25208423.88106
 -12615889.51508  -9830556.08808  23022563.90708  23022565.94408
 -19499989.50908 -15194785.70408  21666162.74008  21666164.26408
  22252634.91908  17339703.11407  25207557.98508  25207561.42507
  -4781674.59408  -3725976.96808  24359472.29108  24359474.64308
 -26370759.23809 -20548632.82509  20265232.69609  20265233.64109
 93 07 23 05 39 00.0000000  0  8 14 01 25 13 07 31 29 15
 -19651002.01008 -15312457.74008  21637425.96108  21637427.48208
  -1057205.53208   -823795.37808  22383720.99908  22383722.62408
  -1744775.17408  -1359563.84608  23695600.18608  23695601.45908
   -476756.95907   -371498.61506  25163100.00307  25163104.24506
 -12723329.42308  -9914275.43808  23002118.57508  23002120.72608
  22484566.45707  17520428.82807  25251692.95907  25251696.76107
  -5005996.80808  -3900773.36808  24316785.11408  24316787.50608
 -26301056.91509 -20494319.33509  20278496.57609  20278497.56409
 93 07 23 05 40 00.0000000  0  8 14 01 25 13 07 31 29 15
 -19800796.39108 -15429180.59608  21608921.05908  21608922.53408
   -911493.62108   -710253.66008  22411449.05408  22411450.68308
  -1912882.59008  -1490556.53408  23663610.36108  23663611.57608
   -714436.31507   -556703.16207  25117870.93507  25117875.33707
 -12828613.41808  -9996314.86308  22982083.74308  22982085.80108
  22716418.52107  17701092.72507  25295812.97707  25295816.73707
  -5229840.67908  -4075197.04508  24274188.97308  24274191.20808
 -26229191.19309 -20438320.07909  20292172.18809  20292173.18409
 93 07 23 05 41 00.0000000  0  8 14 01 25 13 07 31 29 15
 -19949345.07508 -15544932.78008  21580653.17308  21580654.65408
   -764164.46908   -595451.76408  22439484.93408  22439486.59708
  -2079744.79608  -1620578.91908  23631857.41108  23631858.70008
   -951593.01507   -741500.40307  25072741.33907  25072745.60007
 -12931687.00108 -10076631.90208  22962469.47808  22962471.42608
  22948194.54307  17881697.28707  25339918.70507  25339922.43007
  -5453155.53608  -4249208.49708  24231693.49408  24231695.61608
 -26155145.15209 -20380621.87509  20306262.72509  20306263.72209
 93 07 23 05 42 00.0000000  0  8 14 01 25 13 07 31 29 15
 -20096688.41108 -15659745.73008  21552614.63408  21552616.12708
   -615147.10308   -479334.37008  22467842.03408  22467843.60908
  -2245212.39808  -1749514.62408  23600369.77208  23600371.20408
  -1188200.82107   -925869.95007  25027716.23107  25027720.68107
 -13032519.26008 -10155202.46208  22943281.81508  22943283.55908
  23179860.73307  18062216.35107  25384003.28207  25384006.83707
  -5675934.89508  -4422802.68508  24189299.90508  24189302.04008
 -26078919.78209 -20321225.49109  20320767.94109  20320768.90509
 93 07 23 05 43 00.0000000  0  8 14 01 25 13 07 31 29 15
 -20242900.89508 -15773677.49508  21524791.32808  21524792.82608
   -464457.55608   -361913.98508  22496517.37808  22496518.99808
  -2409293.58108  -1877369.97508  23569146.18908  23569147.51008
  -1424278.27807  -1109826.26007  24982791.94007  24982796.42807
 -13131148.52608 -10232056.41108  22924513.39408  22924515.04908
  23411336.47407  18242587.04107  25428051.89507  25428055.25807
  -5898252.48108  -4596037.05808  24146994.26408  24146996.33208
 -26000561.59309 -20260167.17009  20335679.02009  20335679.99809
 93 07 23 05 44 00.0000000  0  8 14 01 25 13 07 31 29 15
 -20387954.09908 -15886705.92808  21497188.56008  21497189.99108
   -312181.71308   -243257.52108  22525494.56308  22525496.08408
  -2572070.82008  -2004209.26308  23538170.51908  23538171.84308
  -1659808.95207  -1293356.50207  24937971.87607  24937976.25907
 -13227623.00708 -10307231.31008  22906154.77508  22906156.48408
  23642564.63107  18422764.66807  25472053.23607  25472056.63407
  -6120119.82608  -4768920.62408  24104774.18808  24104776.28108
 -25920081.42409 -20197455.36109  20350993.88509  20350994.86609
 93 07 23 05 45 00.0000000  0  8 14 01 25 13 07 31 29 15
 -20531719.26708 -15998730.69808  21469830.94608  21469832.38008
   -158414.13708   -123438.66208  22554755.53208  22554757.13808
  -2733519.37408  -2130013.22308  23507447.68108  23507449.02308
  -1894739.79007  -1476419.37807  24893265.95407  24893270.38507
 -13321946.74408 -10380730.29608  22888205.58208  22888207.27108
  23873584.92407  18602780.45907  25516014.95407  25516018.33107
  -6341467.34608  -4941399.12108  24062653.06908  24062655.21408
 -25837456.10009 -20133072.00409  20366716.95609  20366717.95109
 93 07 23 05 46 00.0000000  0  8 14 01 25 13 07 31 29 15
 -20674083.36808 -16109663.72808  21442739.96008  21442741.35408
     -3162.89308     -2463.70608  22584298.93308  22584300.53508
  -2893526.85108  -2254694.28608  23476999.30008  23477000.59508
  -2129009.18207  -1658966.80607  24848685.80807  24848690.15907
 -13414047.48008 -10452497.06708  22870679.28408  22870681.13908
  24104469.73807  18782690.63407  25559951.21007  25559954.47707
  -6562233.89108  -5113424.91108  24020642.52508  24020644.57508
 -25752654.64809 -20066992.96609  20382854.18809  20382855.17609
 93 07 23 05 47 00.0000000  0  8 14 01 25 13 07 31 29 15
 -20815054.49708 -16219511.32808  21415914.02508  21415915.39608
    153576.32608    119670.71008  22614125.38908  22614127.05208
  -3052110.07108  -2378265.53408  23446821.90508  23446823.04908
  -2362640.11507  -1841016.72707  24804227.30207  24804231.58107
 -13503882.51408 -10522498.34508  22853584.09908  22853585.93708
  24335151.18907  18962442.25607  25603848.45907  25603851.84607
  -6782483.93608  -5285048.22908  23978730.21608  23978732.31608
 -25665730.14009 -19999259.59809  20399395.39109  20399396.35609
 93 07 23 05 48 00.0000000  0  7 14 01 25 13 07 29 15
 -20954679.84308 -16328310.26508  21389344.17508  21389345.54408
    311884.87108    243027.97508  22644250.56208  22644252.22308
  -3209221.81708  -2500690.19108  23416924.52808  23416925.71208
  -2595594.91407  -2022539.75907  24759897.24407  24759901.46607
 -13591396.16108 -10590690.74608  22836930.73608  22836932.59408
  -7002184.33508  -5456243.25408  23936922.63008  23936924.67708
 -25576674.96209 -19929865.96709  20416342.04709  20416342.98909
 93 07 23 05 49 00.0000000  0  8 14 01 25 13 07 12 29 15
 -21093127.00708 -16436191.14208  21362998.45508  21362999.90208
    471653.59108    367523.03508  22674653.61308  22674655.31608
  -3364952.72608  -2622038.89008  23387289.92508  23387291.01708
  -2827907.19007  -2203562.11307  24715689.58707  24715693.62407
 -13676663.25108 -10657132.58108  22820704.81908  22820706.63308
        -0.23518         0.25517  24888947.09418  24888950.88317
  -7221313.89208  -5626993.46008  23895223.44008  23895225.55808
 -25485552.74509 -19858861.65709  20433682.05309  20433683.00109
 93 07 23 05 50 00.0000000  0  8 14 01 25 13 07 12 29 15
 -21230364.75108 -16543129.61408  21336882.94508  21336884.43508
    632852.97408    493132.89908  22705328.80208  22705330.49008
  -3519321.27408  -2742325.99608  23357914.35208  23357915.46308
  -3059503.17608  -2384026.39407  24671618.34208  24671622.45207
 -13759617.99408 -10721772.59808  22804919.13708  22804920.99908
    149314.92808    116349.67808  24917361.02508  24917364.78108
  -7439780.02008  -5797226.71408  23853650.68708  23853652.76208
 -25392321.28009 -19786213.77609  20451423.40809  20451424.38809
 93 07 23 05 51 00.0000000  0  8 14 01 25 13 07 12 29 15
 -21366326.02108 -16649073.43208  21311010.30208  21311011.80408
    795490.80508    619863.63108  22736277.81108  22736279.47008
  -3672279.97008  -2861514.52808  23328807.19408  23328808.33408
  -3290349.40007  -2563906.43307  24627689.62407  24627693.93307
 -13840229.38008 -10784586.61908  22789579.31708  22789581.18508
    300637.99108    234263.67508  24946156.86208  24946160.95208
  -7657619.97408  -5966972.04608  23812196.93908  23812199.10408
 -25296978.25209 -19711920.52209  20469566.57509  20469567.61609
 93 07 23 05 52 00.0000000  0  8 14 01 25 13 07 12 29 15
 -21500934.13708 -16753962.84308  21285395.22808  21285396.69408
    959570.38508    747717.80508  22767501.18208  22767502.77908
  -3823603.23208  -2979428.67508  23300011.31608  23300012.44508
  -3520386.91808  -2743156.29407  24583914.94708  24583918.94007
 -13918524.07608 -10845595.43008  22774680.22408  22774682.09508
    453981.23108    353751.90108  24975337.11608  24975341.40208
  -7874864.53508  -6136253.41108  23770856.70108  23770858.84208
 -25199496.03309 -19635960.36908  20488116.79709  20488117.86408
 93 07 23 05 53 00.0000000  0  8 14 01 25 13 07 12 29 15
 -21634269.88208 -16857860.79508  21260022.28008  21260023.70408
   1125014.83108    876635.51208  22798984.26708  22798985.92008
  -3973166.85808  -3095971.68108  23271550.16908  23271551.32208
  -3749632.80708  -2921789.32407  24540290.79308  24540294.76407
 -13994576.98708 -10904857.41308  22760207.86508  22760209.60208
    609279.14908    474763.22007  25004889.39208  25004893.36107
  -8091531.20808  -6305084.51608  23729626.27408  23729628.47908
 -25099924.82409 -19558372.42908  20507064.56309  20507065.67308
 93 07 23 05 54 00.0000000  0  8 14 01 25 13 07 12 29 15
 -21766326.70108 -16960762.18208  21234892.70708  21234894.09108
   1291829.56808   1006620.97108  22830728.07508  22830729.77208
  -4121016.09008  -3211178.79908  23243415.28208  23243416.52708
  -3978061.43608  -3099785.52207  24496822.35108  24496826.14607
 -14068316.64808 -10962316.86508  22746175.60508  22746177.27608
    766509.92008    597280.64308  25034809.44308  25034813.55508
  -8307510.66708  -6473380.07108  23688526.73908  23688528.86308
 -24998271.26909 -19479161.88308  20526408.60209  20526409.70808
 93 07 23 05 55 00.0000000  0  8 14 01 25 13 07 12 29 15
 -21897035.25908 -17062612.97608  21210019.65708  21210021.02408
   1459973.82308   1137642.40208  22862724.84108  22862726.70508
  -4267343.78408  -3325200.30608  23215570.07808  23215571.23808
  -4205672.27108  -3277144.44107  24453509.37808  24453512.95907
 -14139697.26108 -11017938.09908  22732592.50808  22732594.08508
    925626.00808    721267.15208  25065088.27508  25065092.38208
  -8522734.89908  -6641087.16708  23647570.86608  23647573.02508
 -24894567.01009 -19398353.38808  20546142.91509  20546143.98208
 93 07 23 05 56 00.0000000  0  8 14 01 25 13 07 12 29 15
 -22026310.99008 -17163347.28108  21185419.21108  21185420.62408
   1629488.59708   1269731.78008  22894982.49108  22894984.27108
  -4412272.97808  -3438132.07708  23187991.04608  23187992.06608
  -4432445.05508  -3453850.30907  24410355.60608  24410359.45407
 -14208721.12808 -11071722.91408  22719457.71108  22719459.22708
   1086599.75208    846701.18708  25095720.68408  25095724.72408
  -8737212.04008  -6808212.09808  23606757.17908  23606759.23608
 -24788824.61109 -19315956.73308  20566265.06609  20566266.11408
 93 07 23 05 57 00.0000000  0  8 14 01 25 13 07 12 29 15
 -22154117.23309 -17262936.53308  21161098.54609  21161099.93708
   1800361.97708   1402879.81508  22927498.72308  22927500.57108
  -4555722.34608  -3549910.73808  23160693.42308  23160694.52908
  -4658318.63708  -3629855.51507  24367373.24108  24367377.02207
 -14275370.18008 -11123657.22008  22706774.80408  22706776.41608
   1249441.64308    973590.92607  25126708.57008  25126712.39107
  -8950953.91708  -6974764.10108  23566083.41408  23566085.37808
 -24681018.04309 -19231951.63308  20586779.99609  20586781.03608
 93 07 23 05 58 00.0000000  0  8 14 01 25 13 07 12 29 15
 -22280505.80809 -17361421.11308  21137047.60809  21137048.99108
   1972504.19608   1537016.54508  22960256.28808  22960258.19708
  -4697523.50108  -3660405.08108  23133709.46108  23133710.60008
  -4883262.13008  -3805135.99207  24324567.82508  24324571.36207
 -14339577.59608 -11173688.95008  22694556.50108  22694558.25308
   1414135.78308   1101923.98607  25158048.86508  25158052.67007
  -9163968.49508  -7140749.35508  23525548.00008  23525550.01008
 -24571149.09809 -19146339.48608  20607687.33809  20607688.41908
 93 07 23 05 59 00.0000000  0  8 14 01 25 13 07 12 29 15
 -22405602.25809 -17458898.84108  21113242.54709  21113243.94108
   2145839.45908   1672082.92208  22993240.89008  22993242.77908
  -4837565.91408  -3769528.97908  23107060.16608  23107061.34308
  -5107259.43308  -3979679.20207  24281942.47808  24281945.99707
 -14401339.03008 -11221814.72208  22682803.62108  22682805.37008
   1580649.55908   1231674.94107  25189735.34808  25189739.14207
  -9376213.58908  -7306134.99708  23485158.89908  23485161.03708
 -24459234.92509 -19059133.65408  20628983.91709  20628984.98608
 93 07 23 06 00 00.0000000  0  8 14 01 25 13 07 12 29 15
 -22529381.49809 -17555350.17408  21089688.02409  21089689.40108
   2320373.23208   1808083.20508  23026453.74108  23026455.56308
  -4975791.20508  -3877236.93008  23080756.77208  23080757.97408
  -5330280.38008  -4153461.59807  24239502.78408  24239506.37007
 -14460724.70708 -11268089.25008  22671502.84108  22671504.68408
   1748961.29908   1362826.85007  25221764.13608  25221767.69807
  -9587679.49408  -7470913.45508  23444918.06908  23444920.20208
 -24345281.66808 -18970338.92908  20650668.49508  20650669.56308
 93 07 23 06 01 00.0000000  0  8 14 01 25 13 07 12 29 15
 -22651716.80609 -17650676.35908  21066408.46909  21066409.75008
   2496242.58708   1945124.20508  23059920.54208  23059922.31708
  -5112271.54008  -3983585.16008  23054785.39608  23054786.50608
  -5552287.01008  -4326453.67907  24197256.28408  24197259.83507
 -14517767.91008 -11312538.48308  22660647.98408  22660649.73808
   1919060.89608   1495371.86607  25254132.92708  25254136.73807
  -9798400.22008  -7635111.25308  23404819.12408  23404821.22808
 -24229285.62609 -18879952.42408  20672741.87709  20672742.88508
 93 07 23 06 02 00.0000000  0  8 14 01 25 13 07 12 29 15
 -22772598.42309 -17744869.79608  21043405.47409  21043406.68208
   2673500.64308   2083247.31008  23093651.68708  23093653.52608
  -5247017.77008  -4088582.16708  23029143.92208  23029144.96908
  -5773277.92508  -4498654.25707  24155203.03408  24155206.70507
 -14572466.00008 -11355160.36008  22650239.25308  22650241.01708
   2090900.01308   1629272.38407  25286832.98108  25286836.87207
 -10008395.19808  -7798743.53408  23364858.25808  23364860.29008
 -24111279.21208 -18787999.39608  20695197.76608  20695198.80408
 93 07 23 06 03 00.0000000  0  8 14 01 25 13 07 12 29 15
 -22892076.83809 -17837969.82508  21020669.45809  21020670.65708
   2852022.37108   2222355.08808  23127623.22908  23127625.10108
  -5379963.03308  -4192175.82208  23003845.36108  23003846.31608
  -5993239.86008  -4670053.01107  24113345.49208  24113349.11107
 -14624713.94908 -11395873.04008  22640296.78108  22640298.52608
   2264441.14108   1764499.15807  25319856.83408  25319860.81107
 -10217564.68908  -7961732.57108  23325054.43308  23325056.45808
 -23991286.29108 -18694498.44908  20718031.65908  20718032.75908
 93 07 23 06 04 00.0000000  0  8 14 01 25 13 07 12 29 15
 -23010152.50909 -17929976.80708  20998200.33709  20998201.56308
   3031601.42808   2362286.76408  23161796.14408  23161797.95308
  -5511104.24008  -4294363.70308  22978890.00408  22978890.92208
  -6212175.92708  -4840652.38107  24071683.19408  24071686.72207
 -14674455.59108 -11434632.75208  22630831.22308  22630833.00708
   2439631.13208   1901010.87607  25353194.31908  25353198.47807
 -10425842.49608  -8124026.78408  23285420.39208  23285422.26408
 -23869344.41408 -18599478.83608  20741236.46608  20741237.53708
 93 07 23 06 05 00.0000000  0  8 01 25 13 07 14 12 29 15
   3212205.94608   2503017.50008  23196164.06708  23196165.81308
  -5640494.52908  -4395187.23108  22954267.76908  22954268.61108
  -6430043.03708  -5010418.81407  24030224.31608  24030227.67407
 -14721757.65008 -11471491.49008  22621829.95208  22621831.61308
 -23126789.97009 -18020863.10608  20976004.93009  20976006.17208
   2616462.70707   2038801.61207  25386844.31207  25386848.34807
 -10633218.27008  -8285618.11908  23245958.06108  23245959.84108
 -23745447.00308 -18502935.42308  20764813.38308  20764814.46308
 93 07 23 06 06 00.0000000  0  8 01 25 13 07 14 12 29 15
   3393930.09808   2644620.68708  23230744.93208  23230746.81008
  -5768118.98008  -4494634.79208  22929981.65108  22929982.50708
  -6646810.47908  -5179328.31307  23988974.61708  23988978.17207
 -14766685.32708 -11506500.06308  22613280.43808  22613282.05208
 -23242027.13209 -18110658.26108  20954076.02409  20954077.26708
   2794914.91108   2177855.14007  25420802.64308  25420806.82407
 -10839779.65508  -8446574.87708  23206650.65208  23206652.29408
 -23619599.85008 -18404872.72608  20788761.34608  20788762.43008
 93 07 23 06 07 00.0000000  0  8 01 25 13 07 14 12 29 15
   3576869.99508   2787171.20508  23265557.28508  23265559.15008
  -5893911.17108  -4592654.62108  22906044.10308  22906044.94908
  -6862424.79008  -5347339.27907  23947944.41508  23947948.04407
 -14809164.78008 -11539600.92708  22605196.91008  22605198.51108
 -23355902.07009 -18199391.94308  20932406.28209  20932407.50708
   2974990.82207   2318173.92407  25455070.23607  25455074.23107
 -11045522.37208  -8606893.71408  23167498.94208  23167500.54108
 -23491786.32808 -18305277.79508  20813083.43808  20813084.55408
 93 07 23 06 08 00.0000000  0  8 01 25 13 07 14 12 29 15
   3761012.31908   2930658.70008  23300598.55508  23300600.31108
  -6017887.98108  -4689259.86008  22882451.95908  22882452.87308
  -7076854.79108  -5514427.43108  23907139.55708  23907143.20308
 -14849122.54108 -11570736.83108  22597593.15508  22597594.80008
 -23468353.09609 -18287016.08608  20911007.50409  20911008.75708
   3156671.64107   2459743.34207  25489643.00707  25489647.20807
 -11250347.83208  -8766497.81508  23128521.87608  23128523.34408
 -23362011.17408 -18204154.32608  20837778.83808  20837779.93508
 93 07 23 06 09 00.0000000  0  7 01 25 13 07 29 14 15
   3946262.21308   3075009.22008  23335850.37508  23335852.28808
  -6140060.45208  -4784459.12708  22859203.31308  22859204.17408
  -7290097.82708  -5680590.66907  23866560.71408  23866564.17307
 -14886604.41908 -11599943.47808  22590460.53408  22590462.21008
 -11454244.58408  -8925378.24708  23089721.57108  23089722.93908
 -23579266.79409 -18373442.31708  20889901.28409  20889902.55108
 -23230309.19508 -18101529.43408  20862840.90108  20862842.00108
 93 07 23 06 10 00.0000000  0  7 01 25 13 07 29 14 15
   4132600.90508   3220208.13908  23371309.43108  23371311.42708
  -6260259.04308  -4878120.29208  22836330.27308  22836331.06008
  -7502048.63008  -5845747.00908  23826227.67208  23826231.09108
 -14921592.03108 -11627206.54508  22583802.52508  22583804.14808
 -11657143.88708  -9083481.44308  23051110.98108  23051112.35108
 -23688514.95909 -18458570.73208  20869112.11309  20869113.29208
 -23096611.93908 -17997349.77508  20888282.63908  20888283.74608
 93 07 23 06 11 00.0000000  0  7 01 25 13 07 14 29 15
   4319870.60908   3366132.55008  23406945.78908  23406947.63508
  -6378482.00108  -4970242.00308  22813833.19208  22813833.85908
  -7712755.06708  -6009933.73507  23786131.43608  23786134.79407
 -14954156.65108 -11652581.56408  22577605.69108  22577607.38408
 -23796285.89709 -18542548.06308  20848603.97709  20848605.11508
 -11859115.51608  -9240861.77108  23012676.94908  23012678.31508
 -22961005.34708 -17891682.33008  20914087.71708  20914088.84708
 93 07 23 06 12 00.0000000  0  7 01 25 13 07 29 14 15
   4508056.44608   3512770.80908  23442756.32208  23442758.31708
  -6494776.28408  -5060860.86108  22791703.00508  22791703.69808
  -7922226.61408  -6173158.20308  23746270.37908  23746273.73108
 -14984273.04808 -11676048.88108  22571874.77008  22571876.46208
 -12060113.86108  -9397483.72008  22974428.13208  22974429.44008
 -23902718.93609 -18625482.87508  20828350.42709  20828351.56208
 -22823537.12308 -17784564.26208  20940247.07708  20940248.24208
 93 07 23 06 13 00.0000000  0  7 01 25 13 07 14 29 15
   4697290.36308   3660225.77408  23478766.40508  23478768.41208
  -6609109.93808  -5149951.95208  22769945.90408  22769946.67408
  -8130403.99008  -6335374.23908  23706655.50808  23706658.78408
 -15011844.69308 -11697533.27208  22566627.94508  22566629.76608
 -24007745.93509 -18707322.07608  20808364.38909  20808365.58308
 -12260097.89708  -9553315.29508  22936372.24508  22936373.62208
 -22684185.20108 -17675978.37008  20966764.87208  20966766.06708
 93 07 23 06 14 00.0000000  0  7 15 01 25 13 07 29 14
 -22542959.94208 -17565932.74108  20993639.15708  20993640.40608
   4887583.70008   3808506.23508  23514978.02608  23514980.10008
  -6721431.04208  -5237474.82008  22748571.81908  22748572.62808
  -8337258.95108  -6496559.81708  23667292.19808  23667295.38508
 -15036842.27308 -11717011.89308  22561871.00108  22561872.91208
 -12459153.70508  -9708423.58908  22898493.01308  22898494.43508
 -24111232.20409 -18787960.71108  20788671.62809  20788672.86108
 93 07 23 06 15 00.0000000  0  7 15 01 25 13 07 14 29
 -22399911.78608 -17454466.67208  21020860.36708  21020861.57608
   5078819.18708   3957520.84008  23551369.08108  23551370.93108
  -6831793.54908  -5323471.50408  22727570.53108  22727571.27708
  -8542803.17708  -6656724.04308  23628178.40408  23628181.49008
 -15059435.67008 -11734617.12908  22557571.75008  22557573.49508
 -24213140.26409 -18867369.57408  20769279.18009  20769280.37908
 -12657364.12508  -9862873.13208  22860774.76908  22860776.13508
 93 07 23 06 16 00.0000000  0  7 15 01 25 13 07 29 14
 -22255002.77808 -17341550.58308  21048435.63508  21048436.86308
   5270983.86208   4107259.50508  23587936.78008  23587938.67108
  -6940160.69308  -5407913.36708  22706948.94908  22706949.71708
  -8746961.52308  -6815808.36208  23589328.31108  23589331.43008
 -15079657.66308 -11750374.52208  22553723.68208  22553725.42008
 -12854589.82308 -10016555.36008  22823243.85608  22823245.19108
 -24313436.34509 -18945522.34508  20750193.43509  20750194.58408
 93 07 23 06 17 00.0000000  0  7 15 01 25 13 07 29 14
 -22108235.40908 -17227186.43408  21076364.59208  21076365.79708
   5464112.82308   4257749.57808  23624687.97508  23624689.91108
  -7046507.29808  -5490780.78508  22686711.82808  22686712.54508
  -8949695.81708  -6973783.04708  23550749.05508  23550752.29408
 -15097404.17708 -11764202.97108  22550346.64508  22550348.34808
 -13050702.93808 -10169370.63408  22785924.64508  22785925.90308
 -24412154.80309 -19022445.79608  20731407.87209  20731409.03608
 93 07 23 06 18 00.0000000  0  7 15 01 25 13 07 29 14
 -21959611.55508 -17111375.66408  21104646.78608  21104647.96908
   5658243.77308   4409020.40708  23661630.01308  23661631.83108
  -7150806.86808  -5572053.10408  22666864.25108  22666864.94408
  -9150969.49108  -7130619.57908  23512447.92008  23512451.06408
 -15112562.08908 -11776014.33408  22547462.26008  22547463.93908
 -13245677.98108 -10321299.09908  22748821.93308  22748823.16808
 -24509362.00509 -19098191.65008  20712909.97409  20712911.22008
 93 07 23 06 19 00.0000000  0  7 15 01 25 13 07 29 14
 -21809209.67508 -16994179.41008  21133267.34508  21133268.53308
   5853318.22608   4561026.45408  23698751.59508  23698753.41308
  -7253078.36708  -5651745.12408  22647402.51708  22647403.21708
  -9350821.79808  -7286348.57508  23474417.25508  23474420.36808
 -15125181.26408 -11785847.46708  22545060.91308  22545062.49708
 -13439642.98108 -10472440.51608  22711911.51908  22711912.71008
 -24605165.44009 -19172843.66208  20694679.09309  20694680.42008
 93 07 23 06 20 00.0000000  0  7 15 01 25 13 07 29 14
 -21657032.22908 -16875599.58708  21162225.74908  21162226.95008
   6049268.96808   4713715.29008  23736039.68008  23736041.74008
  -7353311.95608  -5729849.16308  22628328.57008  22628329.28208
  -9549214.88708  -7440940.51008  23436664.31708  23436667.51008
 -15135339.70508 -11793763.14908  22543127.82508  22543129.36108
 -13632595.28508 -10622792.82708  22675193.89508  22675195.00908
 -24699497.95109 -19246349.50008  20676728.17609  20676729.48808
 93 07 23 06 21 00.0000000  0  7 15 01 25 13 07 29 14
 -21503040.82608 -16755606.31208  21191529.38308  21191530.56008
   6246078.29808   4867073.15908  23773491.40408  23773493.29908
  -7451388.37708  -5806272.29608  22609665.19608  22609665.96208
  -9746071.24808  -7594334.98408  23399203.78108  23399206.78208
 -15143040.90808 -11799764.10608  22541662.35508  22541663.95208
 -13824418.89108 -10772265.66208  22638690.93308  22638692.03408
 -24792217.90009 -19318598.79308  20659084.20509  20659085.41408
 93 07 23 06 22 00.0000000  0  7 15 01 25 13 07 29 14
 -21347293.30308 -16634244.62508  21221167.20208  21221168.36108
   6443606.17508   5020990.94208  23811079.76508  23811081.72108
  -7547300.03008  -5881008.60608  22591413.88508  22591414.70608
  -9941409.04708  -7746546.17508  23362032.20308  23362035.19908
 -15148328.21908 -11803884.11108  22540656.28008  22540657.83508
 -14015072.74108 -10920827.01508  22602410.75408  22602411.71908
 -24883338.05409 -19389601.48808  20641744.69109  20641745.84008
 93 07 23 06 23 00.0000000  0  7 15 01 25 13 07 29 14
 -21189793.75008 -16511517.73708  21251138.41508  21251139.54108
   6641914.12008   5175516.57508  23848816.50708  23848818.53808
  -7641071.80708  -5954077.47908  22573569.56408  22573570.26908
 -10135192.57408  -7897546.23308  23325156.23408  23325159.23408
 -15151132.65508 -11806069.40108  22540122.57108  22540124.23808
 -14204548.02308 -11068470.01208  22566354.73408  22566355.72108
 -24972881.49709 -19459375.57708  20624705.16209  20624706.28008
 93 07 23 06 24 00.0000000  0  7 15 01 25 13 07 29 14
 -21030540.82308 -16387424.58408  21281443.24608  21281444.41608
   6841134.23208   5330752.98708  23886726.89308  23886728.89608
  -7732774.58408  -6025534.13908  22556119.08108  22556119.65408
 -10327381.71708  -8047303.90908  23288583.83108  23288586.76708
 -15151370.21108 -11806254.52308  22540077.24808  22540079.00608
 -14392872.93408 -11215216.60308  22530517.63808  22530518.68108
 -25060809.33909 -19527890.75508  20607973.00509  20607974.14908
 93 07 23 06 25 00.0000000  0  7 15 01 25 13 07 29 14
 -20869559.57508 -16261984.68908  21312076.98108  21312078.13508
   7041247.35608   5486685.29008  23924807.02008  23924809.18508
  -7822418.78408  -6095386.70408  22539060.35308  22539061.01608
 -10517960.02308  -8195806.37808  23252317.88308  23252320.91308
 -15149124.49108 -11804504.61508  22540504.60408  22540506.41708
 -14580120.39408 -11361123.63208  22494885.45608  22494886.57908
 -25147082.15109 -19595116.30208  20591555.69809  20591556.88008
 93 07 23 06 26 00.0000000  0  7 15 01 25 13 07 29 14
 -20706820.77508 -16135175.26708  21343045.14208  21343046.29808
   7242172.94908   5643250.66308  23963042.00708  23963044.19108
  -7909890.09308  -6163546.12808  22522415.09708  22522415.75208
 -10706857.98908  -8342999.49308  23216371.78708  23216374.70708
 -15144398.78008 -11800822.24608  22541403.84608  22541405.62508
 -14766195.80008 -11506117.35508  22459476.45008  22459477.57208
 -25231688.10309 -19661042.99508  20575455.74509  20575456.86808
 93 07 23 06 27 00.0000000  0  7 15 01 25 13 07 29 14
 -20542426.83708 -16007076.12308  21374328.31408  21374329.47708
   7443682.64508   5800271.18108  24001388.14008  24001390.11408
  -7995165.52808  -6229994.46908  22506187.73708  22506188.34808
 -10894137.49308  -8488931.47408  23180733.55508  23180736.48508
 -15137211.93908 -11795222.11108  22542771.62108  22542773.30908
 -14951119.24108 -11650213.43508  22424286.51608  22424287.70308
 -25314776.16609 -19725786.91708  20559644.60909  20559645.69908
 93 07 23 06 28 00.0000000  0  7 15 01 25 13 07 29 14
 -20376344.84308 -15877661.60408  21405932.66708  21405933.90308
   7645865.87908   5957816.57208  24039862.09108  24039864.21808
  -8078158.39208  -6294664.18208  22490394.66108  22490395.26508
 -11079726.55308  -8633546.23708  23145417.08508  23145419.99408
 -15127441.18308 -11787608.53908  22544631.06308  22544632.64908
 -15134855.22008 -11793384.23208  22389322.65308  22389323.89208
 -25396329.11209 -19789334.64308  20544125.59209  20544126.69408
 93 07 23 06 29 00.0000000  0  7 15 01 25 13 07 29 14
 -20208585.70908 -15746940.22908  21437856.17708  21437857.43408
   7848852.25308   6115987.72108  24078489.18808  24078491.39608
  -8158937.11208  -6357608.59808  22475023.01008  22475023.51108
 -11263594.83608  -8776820.14508  23110428.12208  23110430.92908
 -15115133.31608 -11778017.99808  22546973.09208  22546974.71508
 -15317445.54808 -11935662.29908  22354576.81608  22354578.01708
 -25476337.53209 -19851678.84208  20528900.43009  20528901.50908
 93 07 23 06 30 00.0000000  0  7 15 01 25 13 07 29 14
 -20039182.00208 -15614937.37208  21470092.66008  21470093.96408
   8052624.12308   6274770.99508  24117265.67308  24117267.80208
  -8237536.53708  -6418854.86508  22460065.89908  22460066.48108
 -11445733.41808  -8918746.24608  23075768.26208  23075770.91808
 -15100370.94508 -11766514.86208  22549782.18508  22549783.79108
 -15498839.92208 -12077008.45308  22320058.55408  22320059.67908
 -25554788.36709 -19912809.33608  20513971.71109  20513972.80608
 93 07 23 06 31 00.0000000  0  7 01 25 13 07 29 14 15
   8257110.78108   6434111.22508  24156177.96908  24156180.28108
  -8313888.98108  -6478350.24308  22445536.52508  22445537.06108
 -11626097.83808  -9059289.88708  23041445.99008  23041448.61108
 -15083114.83908 -11753068.55608  22553065.78608  22553067.48208
 -15678930.51908 -12217338.66408  22285788.41908  22285789.43808
 -25631584.55809 -19972650.49708  20499357.91509  20499358.97808
 -19868130.10208 -15481650.22508  21502642.75508  21502644.08208
 93 07 23 06 32 00.0000000  0  7 01 25 13 07 29 14 15
   8462213.38908   6593931.44908  24195207.87808  24195210.03808
  -8387944.30008  -6536055.64408  22431444.20708  22431444.69908
 -11804691.26508  -9198453.52508  23007460.70308  23007463.39308
 -15063368.88408 -11737682.10408  22556823.40408  22556825.23708
 -15857706.18108 -12356644.26308  22251768.46008  22251769.46308
 -25706659.72409 -20031150.60008  20485071.61509  20485072.64108
 -19695473.12608 -15347112.35608  21535498.27108  21535499.61608
 93 07 23 06 33 00.0000000  0  7 01 25 13 07 14 29 15
   8667924.20208   6754225.60908  24234353.39908  24234355.43408
  -8459698.74208  -6591968.15208  22417789.72108  22417790.41508
 -11981484.24908  -9336214.22208  22973818.11308  22973820.72408
 -15041170.94408 -11720385.02108  22561047.61508  22561049.30208
 -25780012.85709 -20088308.85908  20471112.94209  20471114.01008
 -16035229.36108 -12494973.91008  22217986.85108  22217987.79908
 -19521223.17908 -15211333.22608  21568656.94708  21568658.33008
 93 07 23 06 34 00.0000000  0  7 01 25 13 07 29 14 15
   8874237.09208   6914988.90508  24273613.49308  24273615.40008
  -8529256.11208  -6646168.66108  22404553.36508  22404554.02708
 -12156443.82508  -9472546.29108  22940524.28008  22940526.99008
 -15016543.56608 -11701194.87008  22565734.05208  22565735.75608
 -16211539.22408 -12632358.10708  22184436.07508  22184437.03008
 -25851714.70209 -20144180.40209  20457468.54509  20457469.59109
 -19345387.08508 -15074318.11308  21602117.47808  21602118.82108
 93 07 23 06 35 00.0000000  0  7 01 25 13 07 14 29 15
   9081127.25608   7076202.04908  24312983.33408  24312985.28408
  -8596652.05908  -6698684.93908  22391728.35008  22391728.91108
 -12329544.74508  -9607430.04108  22907584.13008  22907586.87208
 -14989483.67108 -11680109.25108  22570883.47908  22570885.10908
 -25921847.10309 -20198829.00309  20444122.81009  20444123.82609
 -16386615.54508 -12768781.09408  22151120.04608  22151120.98108
 -19167981.52808 -14936080.04908  21635876.65508  21635878.00908
 93 07 23 06 36 00.0000000  0  7 01 25 13 07 14 29 15
   9288631.09408   7237893.40607  24352469.96508  24352471.57707
  -8661763.88008  -6749421.38908  22379337.99208  22379338.45008
 -12500733.73308  -9740823.98908  22875007.91908  22875010.65408
 -14959969.17508 -11657110.95508  22576499.87108  22576501.47408
 -25990383.34009 -20252233.83809  20431080.74409  20431081.78509
 -16560360.87508 -12904166.96108  22118057.33508  22118058.31408
 -18988993.53008 -14796608.92008  21669936.93608  21669938.30908
 93 07 23 06 37 00.0000000  0  7 01 25 13 07 14 29 15
   9496737.75808   7400054.50707  24392071.42408  24392073.08307
  -8724475.50708  -6798287.55008  22367404.31908  22367404.84308
 -12669993.86608  -9872714.92508  22842798.73108  22842801.41608
 -14927991.31908 -11632193.15708  22582585.10008  22582586.63808
 -26057257.26309 -20304343.36309  20418354.95509  20418355.98609
 -16732751.57708 -13038497.29208  22085252.33608  22085253.28208
 -18808447.14508 -14655923.46208  21704293.84608  21704295.17408
 93 07 23 06 38 00.0000000  0  7 01 25 13 07 14 29 15
   9705460.85907   7562695.93707  24431790.00307  24431791.64107
  -8784777.64108  -6845276.18108  22355929.14008  22355929.67708
 -12837302.84208 -10003085.48308  22810960.76908  22810963.60208
 -14893517.55508 -11605330.49908  22589145.26608  22589146.89308
 -26122427.76809 -20355125.54609  20405953.42109  20405954.44009
 -16903804.03208 -13171784.86008  22052702.18308  22052703.12908
 -18626361.76008 -14514038.75408  21738943.55808  21738944.86008
 93 07 23 06 39 00.0000000  0  7 01 25 13 07 14 29 15
   9914766.78208   7725791.51007  24471619.49808  24471621.20507
  -8842757.79208  -6890455.48008  22344895.78408  22344896.28208
 -13002659.89308 -10131935.05308  22779494.27708  22779497.11908
 -14856574.53608 -11576543.74408  22596175.14808  22596176.85108
 -26185914.94509 -20404596.04609  20393872.31309  20393873.33509
 -17073515.51508 -13304027.48208  22020407.13008  22020407.99108
 -18442775.90508 -14370984.85708  21773878.79308  21773880.07208
 93 07 23 06 40 00.0000000  0  7 01 25 13 07 14 29 15
  10124613.30708   7889308.40808  24511551.98708  24511553.73808
  -8898421.11708  -6933829.46308  22334303.39908  22334303.85408
 -13166055.01708 -10259255.85208  22748401.21208  22748404.00808
 -14817267.10308 -11545914.59408  22603655.22708  22603656.87408
 -26247708.31509 -20452746.69709  20382113.36109  20382114.35509
 -17241879.28708 -13435219.87408  21988368.45908  21988369.24508
 -18257721.41308 -14226786.58108  21809093.56608  21809094.79908
 93 07 23 06 41 00.0000000  0  7 01 25 13 07 14 29 15
  10334978.99708   8053229.81208  24551583.25608  24551585.00008
  -8951720.59708  -6975361.48608  22324160.77008  22324161.28508
 -13327429.84108 -10385002.39308  22717692.47108  22717695.35708
 -14775557.77908 -11513413.84208  22611592.31008  22611593.97408
 -26307754.14509 -20499535.63109  20370686.96109  20370687.96409
 -17408846.20708 -13565323.88208  21956595.63908  21956596.42608
 -18071181.69708 -14081431.00208  21844590.95108  21844592.20908
 93 07 23 06 42 00.0000000  0  7 01 25 13 07 14 29 15
  10545663.73108   8217399.83108  24591675.12108  24591676.80908
  -9002779.19608  -7015147.37508  22314444.63508  22314445.19408
 -13486848.57308 -10509224.70508  22687356.07408  22687358.95508
 -14731463.20608 -11479054.45008  22619983.18508  22619984.86908
 -26366195.42309 -20545074.26509  20359565.93709  20359566.98509
 -17574532.12708 -13694429.71308  21925066.63408  21925067.33808
 -17883261.17108 -13934999.46008  21880351.09208  21880352.37608
 93 07 23 06 43 00.0000000  0  8 01 25 13 07 14 18 29 15
  10756764.14108   8381893.80508  24631846.06508  24631847.59208
  -9051505.42208  -7053115.83308  22305172.36808  22305172.84408
 -13644201.83708 -10631837.55508  22657412.63008  22657415.56508
 -14684900.78108 -11442772.05308  22628843.60208  22628845.29108
 -26422997.56709 -20589335.65609  20348756.79109  20348757.83809
        -0.47317        -0.57317  25223983.81517  25223987.64617
 -17738829.13408 -13822453.23108  21893801.83008  21893802.54008
 -17693891.46808 -13787438.70108  21916387.00908  21916388.30308
 93 07 23 06 44 00.0000000  0  8 01 25 13 07 14 18 29 15
  10968430.48607   8546828.63608  24672124.60007  24672126.47708
  -9097743.82508  -7089145.72308  22296373.54908  22296373.92308
 -13799416.60308 -10752784.04908  22627876.24608  22627879.05708
 -14635924.48608 -11404608.71808  22638163.52308  22638165.14508
 -26478069.86909 -20632249.11709  20338276.86909  20338277.87609
   -235431.79207   -183453.45907  25179182.28607  25179186.40607
 -17901686.92508 -13949355.31008  21862810.92308  21862811.60808
 -17503039.86708 -13638723.21008  21952704.85908  21952706.20008
 93 07 23 06 45 00.0000000  0  8 01 25 13 07 14 18 29 15
  11180632.82807   8712181.18307  24712505.05707  24712506.94807
  -9141508.77808  -7123248.25008  22288045.31108  22288045.68808
 -13952493.58408 -10872064.73908  22598746.63108  22598749.37208
 -14584606.15208 -11364620.41808  22647929.27108  22647930.84008
 -26531423.92609 -20673823.68209  20328123.88209  20328124.87609
   -470625.52108   -366721.13207  25134426.68208  25134430.37807
 -18063095.76308 -14075128.35008  21832095.77508  21832096.42108
 -17310747.69308 -13488885.20508  21989296.82508  21989298.24708
 93 07 23 06 46 00.0000000  0  8 01 25 13 07 14 18 29 15
  11393246.24007   8877854.07007  24752964.07607  24752966.05507
  -9182931.00408  -7155525.28108  22280162.95208  22280163.32908
 -14103430.03708 -10989677.49408  22570024.27208  22570026.95208
 -14530898.00308 -11322769.93108  22658149.58708  22658151.16908
 -26583081.92609 -20714076.66909  20318293.74809  20318294.76009
   -705570.92807   -549795.31507  25089717.63007  25089721.37707
 -18223046.01908 -14199764.81608  21801658.21608  21801658.78508
 -17117053.01308 -13337954.32508  22026155.74508  22026157.16808
 93 07 23 06 47 00.0000000  0  8 01 25 13 07 14 18 29 15
  11606200.44707   9043792.46007  24793488.00607  24793489.85307
  -9222041.90708  -7186001.27708  22272720.39108  22272720.75708
 -14252230.94108 -11105626.19308  22541708.42908  22541710.98108
 -14474762.41408 -11279027.93708  22668831.76608  22668833.40608
 -26633012.57709 -20752983.65109  20308792.24309  20308793.19209
   -940331.27208   -732725.34507  25045044.38708  25045047.99007
 -18381550.97408 -14323275.09308  21771495.63608  21771496.18108
 -16922002.04708 -13185966.60908  22063272.69208  22063274.18508
 93 07 23 06 48 00.0000000  0  8 01 25 13 07 14 18 29 15
  11819534.88207   9210027.18407  24834084.23207  24834085.99607
  -9258740.45308  -7214597.52008  22265736.76108  22265737.23708
 -14398856.88208 -11219880.12608  22513806.42208  22513808.84808
 -14416238.14108 -11233424.63608  22679968.50008  22679970.30108
 -26681141.47309 -20790486.65609  20299633.60409  20299634.57309
  -1174887.72507   -915496.45307  25000409.36907  25000413.24207
 -18538626.12608 -14445671.21008  21741605.27508  21741605.79708
 -16725594.90508 -13032922.12808  22100647.79808  22100649.21908
 93 07 23 06 49 00.0000000  0  8 25 01 13 07 14 18 29 15
  -9292986.17108  -7241282.46808  22259219.90208  22259220.46208
  12033239.34308   9376550.19208  24874750.89608  24874752.44508
 -14543273.67408 -11332412.64608  22486324.81608  22486327.24408
 -14355338.24608 -11185970.20608  22691557.21708  22691559.14208
 -26727466.52709 -20826584.08009  20290818.19509  20290819.15409
  -1409222.05008  -1098094.50007  24955817.23808  24955820.93007
 -18694279.51108 -14566959.45508  21711985.24008  21711985.75708
 -16527837.33308 -12878825.38508  22138279.83708  22138281.25708
 93 07 23 06 50 00.0000000  0  8 25 01 13 07 14 18 29 15
  -9324830.44708  -7266096.16008  22253160.10808  22253160.65608
  12247305.91307   9543355.40607  24915486.34807  24915488.01007
 -14685455.51008 -11443203.64608  22459268.57808  22459270.99408
 -14292072.88908 -11136672.56608  22703596.29008  22703598.20908
 -26772071.95109 -20861341.53309  20282330.11009  20282331.05009
  -1643326.48008  -1280513.37107  24911268.27008  24911272.10307
 -18848461.46908 -14687101.16208  21682645.35608  21682645.87108
 -16328745.18008 -12723688.69108  22176165.88008  22176167.25108
 93 07 23 06 51 00.0000000  0  7 25 13 07 14 18 29 15
  -9354223.19708  -7288999.57208  22247566.97708  22247567.34508
 -14825380.56708 -11552236.11708  22432641.76508  22432644.12108
 -14226495.40908 -11085573.27908  22716075.42108  22716077.22208
 -26815012.48109 -20894801.66609  20274158.74909  20274159.67509
  -1877212.67108  -1462762.20408  24866761.34008  24866764.93508
 -19001117.65308 -14806053.95908  21653595.77008  21653596.23808
 -16128336.34308 -12567525.99108  22214302.41808  22214303.81708
 93 07 23 06 52 00.0000000  0  8 25 20 13 07 14 18 29 15
  -9381140.56908  -7309974.12608  22242444.79508  22242445.14208
         0.03817         0.09617  24851294.77317  24851297.10817
 -14963058.40508 -11659517.51008  22406442.55808  22406444.77408
 -14158701.91808 -11032747.23308  22728976.15208  22728977.92708
 -26856269.53409 -20926949.99209  20266307.69409  20266308.62809
  -2110868.24408  -1644831.24207  24822297.83608  24822301.41607
 -19152260.22108 -14923827.31908  21624834.28108  21624834.74308
 -15926658.64508 -12410374.58108  22252680.45208  22252681.87908
 93 07 23 06 53 00.0000000  0  8 25 20 13 07 14 18 29 15
  -9405594.91508  -7329029.43308  22237791.20408  22237791.67808
    -76337.28607    -59483.50507  24836768.21307  24836770.66607
 -15098470.62408 -11765033.48708  22380674.44708  22380676.64708
 -14088661.59308 -10978170.40308  22742304.27508  22742306.10808
 -26895789.43609 -20957744.68909  20258787.22609  20258788.13109
  -2344170.89208  -1826625.28807  24777901.77408  24777905.09807
 -19301934.90908 -15040456.87308  21596352.07808  21596352.48708
 -15723734.58408 -12252251.98908  22291295.66208  22291297.12908
 93 07 23 06 54 00.0000000  0  8 25 20 13 07 14 18 29 15
  -9427570.06608  -7346152.90308  22233609.46708  22233609.90508
   -150501.70507   -117273.93107  24822655.11007  24822657.49507
 -15231551.31508 -11868732.67708  22355349.99008  22355352.16508
 -14016314.22308 -10921795.87408  22756071.60408  22756073.49208
 -26933504.02509 -20987132.64809  20251610.29909  20251611.20509
  -2577025.92008  -2008070.45508  24733590.63508  24733594.07308
 -19450091.27708 -15155903.30408  21568158.74908  21568159.17508
 -15519537.41408 -12093137.37708  22330153.16708  22330154.58608
 93 07 23 06 55 00.0000000  0  8 20 25 13 07 14 18 29 15
   -222526.37807   -173396.99107  24808949.36107  24808951.49707
  -9447138.63308  -7361401.10108  22229885.62908  22229886.04308
 -15362326.33108 -11970635.23908  22330464.24808  22330466.52008
 -13941714.09208 -10863665.94008  22770267.57808  22770269.47008
 -26969506.55609 -21015186.53909  20244759.29609  20244760.19309
  -2809646.69808  -2189333.15708  24689324.26808  24689327.53508
 -19596747.01508 -15270180.43608  21540251.01908  21540251.44908
 -15314133.00408 -11933082.04408  22369240.37008  22369241.83608
 93 07 23 06 56 00.0000000  0  8 20 25 13 07 14 18 29 15
   -292380.93407   -227829.08307  24795656.52907  24795658.53307
  -9464274.94508  -7374754.04708  22226624.69108  22226625.00808
 -15490756.68508 -12070710.78108  22306024.73908  22306027.03008
 -13864810.97608 -10803741.47108  22784901.78008  22784903.68808
 -27003796.38309 -21041905.85709  20238234.23809  20238235.11109
  -3042066.84608  -2370439.50508  24645095.89408  24645099.29108
 -19741842.20008 -15383241.54808  21512640.27608  21512640.67708
 -15107520.64308 -11772085.47908  22408557.45708  22408558.96408
 93 07 23 06 57 00.0000000  0  8 29 20 25 13 07 14 18 15
 -19885322.71608 -15495044.46408  21485336.74508  21485337.15008
   -360011.08807   -280527.88507  24782787.06607  24782788.77507
  -9478948.20908  -7386187.72908  22223832.32508  22223832.66708
 -15616779.27508 -12168910.14708  22282043.34408  22282045.57708
 -13785543.61508 -10741974.72908  22799985.93408  22799987.89208
 -27036281.74609 -21067219.10109  20232052.52309  20232053.42209
  -3274163.73408  -2551294.05108  24600929.40308  24600932.59008
 -14899676.23608 -11610128.85608  22448109.03008  22448110.44408
 93 07 23 06 58 00.0000000  0  8 29 20 25 13 07 14 18 15
 -20027234.82708 -15605625.28808  21458331.77408  21458332.13808
   -425416.60107   -331493.18807  24770340.45207  24770342.88507
  -9491179.21808  -7395718.34808  22221504.95308  22221505.36708
 -15740385.98708 -12265227.01608  22258521.69608  22258524.02108
 -13703967.11008 -10678408.65108  22815509.46608  22815511.34808
 -27066926.77009 -21091098.31409  20226220.88109  20226221.75309
  -3505880.81208  -2731852.57108  24556834.81408  24556837.97708
 -14690630.13508 -11447235.87208  22487889.26408  22487890.67808
 93 07 23 06 59 00.0000000  0  8 29 20 25 13 07 14 18 15
 -20167596.13508 -15714997.67308  21431621.90108  21431622.23108
   -488611.98807   -380736.28007  24758314.84907  24758317.19507
  -9500979.13808  -7403354.61508  22219639.95508  22219640.28408
 -15861581.55108 -12359665.06508  22235458.82808  22235461.20108
 -13620227.33508 -10613156.90908  22831444.65008  22831446.65008
 -27095768.68709 -21113572.50909  20220732.39709  20220733.25509
  -3737232.55408  -2912126.43508  24512810.00008  24512812.96508
 -14480426.44108 -11283440.88408  22527889.74708  22527891.22908
 93 07 23 07 00 00.0000000  0  8 29 20 25 13 07 14 18 15
 -20306354.77908 -15823121.19608  21405216.96308  21405217.27408
   -549568.09107   -428234.50607  24746715.27907  24746717.56307
  -9508318.94908  -7409073.91308  22218243.32508  22218243.66808
 -15980328.65308 -12452195.21408  22212861.88108  22212864.36008
 -13534336.74208 -10546229.20508  22847789.21608  22847791.11808
 -27122847.71009 -21134673.02109  20215579.44909  20215580.34409
  -3968184.96008  -3092089.08308  24468860.76008  24468863.71408
 -14269066.25908 -11118744.73908  22568110.29708  22568111.78708
 93 07 23 07 01 00.0000000  0  8 29 20 25 13 07 14 18 15
 -20443509.14408 -15929994.65708  21379117.29708  21379117.62208
   -608277.00807   -473981.72307  24735543.41807  24735545.44807
  -9513154.82808  -7412842.09308  22217322.97708  22217323.26208
 -16096610.78608 -12542804.61308  22190734.13508  22190736.53908
 -13446253.82808 -10477593.20108  22864550.77008  22864552.69408
 -27148202.13809 -21154429.69309  20210754.56709  20210755.41509
  -4198653.35008  -3271674.61008  24425004.10408  24425006.98308
 -14056570.42808 -10953163.65308  22608546.94108  22608548.52308
 93 07 23 07 02 00.0000000  0  8 29 20 25 13 07 14 18 15
 -20579096.31308 -16035646.93308  21353315.78408  21353316.13408
   -664730.34907   -517971.29107  24724800.50607  24724802.79407
  -9515501.59808  -7414670.70808  22216876.39808  22216876.83708
 -16210411.66208 -12631480.56908  22169078.50208  22169080.92108
 -13355938.94808 -10407218.00008  22881737.12008  22881739.12308
 -27171797.42909 -21172815.60309  20206264.54709  20206265.38709
  -4428619.98008  -3450869.14008  24381242.63108  24381245.60008
 -13842960.19608 -10786714.19508  22649195.64008  22649197.25808
 93 07 23 07 03 00.0000000  0  8 29 20 25 13 07 14 18 15
 -20713094.50608 -16140061.07208  21327816.74008  21327817.09708
   -718920.44207   -560197.25607  24714488.56107  24714490.77607
  -9515431.28008  -7414615.87708  22216889.78308  22216890.18908
 -16321714.39708 -12718209.92308  22147898.33308  22147900.69008
 -13263440.13008 -10335141.03308  22899339.03208  22899341.02908
 -27193606.58309 -21189809.71909  20202114.42209  20202115.24309
  -4658208.14408  -3629768.79908  24337553.29108  24337556.29508
 -13628256.17108 -10619412.45108  22690052.49508  22690054.19108
 93 07 23 07 04 00.0000000  0  8 29 20 25 13 07 14 18 15
 -20845437.86408 -16243185.70208  21302632.60308  21302632.90808
   -770844.34007   -600657.40407  24704607.81607  24704609.85607
  -9512964.47308  -7412693.65508  22217359.17708  22217359.61108
 -16430506.22608 -12802982.73108  22127195.89108  22127198.21808
 -13168859.82408 -10261442.13208  22917336.99508  22917339.01708
 -27213632.85409 -21205414.58109  20198303.50309  20198304.28809
  -4887480.59508  -3808422.42008  24293923.83908  24293926.86308
 -13412484.01308 -10451278.39508  22731112.65808  22731114.36008
 93 07 23 07 05 00.0000000  0  8 29 20 25 13 07 14 18 15
 -20976036.85708 -16344951.06108  21277780.43308  21277780.71408
   -820478.64407   -639333.46007  24695162.70807  24695164.55707
  -9507995.13708  -7408821.40608  22218304.87008  22218305.20608
 -16536755.73208 -12885774.51208  22106977.21808  22106979.54008
 -13072174.24408 -10186102.75908  22935735.72708  22935737.72008
 -27231853.02809 -21219612.09509  20194836.35009  20194837.10509
  -5116354.21608  -3986765.24708  24250370.51408  24250373.49908
 -13195649.17708 -10282316.26508  22772374.98108  22772376.70308
 93 07 23 07 06 00.0000000  0  8 29 20 25 13 07 14 18 15
 -21104923.68308 -16445382.29108  21253254.08208  21253254.32208
   -867819.60707   -676222.50907  24686153.97007  24686155.77307
  -9500474.45308  -7402961.09708  22219735.91508  22219736.22208
 -16640449.72808 -12966574.99508  22087244.84908  22087247.15308
 -12973307.96908 -10109064.14908  22954549.48208  22954551.43608
 -27248258.38909 -21232395.46709  20191714.45509  20191715.27709
  -5344756.16208  -4164740.57108  24206906.76608  24206909.75908
 -12977774.27308 -10112543.68308  22813835.22908  22813836.97308
 93 07 23 07 07 00.0000000  0  8 29 20 25 13 07 14 18 15
 -21232195.38008 -16544554.99908  21229035.00608  21229035.26208
   -912865.24507   -711322.94507  24677582.04307  24677584.09907
  -9490513.16908  -7395199.01608  22221631.45108  22221631.70508
 -16741579.01808 -13045377.01208  22068000.53308  22068002.92708
 -12872239.79208 -10030309.77108  22973782.18608  22973784.15008
 -27262822.29109 -21243743.93609  20188943.03009  20188943.86909
  -5572660.80408  -4342328.36208  24163537.90308  24163540.74908
 -12758886.37108  -9941981.74008  22855488.31208  22855489.99408
 93 07 23 07 08 00.0000000  0  8 29 20 25 13 07 14 18 15
 -21357925.38208 -16642526.37808  21205109.33708  21205109.53108
   -955619.93507   -744638.29807  24669446.09607  24669448.10307
  -9478192.78208  -7385598.68708  22223975.94208  22223976.17708
 -16840137.27008 -13122175.61808  22049245.43208  22049247.87708
 -12769089.54208  -9949933.00808  22993411.11108  22993413.02708
 -27275570.87909 -21253677.87609  20186516.99509  20186517.81109
  -5800022.37708  -4519492.97908  24120272.16608  24120275.15008
 -12539015.96708  -9770654.24208  22897328.35608  22897330.16708
 93 07 23 07 09 00.0000000  0  8 29 20 25 13 07 14 18 15
 -21482098.52108 -16739284.61808  21181479.94008  21181480.13908
   -996050.21607   -776142.34007  24661752.41007  24661754.35007
  -9463386.77408  -7374061.50308  22226793.26608  22226793.62408
 -16936082.38608 -13196938.02008  22030987.69808  22030990.12108
 -12663915.39808  -9867979.19308  23013425.22908  23013427.16208
 -27286450.33209 -21262155.34409  20184446.67409  20184447.50409
  -6026796.92108  -4696200.17408  24077118.37708  24077121.15508
 -12318156.35008  -9598555.89008  22939356.52608  22939358.39108
 93 07 23 07 10 00.0000000  0  8 29 20 25 13 07 14 18 15
 -21604611.80908 -16834749.46108  21158166.35908  21158166.53008
  -1034164.00207   -805841.30807  24654499.40707  24654501.51207
  -9446016.89808  -7360526.49608  22230098.64608  22230098.99108
 -17029413.92108 -13269663.87108  22013227.39508  22013229.76408
 -12556724.24808  -9784453.68708  23033823.05208  23033824.94408
 -27295487.76909 -21269197.47709  20182726.88209  20182727.70209
  -6253040.99008  -4872494.03908  24034065.30608  24034068.04408
 -12096342.07508  -9425713.68308  22981566.44608  22981568.35108
 93 07 23 07 11 00.0000000  0  8 29 20 25 13 07 14 18 15
 -21725330.15708 -16928815.65608  21135194.36108  21135194.53308
  -1069960.36407   -833734.61207  24647687.53207  24647689.64207
  -9426162.93108  -7345055.84108  22233876.75508  22233877.17108
 -17120121.21308 -13340344.85908  21995966.36708  21995968.70308
 -12447471.40508  -9699321.66408  23054613.20908  23054615.13108
 -27302789.22209 -21274886.89709  20181337.42009  20181338.24009
  -6478789.64708  -5048401.88308  23991106.70408  23991109.33608
 -11873598.78908  -9252147.57208  23023953.26008  23023955.08508
 93 07 23 07 12 00.0000000  0  8 29 20 25 13 07 14 18 15
 -21844252.76008 -17021482.56908  21112564.12008  21112564.30008
  -1103431.05607   -859815.66107  24641318.42607  24641320.26107
  -9403855.93708  -7327673.74608  22238121.53108  22238121.96208
 -17208187.39808 -13408967.83708  21979207.87108  21979210.21608
 -12336198.28408  -9612615.40708  23075787.82308  23075789.67708
 -27308454.20209 -21279301.14309  20180259.42509  20180260.20609
  -6704035.20508  -5223917.71308  23948243.74408  23948246.46008
 -11649942.94108  -9077870.33808  23066513.59908  23066515.38608
 93 07 23 07 13 00.0000000  0  8 29 20 25 13 07 14 18 15
 -21961439.32608 -17112796.72908  21090264.20408  21090264.40008
  -1134540.53907   -884056.74807  24635398.60007  24635400.30107
  -9379045.99608  -7308341.29808  22242842.75908  22242843.02308
 -17293567.46308 -13475497.73108  21962960.52008  21962962.94508
 -12222989.66308  -9524400.96608  23097330.75708  23097332.67708
 -27312362.09409 -21282346.23009  20179515.73309  20179516.54809
  -6928776.55808  -5399040.65408  23905476.73608  23905479.30108
 -11425364.36108  -8902874.12808  23109249.50808  23109251.42508
 93 07 23 07 14 00.0000000  0  8 29 20 25 13 07 14 18 15
 -22076951.68008 -17202806.30908  21068282.92608  21068283.10508
  -1163286.13507   -906455.87407  24629928.05807  24629930.39307
  -9351785.22008  -7287099.12008  22248030.30408  22248030.62608
 -17376251.37508 -13539926.71708  21947226.26008  21947228.65208
 -12107884.86408  -9434708.98508  23119234.44408  23119236.51708
 -27314354.85909 -21283899.01209  20179136.41209  20179137.20209
  -7153013.62808  -5573770.66608  23862805.62108  23862808.26708
 -11199886.08808  -8727176.86808  23152156.64008  23152158.62008
 93 07 23 07 15 00.0000000  0  8 29 20 25 13 07 14 18 15
 -22190726.95608 -17291462.32208  21046632.18508  21046632.34708
  -1189647.31707   -926997.00007  24624911.78607  24624914.03607
  -9322135.82908  -7263995.67908  22253672.40608  22253672.65208
 -17456209.18608 -13602231.47208  21932010.83008  21932013.14708
 -11990874.69008  -9343532.29908  23141500.72108  23141502.78808
 -27314393.99909 -21283929.49009  20179129.08809  20179129.87809
  -7376614.93208  -5748005.27108  23820255.62208  23820258.12808
 -10973512.71308  -8550782.09008  23195234.14508  23195236.13708
 93 07 23 07 16 00.0000000  0  8 29 20 25 13 07 14 18 15
 -22302744.03608 -17378748.31108  21025315.96708  21025316.16108
  -1213629.12407   -945684.10708  24620348.16107  24620350.51008
  -9290070.51408  -7239009.71308  22259774.28508  22259774.39908
 -17533435.29308 -13662407.62308  21917315.14808  21917317.44308
 -11871922.87408  -9250842.64708  23164136.44208  23164138.67308
 -27312603.19209 -21282534.03209  20179469.79009  20179470.56309
  -7599547.49408  -5921718.77508  23777832.75208  23777835.23608
 -10746271.83708  -8373711.36208  23238476.68208  23238478.77108
 93 07 23 07 17 00.0000000  0  8 29 20 25 13 07 14 18 15
 -22412982.08308 -17464648.04208  21004338.32308  21004338.49808
  -1235232.00807   -962517.44508  24616237.30707  24616239.39108
  -9255561.83808  -7212119.83108  22266341.01508  22266341.15708
 -17607923.43708 -13720450.30008  21903140.52808  21903142.70808
 -11750964.99408  -9156589.81808  23187153.98208  23187156.21208
 -27309043.75409 -21279760.42209  20180147.13709  20180147.93009
  -7821845.07108  -6094937.49908  23735530.83908  23735533.23308
 -10518189.69808  -8195985.14208  23281879.29508  23281881.40808
 93 07 23 07 18 00.0000000  0  8 20 25 13 07 14 18 29 15
  -1254461.94907   -977501.79508  24612578.04007  24612580.07408
  -9218594.85908  -7183314.38408  22273375.61508  22273375.82308
 -17679669.91408 -13776356.60908  21889487.53308  21889489.81108
 -11628026.04408  -9060793.29408  23210548.56108  23210550.74608
 -27303671.50509 -21275574.23609  20181169.43609  20181170.17209
  -8043504.67708  -6267659.13008  23693350.25308  23693352.76508
 -22521519.43209 -17549222.55608  20983684.38609  20983684.52408
 -10289295.43608  -8017626.08308  23325436.45308  23325438.76508
 93 07 23 07 19 00.0000000  0  8 20 25 13 07 14 18 29 15
  -1271342.20307   -990655.17908  24609365.71507  24609367.86708
  -9179215.87808  -7152629.47108  22280869.14808  22280869.37308
 -17748689.53608 -13830138.09208  21876353.47108  21876355.83408
 -11503228.19008  -8963548.28208  23234296.90508  23234299.07208
 -27296479.29809 -21269969.89709  20182538.07209  20182538.78409
  -8264472.03508  -6439841.35208  23651301.46208  23651303.86808
 -22628448.05209 -17632543.51508  20963336.50209  20963336.60508
 -10059634.46808  -7838669.56208  23369139.56808  23369141.77508
 93 07 23 07 20 00.0000000  0  8 20 25 13 07 14 18 29 15
  -1285826.09207  -1001941.34307  24606609.64407  24606611.56407
  -9137379.79808  -7120029.93008  22288830.35008  22288830.55408
 -17814926.98808 -13881751.65408  21863748.96808  21863751.26708
 -11376608.35408  -8864883.55508  23258391.85408  23258394.00708
 -27287414.87609 -21262906.69509  20184262.97609  20184263.70009
  -8484719.88208  -6611462.94908  23609389.54108  23609391.95308
 -22733703.44309 -17714560.65908  20943307.02309  20943307.11508
  -9829183.08808  -7659097.15908  23412993.06308  23412995.25708
 93 07 23 07 21 00.0000000  0  8 25 20 13 07 14 18 29 15
  -9093093.75608  -7085521.32008  22297257.69008  22297257.97808
  -1297914.53207  -1011360.86607  24604309.28107  24604311.00307
 -17878374.77708 -13931191.45508  21851675.22108  21851677.48908
 -11248143.07308  -8764780.80808  23282838.15708  23282840.34308
 -27276471.86609 -21254379.66309  20186345.33009  20186346.01709
  -8704337.53208  -6782593.47108  23567597.59208  23567599.90408
 -22837177.08709 -17795189.43408  20923616.56309  20923616.68008
  -9597965.03408  -7478927.32608  23456992.44408  23456994.79308
 93 07 23 07 22 00.0000000  0  8 25 20 13 07 14 18 29 15
  -9046385.05508  -7049124.92808  22306146.01708  22306146.35308
  -1307634.16007  -1018934.60107  24602459.60307  24602461.40307
 -17939049.91408 -13978470.75208  21840129.04108  21840131.33208
 -11117851.42808  -8663254.91808  23307632.01508  23307634.12208
 -27263741.87009 -21244460.17709  20188767.78809  20188768.48409
  -8923330.13108  -6953236.93608  23525924.59508  23525926.92408
 -22938817.84009 -17874389.97708  20904274.92509  20904275.02408
  -9366028.80508  -7298197.89208  23501128.53608  23501130.83108
 93 07 23 07 23 00.0000000  0  8 25 20 13 07 14 18 29 15
  -8997259.16408  -7010845.01108  22315494.37708  22315494.68208
  -1314966.06307  -1024647.74407  24601064.32607  24601066.10307
 -17996925.12308 -14023568.29508  21829115.71208  21829118.01908
 -10985755.97108  -8560323.46808  23332769.03008  23332771.12208
 -27249257.19509 -21233173.39709  20191524.13709  20191524.82409
  -9141566.15808  -7123290.85308  23484395.62308  23484397.87508
 -23038591.10309 -17952135.34008  20885288.71609  20885288.79708
  -9133376.98408  -7116910.79608  23545400.69508  23545402.92808
 93 07 23 07 24 00.0000000  0  8 25 20 13 07 14 18 29 15
  -8945770.58108  -6970724.03408  22325292.30208  22325292.60708
  -1319891.39107  -1028485.65407  24600127.20107  24600128.75607
 -18051971.77708 -14066461.77508  21818640.70108  21818642.95808
 -10851848.93108  -8455980.40308  23358250.77108  23358252.91208
 -27232971.97509 -21220483.60109  20194623.06609  20194623.79109
  -9358971.83908  -7292697.78308  23443024.51208  23443026.85108
 -23136544.94409 -18028462.96808  20866648.69809  20866648.77308
  -8900011.93708  -6935067.96408  23589808.66008  23589810.85908
 93 07 23 07 25 00.0000000  0  8 25 20 13 07 14 18 29 15
  -8891881.65208  -6928732.66708  22335546.87408  22335547.20208
  -1322424.32307  -1030459.35207  24599644.93007  24599646.99707
 -18104196.56208 -14107156.40208  21808702.64608  21808704.88608
 -10716173.87008  -8350259.65708  23384068.95508  23384070.97108
 -27214871.52409 -21206379.32709  20198067.45609  20198068.16809
  -9575611.09308  -7461507.49808  23401799.52908  23401801.72608
 -23232718.74509 -18103403.55508  20848347.42209  20848347.45208
  -8665968.25508  -6752696.31108  23634345.77708  23634347.97308
 93 07 23 07 26 00.0000000  0  8 25 20 13 07 14 18 29 15
  -8835551.17308  -6884838.78408  22346266.31808  22346266.59508
  -1322578.90207  -1030579.75207  24599615.22907  24599617.48107
 -18153605.51408 -14145656.87308  21799300.38808  21799302.65008
 -10578833.77808  -8243241.48208  23410203.97808  23410206.14008
 -27194956.79809 -21190861.33609  20201857.00909  20201857.76209
  -9791548.61908  -7629770.39408  23360707.80408  23360709.94508
 -23327074.93309 -18176927.82108  20830392.01209  20830392.04108
  -8431280.87408  -6569823.12008  23679005.36808  23679007.63508
 93 07 23 07 27 00.0000000  0  8 25 20 13 07 14 18 29 15
  -8776799.25108  -6839058.06408  22357446.43108  22357446.76708
  -1320336.46507  -1028832.39407  24600042.25707  24600044.06707
 -18200171.29908 -14181941.88908  21790439.22308  21790441.47308
 -10439823.53208  -8134921.88208  23436656.85808  23436659.03808
 -27173138.11009 -21173859.75009  20206008.93709  20206009.71009
 -10006791.21308  -7797491.75808  23319748.37908  23319750.50808
 -23419569.38609 -18249001.38208  20812790.84009  20812790.86108
  -8195950.10608  -6386448.54308  23723787.41708  23723789.64508
 93 07 23 07 28 00.0000000  0  8 25 20 13 07 14 18 29 15
  -8715713.02708  -6791458.41308  22369070.73808  22369071.04208
  -1315721.01207  -1025235.92207  24600920.60507  24600922.34207
 -18243909.81908 -14216023.84708  21782116.06808  21782118.21008
 -10299059.18108  -8025235.44908  23463443.53608  23463445.65908
 -27149438.48609 -21155392.51109  20210518.94409  20210519.64509
 -10221359.00808  -7964687.33808  23278917.46608  23278919.58008
 -23510289.99209 -18319692.73108  20795527.21809  20795527.31208
  -7960020.27608  -6202607.13008  23768683.36508  23768685.61108
 93 07 23 07 29 00.0000000  0  8 25 20 13 07 14 18 29 15
  -8652280.70308  -6742030.62708  22381141.55208  22381141.90508
  -1308724.91207  -1019784.37407  24602251.96207  24602253.73307
 -18284805.01008 -14247890.22508  21774333.98108  21774336.11608
 -10156539.48408  -7914181.21908  23490564.15908  23490566.34308
 -27123971.84909 -21135548.35909  20215365.02709  20215365.69909
 -10435185.65508  -8131305.38808  23238227.50808  23238229.57508
 -23599257.67209 -18389018.16208  20778597.21909  20778597.33408
  -7723502.98208  -6018308.02708  23813691.08208  23813693.40908
 93 07 23 07 30 00.0000000  0  8 20 25 13 07 14 18 29 15
  -1299330.48107  -1012463.99907  24604039.58707  24604041.22407
  -8586512.25908  -6690782.49108  22393656.74508  22393657.06608
 -18322830.46608 -14277520.44108  21767097.94308  21767100.11308
 -10012404.65708  -7801868.43308  23517992.10208  23517994.37008
 -27096768.74109 -21114351.10209  20220541.61209  20220542.29109
 -10648158.35408  -8297258.01408  23197700.10608  23197702.12408
 -23686405.47309 -18456925.51008  20762013.54409  20762013.63108
  -7486399.45908  -5833552.08708  23858810.48708  23858812.79008
 93 07 23 07 31 00.0000000  0  8 20 25 13 07 14 18 29 15
  -1287532.07107  -1003270.42007  24606284.75507  24606286.62307
  -8518442.62108  -6637741.21808  22406610.04008  22406610.35108
 -18357973.22808 -14304904.39908  21760410.43908  21760412.67008
  -9866696.24608  -7688329.47008  23545719.58608  23545721.95108
 -27067741.88409 -21091732.75809  20226065.24709  20226065.93409
 -10860189.25508  -8462476.76208  23157351.83308  23157353.78808
 -23771754.25909 -18523431.02608  20745772.26509  20745772.28808
  -7248722.03108  -5648348.93008  23904038.95208  23904041.38508
 93 07 23 07 32 00.0000000  0  8 20 25 13 07 14 18 29 15
  -1273318.72507   -992195.05508  24608989.17507  24608991.44808
  -8448042.67008  -6582884.11108  22420006.79108  22420007.02008
 -18390215.54508 -14330028.26308  21754274.90908  21754277.21508
  -9719395.53308  -7573549.76108  23573749.95508  23573752.43408
 -27036783.59609 -21067609.40809  20231956.38509  20231957.10209
 -11071294.76808  -8626974.45708  23117179.70808  23117181.63108
 -23855322.03009 -18588548.72508  20729869.76309  20729869.74008
  -7010476.99208  -5462703.52708  23949375.55608  23949377.98108
 93 07 23 07 33 00.0000000  0  8 20 25 13 07 14 18 29 15
  -1256708.14107   -979251.65807  24612150.22207  24612152.12007
  -8375315.98708  -6526213.96208  22433846.17208  22433846.42008
 -18419566.31108 -14352898.97008  21748689.61408  21748691.92408
  -9570529.55608  -7457550.35408  23602078.26808  23602080.63208
 -27003889.32009 -21041977.49209  20238215.89209  20238216.64009
 -11281587.32208  -8790838.66908  23077162.41108  23077164.14408
 -23937068.00009 -18652246.85608  20714313.98609  20714313.94208
  -6771700.32808  -5276643.88208  23994813.27008  23994815.75208
 93 07 23 07 34 00.0000000  0  8 20 25 13 07 14 18 29 15
  -1237721.85007   -964457.07908  24615763.04407  24615765.18008
  -8300306.66908  -6467765.13708  22448120.01808  22448120.24008
 -18446038.89208 -14373526.93508  21743652.07808  21743654.29608
  -9420186.26808  -7340399.81308  23630687.60208  23630690.05408
 -26969175.72609 -21014927.94409  20244821.63309  20244822.40909
 -11491120.33808  -8954111.03008  23037289.62508  23037291.24408
 -24016941.59509 -18714486.04809  20699114.50509  20699114.45509
  -6532430.45508  -5090199.89808  24040344.83208  24040347.32508
 93 07 23 07 35 00.0000000  0  8 13 20 25 07 14 18 29 15
 -18469593.62808 -14391881.26108  21739169.74908  21739171.96008
  -1216327.18507   -947785.90408  24619834.53707  24619836.53108
  -8223013.83808  -6407536.94908  22462828.32008  22462828.62908
  -9268328.21208  -7222068.93108  23659585.21608  23659587.64308
 -26932749.26009 -20986543.68009  20251753.37209  20251754.11009
 -11699756.78108  -9116684.77108  22997587.40108  22997588.96608
 -24094951.90709 -18775273.26609  20684269.65509  20684269.58609
  -6292650.76008  -4903358.61708  24085973.46708  24085975.87908
 93 07 23 07 36 00.0000000  0  8 13 20 25 07 14 18 29 15
 -18490213.81608 -14407948.92708  21735245.84908  21735248.07408
  -1192515.28807   -929231.15407  24624365.72307  24624367.75307
  -8143370.50008  -6345477.20708  22477983.99408  22477984.31908
  -9114905.40708  -7102518.75908  23688780.61308  23688783.04308
 -26894621.23209 -20956833.51809  20259008.89009  20259009.64609
 -11907409.59808  -9278492.07408  22958072.34608  22958073.75408
 -24171124.05809 -18834628.10609  20669774.58209  20669774.52109
  -6052369.29908  -4716126.30208  24131697.35008  24131699.95508
 93 07 23 07 37 00.0000000  0  8 13 20 25 07 14 18 29 15
 -18507895.32808 -14421726.71608  21731881.17208  21731883.45708
  -1166290.65207   -908796.36007  24629355.79407  24629357.75507
  -8061342.96608  -6281559.65508  22493593.19308  22493593.52108
  -8959884.81208  -6981723.54408  23718280.13108  23718282.62208
 -26854688.90509 -20925717.42009  20266607.78809  20266608.51609
 -12114119.00908  -9439564.26108  22918736.86608  22918738.23108
 -24245384.11509 -18892493.05709  20655643.33809  20655643.29709
  -5811605.76308  -4528518.33408  24177513.20608  24177515.79108
 93 07 23 07 38 00.0000000  0  8 13 20 25 07 14 18 29 15
 -18522673.07208 -14433241.83308  21729069.08908  21729071.25408
  -1137696.00107   -886514.80407  24634797.25507  24634799.15107
  -7977029.65808  -6215860.96508  22509637.50108  22509637.72208
  -8803403.24808  -6859789.91508  23748057.57808  23748060.04908
 -26812842.69209 -20893109.98009  20274570.91509  20274571.61409
 -12319998.60208  -9599989.89408  22879559.24908  22879560.62308
 -24317716.49209 -18948855.92109  20641878.88109  20641878.83609
  -5570417.88208  -4340579.71208  24223409.71108  24223412.14108
 93 07 23 07 39 00.0000000  0  8 13 20 25 07 14 18 29 15
 -18534544.81308 -14442492.53308  21726809.96808  21726812.09208
  -1106734.68307   -862389.09307  24640689.23707  24640690.61707
  -7890498.64708  -6148434.19208  22526103.76008  22526104.12408
  -8645600.02708  -6736826.42408  23778086.68608  23778089.08608
 -26769102.79109 -20859026.93809  20282894.39909  20282895.06609
 -12525062.02808  -9759779.52908  22840536.89108  22840538.29108
 -24388229.35609 -19003800.98509  20628460.62309  20628460.59609
  -5328824.31208  -4152325.06408  24269383.60908  24269385.90208
 93 07 23 07 40 00.0000000  0  8 13 20 25 07 14 18 29 15
 -18543480.28108 -14449455.22508  21725109.58508  21725111.71108
  -1073383.11107   -836400.88607  24647035.70907  24647037.34407
  -7801773.00508  -6079297.32108  22542987.84308  22542987.98908
  -8486406.94308  -6612779.92808  23808380.16608  23808382.69108
 -26723499.70709 -20823492.07809  20291572.35809  20291573.07709
 -12729205.43608  -9918852.27108  22801689.68508  22801691.05708
 -24456989.72209 -19057380.46809  20615375.97709  20615375.94709
  -5086816.59408  -3963747.65408  24315436.21808  24315438.54008
 93 07 23 07 41 00.0000000  0  8 13 20 25 07 14 18 29 15
 -18549467.23008 -14454120.36308  21723970.26508  21723972.42708
  -1037636.36507   -808546.32107  24653838.05907  24653839.90207
  -7710786.11908  -6008398.45108  22560301.98608  22560302.26108
  -8325711.85608  -6487563.02608  23838959.61908  23838962.09508
 -26676032.15309 -20786504.37809  20300605.04809  20300605.76809
 -12932313.85808 -10077118.53408  22763039.36508  22763040.78008
 -24523912.55509 -19109528.10609  20602640.99509  20602640.94309
  -4844403.73708  -3774854.56808  24361565.84808  24361568.32408
 93 07 23 07 42 00.0000000  0  8 13 20 25 07 14 18 29 15
 -18552546.39808 -14456519.69308  21723384.34408  21723386.44008
   -999543.06507   -778863.28107  24661086.95707  24661088.82107
  -7617542.53708  -5935741.11508  22578045.69908  22578046.02408
  -8163548.20108  -6361201.80508  23869818.36608  23869820.86008
 -26626693.07409 -20748058.33409  20309994.00009  20309994.67609
 -13134416.48608 -10234601.06108  22724580.50408  22724581.95108
 -24588912.48609 -19160177.37709  20590271.96409  20590271.89109
  -4601647.84608  -3585694.17808  24407760.95008  24407763.19508
 93 07 23 07 43 00.0000000  0  8 13 20 25 07 14 18 29 15
 -18552753.61608 -14456681.14008  21723344.94808  21723346.98408
   -959144.08108   -747383.59307  24668774.97308  24668776.52407
  -7522126.78508  -5861391.17708  22596202.67408  22596203.02108
  -8000043.96308  -6233795.97608  23900932.24208  23900934.77808
 -26575568.20609 -20708220.75609  20319722.72509  20319723.36409
 -13335548.66808 -10391327.37608  22686306.22108  22686307.62208
 -24652030.40209 -19209360.17309  20578260.99409  20578260.91109
  -4358602.62608  -3396308.32708  24454010.81308  24454013.06108
 93 07 23 07 44 00.0000000  0  8 13 20 25 07 14 18 29 15
 -18550068.42408 -14454588.75708  21723855.84808  21723857.87508
   -916426.26908   -714096.99407  24676903.87108  24676905.67507
  -7424608.15908  -5785402.63308  22614759.85308  22614760.08308
  -7835281.74908  -6105409.90308  23932285.51708  23932287.99608
 -26522705.43709 -20667028.97909  20329782.08709  20329782.77309
 -13535684.20908 -10547277.04808  22648221.51808  22648222.97808
 -24713329.55009 -19257125.72609  20566596.17509  20566596.05009
  -4115267.65808  -3206696.72508  24500316.04808  24500318.20808
 93 07 23 07 45 00.0000000  0  7 13 25 07 18 14 29 15
 -18544479.49008 -14450233.72108  21724919.31108  21724921.43908
  -7324948.17808  -5707745.52708  22633724.47808  22633724.78008
  -7669297.81808  -5976071.84708  23963871.37808  23963873.74908
 -13734833.24608 -10702458.03208  22610324.69608  22610326.17108
 -26468082.99709 -20624466.03309  20340176.42609  20340177.13309
 -24772768.94109 -19303442.16009  20555285.29609  20555285.12009
  -3871651.96208  -3016866.37008  24546674.59208  24546677.02208
 93 07 23 07 46 00.0000000  0  8 13 25 07 24 14 18 29 15
 -18535941.39108 -14443580.63808  21726544.05008  21726546.17508
  -7223014.13908  -5628316.42008  22653121.89108  22653122.26808
  -7502060.88708  -5845757.43908  23995695.59408  23995698.00908
        -0.24417        -0.04517  25481033.87417  25481038.06317
 -26411630.38609 -20580476.96509  20350918.94309  20350919.69609
 -13932981.43208 -10856859.06108  22572618.14908  22572619.63908
 -24830239.30209 -19348224.27509  20544349.01609  20544348.88909
  -3627727.70308  -2826795.58908  24593091.89608  24593094.27308
 93 07 23 07 47 00.0000000  0  8 13 25 07 24 14 18 29 15
 -18524482.95108 -14434651.96808  21728724.53908  21728726.65708
  -7118871.20308  -5547166.09808  22672939.70208  22672939.96408
  -7333591.43708  -5714482.61908  24027754.28908  24027756.66008
   -216896.83807   -169010.22707  25439759.81007  25439764.14507
 -26353387.74909 -20535093.10209  20362002.07109  20362002.86109
 -14130155.80808 -11010501.29808  22535096.91308  22535098.40508
 -24885823.10809 -19391536.34209  20533771.74809  20533771.70409
  -3383541.35408  -2636520.56308  24639559.05108  24639561.44608
 93 07 23 07 48 00.0000000  0  8 13 25 24 07 14 18 29 15
 -18510093.84908 -14423439.66908  21731462.78908  21731464.81508
  -7012642.84908  -5464390.76908  22693154.31908  22693154.60208
   -433230.67807   -337581.94607  25398592.64607  25398596.73507
  -7163941.14508  -5582287.66408  24060037.62008  24060040.14108
 -26293357.99109 -20488316.66309  20373425.44809  20373426.22109
 -14326293.61708 -11163335.86308  22497773.06808  22497774.51908
 -24939585.48409 -19433429.07209  20523541.00809  20523540.97209
  -3139099.72108  -2446046.73707  24686074.86908  24686077.14407
 93 07 23 07 49 00.0000000  0  8 25 13 24 07 14 18 29 15
  -6904380.64708  -5380030.59608  22713755.94808  22713756.16108
 -18492764.84908 -14409936.54108  21734760.42808  21734762.42808
   -649025.11107   -505733.34407  25357528.07307  25357532.37307
  -6993151.32808  -5449204.77508  24092537.85708  24092540.40208
 -26231513.11409 -20440125.86609  20385194.16509  20385194.90809
 -14521327.29808 -11315310.02208  22460659.35408  22460660.74608
 -24991506.79609 -19473887.17609  20513660.75009  20513660.67209
  -2894408.01908  -2255378.02107  24732638.42608  24732640.67707
 93 07 23 07 50 00.0000000  0  8 25 13 24 07 14 18 29 15
  -6794007.96208  -5294025.90308  22734759.14208  22734759.39408
 -18472493.07508 -14394140.34208  21738617.96008  21738620.05208
   -864387.05107   -673547.62107  25316546.08307  25316550.05707
  -6821198.19008  -5315215.39308  24125259.40208  24125262.12108
 -26167822.00809 -20390496.42309  20397314.12609  20397314.84909
 -14715202.87408 -11466381.80308  22423765.99208  22423767.36408
 -25041495.98309 -19512839.74809  20504148.10109  20504147.97209
  -2649480.45707  -2064525.51307  24779246.46907  24779249.19907
 93 07 23 07 51 00.0000000  0  8 25 13 24 07 14 18 29 15
  -6681457.23008  -5206324.02408  22756176.76608  22756177.14108
 -18449282.82008 -14376054.41908  21743034.68208  21743036.73108
  -1079357.19007   -841056.66007  25275638.45707  25275642.42707
  -6648020.47308  -5180271.79808  24158214.12608  24158216.91708
 -26102392.64509 -20339512.49409  20409764.94609  20409765.72709
 -14907903.81208 -11616538.24408  22387096.10208  22387097.48808
 -25089583.52609 -19550310.51309  20494997.31209  20494997.17309
  -2404336.21908  -1873504.14607  24825896.19408  24825898.61407
 93 07 23 07 52 00.0000000  0  8 25 13 24 07 14 18 29 15
  -6566727.00908  -5116923.84108  22778009.23508  22778009.58708
 -18423145.73408 -14355687.84408  21748008.36508  21748010.43408
  -1293801.35707  -1008155.85907  25234830.68407  25234835.01407
  -6473607.07608  -5044365.33108  24191403.83708  24191406.68108
 -26035256.88209 -20287198.92109  20422540.47209  20422541.26609
 -15099484.91808 -11765822.00408  22350639.41108  22350640.66808
 -25135835.06409 -19586350.60809  20486195.86909  20486195.73209
  -2159002.20007  -1682334.87307  24872581.59207  24872584.05607
 93 07 23 07 53 00.0000000  0  8 25 13 24 07 14 18 29 15
  -6449900.82708  -5025890.43808  22800240.53908  22800240.91408
 -18394090.17108 -14333047.13308  21753537.48008  21753539.49508
  -1507520.34307  -1174689.93307  25194161.17507  25194165.60407
  -6298040.62508  -4907560.39308  24224813.16408  24224815.93308
 -25966344.34209 -20233500.84909  20435654.09109  20435654.85809
 -15290002.78708 -11914277.28708  22314384.88208  22314386.20508
 -25180235.69109 -19620948.48909  20477746.67009  20477746.54009
  -1913502.04307  -1491036.20607  24919298.97807  24919301.20707
 93 07 23 07 54 00.0000000  0  8 25 13 24 07 14 18 29 15
  -6331063.21708  -4933289.71308  22822854.73808  22822854.96608
 -18362129.87308 -14308142.99308  21759619.34808  21759621.35508
  -1720517.08807  -1340661.27707  25153629.28507  25153633.17907
  -6121450.71108  -4769957.94508  24258417.26208  24258419.98908
 -25895598.14009 -20178373.93409  20449116.68209  20449117.42009
 -15479418.86408 -12061874.08808  22278340.05008  22278341.39808
 -25222653.74709 -19654001.51509  20469674.72009  20469674.60609
  -1667862.35607  -1299628.73407  24966042.64007  24966044.99107
 93 07 23 07 55 00.0000000  0  8 25 13 07 24 14 18 29 15
  -6210276.07008  -4839169.83108  22845839.71208  22845839.84508
 -18327302.37708 -14281004.67308  21766246.72708  21766248.77708
  -5943892.20908  -4631600.76508  24292205.57808  24292208.23208
  -1932945.14207  -1506189.51907  25113205.51507  25113209.15207
 -25823038.17109 -20121833.70108  20462924.22709  20462924.93608
 -15667699.24708 -12208585.94408  22242511.36908  22242512.68708
 -25263102.86609 -19685520.29109  20461977.55209  20461977.38609
  -1422134.41307  -1108152.49607  25012803.16507  25012805.71407
 93 07 23 07 56 00.0000000  0  8 25 13 07 24 14 18 29 15
  -6087527.45808  -4743521.53008  22869197.86108  22869198.00608
 -18289591.34808 -14251619.44508  21773422.93808  21773424.89508
  -5765311.10308  -4492446.74608  24326188.45408  24326191.21708
  -2144803.33307  -1671273.67508  25072890.15907  25072893.90208
 -25748685.70809 -20063896.71108  20477073.02809  20477073.68108
 -15854806.10008 -12354383.30608  22206905.93008  22206907.23308
 -25301679.10709 -19715579.69009  20454636.73209  20454636.58609
  -1176312.99007   -916603.25707  25059581.29507  25059583.89707
 93 07 23 07 57 00.0000000  0  8 25 13 24 07 14 18 29 15
  -5962790.43808  -4646323.82408  22892934.45708  22892934.73808
 -18248995.24008 -14219986.11208  21781148.16008  21781150.01608
  -2356034.15607  -1835868.98808  25032694.12207  25032698.11408
  -5585695.51708  -4352486.63808  24360368.08908  24360370.85108
 -25672573.18009 -20004588.22308  20491556.78509  20491557.44108
 -16040792.09608 -12499307.34708  22171513.92108  22171515.16908
 -25338482.14709 -19744257.35609  20447633.33509  20447633.20309
   -930408.48707   -724989.40807  25106375.39707  25106378.00507
 93 07 23 07 58 00.0000000  0  8 25 13 18 24 07 14 29 15
  -5836008.75408  -4547532.90508  22917060.26108  22917060.51708
 -18205464.95208 -14186066.41008  21789431.65808  21789433.48408
 -16225648.96808 -12643351.54908  22136336.73108  22136337.89708
  -2566563.28708  -1999917.49408  24992631.67108  24992635.66208
  -5405046.32408  -4211721.12808  24394744.64408  24394747.30808
 -25594658.22409 -19943875.27008  20506383.58009  20506384.28308
 -25373414.96909 -19771477.71309  20440985.86009  20440985.73309
   -684384.38507   -533282.31707  25153192.30607  25153194.71307
 93 07 23 07 59 00.0000000  0  8 25 13 18 24 07 14 29 15
  -5707250.00208  -4447201.40408  22941562.21708  22941562.45208
 -18159037.80308 -14149889.41408  21798266.48208  21798268.44008
 -16409291.06208 -12786449.13608  22101390.72708  22101391.87808
  -2776343.64908  -2163382.55908  24952711.74808  24952715.69708
  -5223513.05208  -4070266.71808  24429289.35908  24429291.98408
 -25514918.55109 -19881740.44008  20521557.49209  20521558.20308
 -25406418.23209 -19797194.51709  20434705.51209  20434705.35009
   -438287.50407   -341518.58207  25200022.97007  25200025.63507
 93 07 23 08 00 00.0000000  0  8 25 13 18 24 07 14 29 15
  -5576536.43908  -4345346.64308  22966436.14408  22966436.44508
 -18109753.58108 -14111486.12708  21807644.96208  21807646.89508
 -16591649.56908 -12928546.54808  22066688.98208  22066690.06508
  -2985310.78008  -2326213.91208  24912946.73708  24912950.05808
  -5041158.93808  -3928172.69308  24463990.15208  24463992.92708
 -25433399.14309 -19818218.79808  20537070.16709  20537070.84208
 -25437508.63009 -19821420.78209  20428789.22009  20428789.01309
   -192169.35507   -149738.12607  25246857.74007  25246860.35807
 93 07 23 08 01 00.0000000  0  8 25 13 18 24 07 14 29 15
  -5443873.18508  -4241972.64108  22991681.09308  22991681.41608
 -18057635.02408 -14070874.27108  21817562.82208  21817564.77008
 -16772749.92108 -13069663.58808  22032226.61208  22032227.67008
  -3193454.49108  -2488403.65808  24873338.23008  24873341.52608
  -4857936.74608  -3785402.25208  24498856.15808  24498859.07208
 -25350126.22309 -19753330.79008  20552916.46609  20552917.16208
 -25466706.10809 -19844172.04909  20423233.10309  20423232.89009
     53939.48307     42035.04307  25293690.43007  25293693.28607
 93 07 23 08 02 00.0000000  0  8 25 13 18 24 07 14 29 15
  -5309311.23508  -4137119.15708  23017287.41608  23017287.63608
 -18002688.69908 -14028058.95908  21828018.67208  21828020.73008
 -16952603.70808 -13209809.26108  21998001.45808  21998002.49708
  -3400843.21008  -2650005.07408  24833873.25708  24833876.57508
  -4673750.21408  -3641880.37208  24533905.70708  24533908.71508
 -25265121.49609 -19687093.33008  20569092.32709  20569092.96508
 -25494017.52009 -19865453.67409  20418035.91709  20418035.74209
    300022.45807    233788.12507  25340518.69707  25340521.15607
 93 07 23 08 03 00.0000000  0  8 25 13 18 24 07 14 29 15
  -5172904.24008  -4030827.95508  23043244.64508  23043245.02008
 -17944921.95708 -13983045.91808  21839011.31408  21839013.39008
 -17131233.61908 -13349001.28408  21964009.27708  21964010.21408
  -3607527.83708  -2811057.82108  24794542.31008  24794545.59808
  -4488602.67408  -3497609.64808  24569138.24608  24569141.26908
 -25178392.72109 -19619512.48508  20585596.27709  20585596.98408
 -25519445.59509 -19885267.73009  20413197.04309  20413196.90109
    546065.44207    425509.87307  25387339.05307  25387341.62107
 93 07 23 08 04 00.0000000  0  8 25 13 18 24 07 14 29 15
  -5034675.70508  -3923117.36108  23069548.69608  23069548.97908
 -17884352.18608 -13935848.70008  21850537.39608  21850539.41608
 -17308672.38608 -13487265.16608  21930243.68608  21930244.60108
  -3813539.45408  -2971586.14708  24755339.14908  24755342.57508
  -4302649.06808  -3352710.83308  24604524.19908  24604527.16208
 -25089979.43109 -19550619.02508  20602420.75309  20602421.44108
 -25543037.35809 -19903650.92909  20408707.70909  20408707.55409
    792044.15807    617181.69907  25434147.16707  25434149.55607
 93 07 23 08 05 00.0000000  0  7 25 13 18 24 07 14 29
  -4894519.94808  -3813905.03708  23096219.44508  23096219.73408
 -17820936.49808 -13886433.88808  21862604.99608  21862607.05208
 -17484906.02108 -13624589.99308  21896707.49708  21896708.37608
  -4018761.94008  -3131499.58208  24716286.62008  24716289.70908
  -4115962.55208  -3207240.93808  24640049.35508  24640052.59208
 -24999858.05309 -19480394.56008  20619570.25009  20619570.91808
 -25564701.39209 -19920531.98609  20404585.21709  20404585.03109
 93 07 23 08 06 00.0000000  0  7 25 13 18 24 07 14 29
  -4752418.30108  -3703176.45108  23123260.50008  23123260.72608
 -17754677.46708 -13834803.48508  21875213.69808  21875215.73908
 -17659855.86608 -13760914.44408  21863415.64008  21863416.44708
  -4223082.15708  -3290709.94708  24677405.61908  24677408.88308
  -3928564.31408  -3061216.44408  24675710.20708  24675713.21108
 -24907987.25409 -19408806.91008  20637052.72409  20637053.37208
 -25584441.72909 -19935914.01809  20400828.68609  20400828.49209
 93 07 23 08 07 00.0000000  0  7 25 13 24 07 14 18 29
  -4608482.40808  -3591018.60208  23150650.54208  23150650.88508
 -17685591.01308 -13780969.89608  21888360.37508  21888362.49208
  -4426410.95808  -3449147.78808  24638713.52308  24638716.41608
  -3740335.73508  -2914545.04007  24711529.09808  24711532.21307
 -24814379.91009 -19335866.11108  20654865.55309  20654866.21108
 -17833434.43908 -13896170.38508  21830384.58508  21830385.41808
 -25602312.75909 -19949839.50909  20397427.92309  20397427.75909
 93 07 23 08 08 00.0000000  0  7 13 25 18 24 07 14 29
 -17613780.06308 -13725013.32708  21902025.57608  21902027.58508
  -4462862.58108  -3477548.57708  23178361.08008  23178361.42908
 -18005770.40608 -14030458.07108  21797589.96708  21797590.84408
  -4628785.20808  -3606841.84408  24600202.83208  24600205.72008
  -3551339.04207  -2767275.08607  24747494.16107  24747497.36207
 -24719140.69409 -19261653.72808  20672988.95609  20672989.64708
 -25618404.93909 -19962378.84009  20394365.68109  20394365.52009
 93 07 23 08 09 00.0000000  0  7 25 13 24 07 14 18 29
  -4316764.69408  -3363706.05508  23206162.59308  23206162.71908
 -17540435.89008 -13667862.04208  21915982.58608  21915984.48808
  -4831427.50808  -3764744.75707  24561641.23008  24561643.76407
  -3362846.68207  -2620398.14507  24783363.21507  24783366.47607
 -24623411.80209 -19187059.75108  20691205.56409  20691206.26508
 -18178026.81208 -14164683.77708  21764810.66508  21764811.54608
 -25633823.13209 -19974393.05509  20391431.72809  20391431.58509
 93 07 23 08 10 00.0000000  0  7 13 25 18 24 07 14 29
 -17465037.54208 -13609110.10808  21930330.42308  21930332.34808
  -4169622.88308  -3249050.08008  23234162.73408  23234162.82008
 -18349629.38008 -14298400.00208  21732155.73008  21732156.59908
  -5033833.72108  -3922463.72308  24523124.37408  24523126.96808
  -3174452.25508  -2473597.55107  24819213.98008  24819217.04107
 -24526618.64809 -19111636.50608  20709624.68709  20709625.43508
 -25648036.40809 -19985468.31009  20388727.00609  20388726.83609
 93 07 23 08 11 00.0000000  0  7 13 25 24 07 14 18 29
 -17385337.19908 -13547005.97008  21945496.89108  21945498.83208
  -4019119.37108  -3131774.56308  23262802.44308  23262802.60208
  -5233778.53708  -4078264.73908  24485076.02008  24485078.79008
  -2983951.15707  -2325155.42407  24855465.40207  24855468.60007
 -24426537.01109 -19033650.83108  20728669.57809  20728670.29808
 -18518305.44308 -14429835.82208  21700057.73408  21700058.62008
 -25658832.71609 -19993881.04609  20386672.55909  20386672.35309
 93 07 23 08 12 00.0000000  0  7 13 25 18 24 07 14 29
 -17302115.67108 -13482158.05408  21961333.39608  21961335.39108
  -3866039.92208  -3012491.83508  23291932.45408  23291932.63908
 -18684897.57908 -14559647.81608  21668356.25708  21668357.08508
  -5432055.86108  -4232766.40808  24447345.10208  24447347.62308
  -2792098.76607  -2175660.27307  24891973.63607  24891977.13107
 -24323989.75509 -18953743.88408  20748183.71609  20748184.43308
 -25667017.77509 -20000258.97509  20385115.01609  20385114.76509
 93 07 23 08 13 00.0000000  0  7 13 25 24 07 14 18 29
 -17215968.68408 -13415030.56008  21977726.62608  21977728.68608
  -3711068.24308  -2891734.66008  23321422.54108  23321422.60708
  -5629232.98508  -4386410.78108  24409823.41708  24409825.98108
  -2599442.81107  -2025538.95007  24928634.88707  24928638.46407
 -24219547.51909 -18872360.32908  20768058.40709  20768059.05508
 -18849987.09908 -14688288.94308  21636940.62408  21636941.45308
 -25673140.34909 -20005029.79009  20383949.94009  20383949.70009
 93 07 23 08 14 00.0000000  0  7 13 18 25 24 07 14 29
 -17127110.13608 -13345790.16108  21994635.91308  21994637.92708
 -19013654.14508 -14815821.64908  21605795.80108  21605796.55108
  -3554515.13308  -2769745.19208  23351213.60808  23351213.63608
  -5825453.86508  -4539310.01808  24372483.69108  24372486.20508
  -2406160.23407  -1874929.38107  24965415.48207  24965419.02307
 -24113411.79309 -18789657.15708  20788255.28209  20788255.90308
 -25677361.73909 -20008319.17409  20383146.63009  20383146.39709
 93 07 23 08 15 00.0000000  0  7 13 24 25 07 14 18 29
 -17035613.66808 -13274494.24708  22012047.16608  22012049.26208
  -6020687.63608  -4691440.08508  24335331.76608  24335334.44208
  -3396414.13908  -2646549.59108  23381299.22108  23381299.41608
  -2212324.44107  -1723888.77107  25002301.43507  25002305.15707
 -24005659.37909 -18705694.27908  20808760.00009  20808760.69308
 -19175899.62408 -14942246.64508  21574921.48008  21574922.25108
 -25679792.22309 -20010212.97709  20382684.01809  20382683.78109
 93 07 23 08 16 00.0000000  0  7 13 18 25 24 07 14 29
 -16941539.16408 -13201189.47608  22029948.99408  22029951.07308
 -19336819.06608 -15067638.35108  21544299.48408  21544300.18908
  -3236702.42908  -2522098.88008  23411691.32808  23411691.46008
  -6214912.93908  -4842784.32708  24298371.91308  24298374.40008
  -2018043.36007  -1572501.15807  25039272.03907  25039275.90607
 -23896333.28809 -18620505.12508  20829564.06709  20829564.75608
 -25680520.54509 -20010780.49309  20382545.41509  20382545.21009
 93 07 23 08 17 00.0000000  0  8 13 18 25 24 07 14 29 22
 -16844975.08108 -13125944.77308  22048324.47408  22048326.68108
 -19496594.55508 -15192138.66208  21513895.17208  21513895.88608
  -3075520.84208  -2396502.83308  23442363.08408  23442363.36608
  -6408165.51808  -4993370.59708  24261596.85608  24261599.49408
  -1823469.58607  -1420885.34707  25076298.36107  25076302.14307
 -23785531.87909 -18534166.37908  20850648.88509  20850649.60608
 -25679588.17509 -20010053.97909  20382722.81709  20382722.61209
         0.10017         0.46917  24698748.89817  24698749.63817
 93 07 23 08 18 00.0000000  0  8 13 18 25 24 07 14 29 22
 -16745848.55408 -13048703.37108  22067187.66708  22067189.93308
 -19655127.62508 -15315670.85608  21483727.31708  21483728.00408
  -2912838.32008  -2269737.24008  23473320.51708  23473320.84808
  -6600393.91908  -5143158.77008  24225016.86508  24225019.61508
  -1628545.52807  -1268996.62307  25113391.43107  25113395.13507
 -23673210.04709 -18446642.86808  20872022.98409  20872023.66108
 -25676852.76109 -20007922.47109  20383243.36809  20383243.14209
   -160976.14607   -125435.50307  24668116.19907  24668116.74207
 93 07 23 08 19 00.0000000  0  8 13 18 24 25 07 14 29 22
 -16644117.95908 -12969432.81708  22086546.44708  22086548.63708
 -19812255.03708 -15438107.73908  21453826.93308  21453827.61108
  -6791563.69508  -5292122.04808  24188638.25308  24188640.87808
  -2748562.17908  -2141729.87008  23504581.20708  23504581.42008
  -1433203.96907  -1116782.60707  25150563.90407  25150567.54107
 -23559303.02309 -18357884.15008  20893698.81309  20893699.47408
 -25672255.02809 -20004339.80709  20384118.19809  20384118.01809
   -320883.86707   -250038.86407  24637686.71807  24637687.38607
 93 07 23 08 20 00.0000000  0  8 18 13 24 25 07 14 29 22
 -19967861.12208 -15559359.17408  21424216.00108  21424216.69608
 -16539783.96508 -12888133.64008  22106400.58408  22106402.86308
  -6981573.25208  -5440181.26108  24152480.54308  24152483.02208
  -2582655.82008  -2012452.21408  23536152.25408  23536152.32608
  -1237386.82707   -964197.87607  25187826.29107  25187830.43407
 -23443738.56309 -18267833.97808  20915689.99709  20915690.64008
 -25665791.60909 -19999303.34109  20385348.18209  20385347.98509
   -479615.77607   -373725.95807  24607480.79007  24607481.55807
 93 07 23 08 21 00.0000000  0  8 18 13 24 25 07 14 29 22
 -20121993.42108 -15679462.20108  21394885.46608  21394886.19608
 -16432910.47808 -12804855.64208  22126738.01908  22126740.16508
  -7170415.68508  -5587331.04808  24116544.93908  24116547.53108
  -2415244.22008  -1882001.66808  23568009.59608  23568009.81208
  -1041189.02307   -811316.52707  25225161.87607  25225165.73907
 -23326514.32709 -18176490.43208  20937997.06509  20937997.66108
 -25657508.56009 -19992848.97309  20386924.31709  20386924.11509
   -637185.86207   -496507.77207  24577496.47207  24577496.92607
 93 07 23 08 22 00.0000000  0  8 18 13 24 25 07 14 29 22
 -20274785.25908 -15798520.71108  21365810.10708  21365810.81108
 -16323535.38708 -12719628.34008  22147551.47408  22147553.57008
  -7358126.18908  -5733598.78908  24080824.56708  24080827.07908
  -2246376.81008  -1750416.71608  23600144.16708  23600144.28008
   -844718.63607   -658222.81007  25262548.96407  25262552.81307
 -23207681.93609 -18083893.74208  20960610.11009  20960610.68408
 -25647459.11309 -19985018.24209  20388836.71209  20388836.51209
   -793664.00407   -618438.68207  24547719.53407  24547719.89007
 93 07 23 08 23 00.0000000  0  7 13 18 24 25 07 29 22
 -16211614.71908 -12632417.46908  22168849.30808  22168851.31008
 -20426170.38608 -15916483.08808  21337002.50508  21337003.19708
  -7544676.97308  -5878962.88208  24045325.06708  24045327.60808
  -2075957.08808  -1617622.11008  23632573.86308  23632574.07408
   -647905.43007   -504861.97507  25300001.57007  25300005.42307
 -25635651.88609 -19975817.76409  20391083.51609  20391083.25809
   -948968.63607   -739455.18207  24518165.96207  24518166.31807
 93 07 23 08 24 00.0000000  0  7 13 14 18 24 25 29 22
 -16097179.62308 -12543247.30908  22190625.58908  22190627.58108
        -0.20318        -0.28318  21006760.08418  21006760.69118
 -20576088.62608 -16033302.43408  21308473.94508  21308474.63808
  -7730095.42508  -6023444.62908  24010040.91908  24010043.46108
  -1904060.83008  -1483677.03008  23665284.87908  23665284.86708
 -25622137.03809 -19965286.68509  20393655.27409  20393655.00609
  -1103037.80507   -859509.03907  24488847.47907  24488847.93407
 93 07 23 08 25 00.0000000  0  7 13 14 18 24 25 22 29
 -15980254.36408 -12452136.76608  22212875.74908  22212877.70908
    123686.41608     96378.90208  21030296.82808  21030297.46408
 -20724466.82708 -16148921.75208  21280238.58508  21280239.19608
  -7914332.59208  -6167005.89008  23974981.68708  23974984.19408
  -1730768.76008  -1348644.28208  23698261.22408  23698261.32308
  -1255770.34007   -978521.38107  24459783.41507  24459783.89607
 -25606833.16709 -19953361.56909  20396567.50709  20396567.21909
 93 07 23 08 26 00.0000000  0  7 13 14 18 24 25 22 29
 -15860754.92708 -12359020.36908  22235615.76108  22235617.62908
    249017.59708    194039.57708  21054146.52608  21054147.15208
 -20871229.75408 -16263282.42008  21252310.48608  21252311.06508
  -8097227.45308  -6309521.20508  23940177.71408  23940180.28508
  -1556013.78108  -1212471.61308  23731515.94108  23731516.06708
  -1406995.24707  -1096358.94907  24431006.21207  24431006.62907
 -25589565.17409 -19939905.94209  20399853.47009  20399853.20609
 93 07 23 08 27 00.0000000  0  7 13 14 24 25 18 29 22
 -15738789.98208 -12263982.79908  22258824.94608  22258826.88208
    375830.18708    292854.59408  21078278.15008  21078278.77808
  -8278805.25408  -6451010.22608  23905624.54008  23905626.96208
  -1379898.60808  -1075239.09008  23765029.64708  23765029.84708
 -21016583.90808 -16376545.34408  21224650.37408  21224650.94908
 -25570402.95309 -19924974.32109  20403499.85909  20403499.59409
  -1556821.61407  -1213106.73607  24402495.10707  24402495.58907
 93 07 23 08 28 00.0000000  0  6 18 13 24 25 22 29
 -21160588.91508 -16488756.98708  21197247.07108  21197247.63808
 -15614441.77808 -12167088.14608  22282487.59008  22282489.69908
  -8459100.00708  -6591499.49108  23871315.69508  23871317.96808
  -1202483.83708   -936993.89208  23798790.44708  23798790.78208
  -1705370.39107  -1328858.96207  24374227.02907  24374227.68907
 -25549471.64609 -19908664.23209  20407482.96409  20407482.71209
 93 07 23 08 29 00.0000000  0  6 13 18 24 25 22 29
 -15487638.21008 -12068280.22508  22306617.53008  22306619.79808
 -21303007.39608 -16599732.38208  21170145.76108  21170146.31308
  -8638059.61608  -6730948.38208  23837260.69008  23837262.92108
  -1023616.70308   -797617.00008  23832827.99908  23832828.17208
  -1852581.61307  -1443568.96507  24346213.77907  24346214.29507
 -25526691.47509 -19890913.41509  20411817.83209  20411817.58409
 93 07 23 08 30 00.0000000  0  7 13 14 18 24 25 22 29
 -15358420.94908 -11967591.50108  22331206.75608  22331209.15508
        -0.76518        -0.76618  21152431.11818  21152431.72318
 -21443705.70708 -16709367.38308  21143371.69808  21143372.21708
  -8815678.20008  -6869352.32708  23803460.87408  23803463.01508
   -843275.17008   -657091.20108  23867145.86608  23867146.09308
  -1998404.57107  -1557197.17607  24318464.54807  24318465.04307
 -25502108.27809 -19871757.63809  20416495.80909  20416495.56009
 93 07 23 08 31 00.0000000  0  7 13 14 18 24 25 22 29
 -15226824.35708 -11865048.75108  22356248.82308  22356251.26208
    133001.16008    103637.06908  21177740.55308  21177741.14408
 -21582739.38308 -16817705.26608  21116914.41808  21116914.96508
  -8991902.49108  -7006669.80708  23769926.37908  23769928.39708
   -661522.10208   -515465.56108  23901732.50208  23901732.71908
  -2142755.18507  -1669678.11307  24290995.55607  24290995.90607
 -25475798.57009 -19851256.51309  20421502.34409  20421502.03509
 93 07 23 08 32 00.0000000  0  7 13 14 24 25 18 29 22
 -15092889.62008 -11760684.07608  22381735.75608  22381738.18708
    267530.40408    208465.05408  21203340.57308  21203341.19408
  -9166767.41308  -7142928.05408  23736650.49608  23736652.70708
   -478473.23508   -372830.21208  23936565.51808  23936565.93008
 -21720262.87909 -16924866.38308  21090744.51309  21090745.08208
 -25447844.56909 -19829474.18809  20426821.86809  20426821.59309
  -2285645.38208  -1781021.10607  24263804.54508  24263804.88107
 93 07 23 08 33 00.0000000  0  7 14 13 18 24 25 22 29
    403604.76008    314497.04108  21229234.62808  21229235.23808
 -14956635.89008 -11654512.39108  22407663.98408  22407666.38808
 -21856304.22309 -17030872.57508  21064856.69409  21064857.29308
  -9340291.62008  -7278141.60308  23703629.82908  23703631.99208
   -294229.46008   -229263.74408  23971625.90108  23971626.40308
  -2427155.94208  -1891289.02208  24236875.86708  24236876.37408
 -25418263.58309 -19806424.11909  20432451.01409  20432450.72809
 93 07 23 08 34 00.0000000  0  7 13 14 24 25 18 29 22
 -14818022.13408 -11546501.72908  22434041.39508  22434043.76308
    541203.31308    421716.69408  21255418.80708  21255419.47408
  -9512354.88508  -7412216.75108  23670887.01608  23670889.26408
   -108831.63708    -84798.05008  24006906.19508  24006906.66608
 -21990736.84709 -17135625.22308  21039275.02009  21039275.54208
 -25386890.65409 -19781977.62709  20438420.99509  20438420.71109
  -2567223.02508  -2000432.18108  24210221.92108  24210222.28708
 93 07 23 08 35 00.0000000  0  7 14 13 24 25 18 22 29
    680321.97908    530120.84908  21281892.17608  21281892.77808
 -14677055.13608 -11436657.37908  22460866.57108  22460868.89208
  -9682868.68108  -7545084.54408  23638439.36608  23638441.47608
     77737.05508     60579.95808  24042409.07608  24042409.65008
 -22123563.06709 -17239126.12208  21013999.03609  21013999.51508
  -2705661.08008  -2108305.93308  24183877.93608  24183878.53808
 -25353551.41109 -19755998.96309  20444765.19309  20444764.93909
 93 07 23 08 36 00.0000000  0  7 14 13 24 25 18 29 22
    821030.14908    639763.59208  21308668.08608  21308668.71308
 -14533778.74708 -11325013.50908  22488131.20508  22488133.56708
  -9851859.18208  -7676765.35808  23606281.40908  23606283.54708
    265577.83507    206949.20008  24078153.99007  24078154.69208
 -22254813.76209 -17341399.33908  20989022.83409  20989023.28308
 -25318297.68209 -19728528.55809  20451473.77909  20451473.58809
  -2842410.10708  -2214863.58508  24157855.33408  24157855.86708
 93 07 23 08 37 00.0000000  0  7 14 13 24 25 22 18 29
    963329.23308    750646.00408  21335746.67408  21335747.26208
 -14388258.77308 -11211621.38708  22515822.81208  22515825.16108
 -10019417.91608  -7807330.49908  23574396.07708  23574398.21608
    454772.15807    354373.16908  24114156.78907  24114157.25108
  -2977650.74508  -2320245.86508  24132119.89208  24132120.32208
 -22384488.00009 -17442444.15208  20964346.49709  20964346.94308
 -25281374.30509 -19699757.04809  20458500.04409  20458499.79509
 93 07 23 08 38 00.0000000  0  7 14 13 24 25 18 29 22
   1107113.12508    862685.40508  21363107.92408  21363108.52208
 -14240543.43508 -11096518.59508  22543932.17008  22543934.55108
 -10185481.06008  -7936730.26808  23542795.16008  23542797.33408
    645244.37407    502792.89407  24150402.50907  24150402.91707
 -22512570.57709 -17542248.71108  20939973.18109  20939973.63708
 -25242874.69009 -19669757.32109  20465826.26609  20465825.98809
  -3111427.64408  -2424487.57108  24106663.07808  24106663.51908
 93 07 23 08 39 00.0000000  0  7 14 13 24 25 22 18 29
   1252355.14708    975861.00108  21390746.47508  21390747.08808
 -14090620.39108 -10979695.51608  22572461.70508  22572463.97608
 -10349933.36508  -8064874.82708  23511500.84508  23511503.00908
    836908.18007    652141.12007  24186875.21807  24186875.62207
  -3243579.04908  -2527462.66008  24081515.37508  24081515.79608
 -22639022.25809 -17640782.44208  20915910.17609  20915910.65708
 -25202607.48909 -19638380.23309  20473488.86209  20473488.57109
 93 07 23 08 40 00.0000000  0  7 14 13 24 25 18 29 22
   1399121.23108   1090224.16508  21418675.18308  21418675.82208
 -13938510.48208 -10861168.39308  22601407.35708  22601409.64008
 -10512818.99108  -8191798.58208  23480504.75108  23480506.63508
   1029662.36207    802339.00908  24223555.19207  24223555.63908
 -22763850.19409 -17738050.93008  20892156.17609  20892156.67208
 -25160456.57509 -19605535.35809  20481509.91109  20481509.58609
  -3374048.88008  -2629127.44908  24056687.92608  24056688.17208
 93 07 23 08 41 00.0000000  0  7 14 13 24 25 22 18 29
   1547329.86008   1205711.40708  21446878.28508  21446878.90308
 -13784252.31008 -10740967.30708  22630761.70808  22630764.04708
 -10674207.97708  -8317556.12408  23449793.32708  23449795.31608
   1223465.28007    953354.10108  24260434.76207  24260435.34808
  -3502876.05708  -2729512.25208  24032172.83408  24032173.27408
 -22887053.47309 -17834053.44708  20868711.33609  20868711.80308
 -25116559.99309 -19571330.23109  20489863.20109  20489862.82809
 93 07 23 08 42 00.0000000  0  7 14 24 25 13 18 29 22
   1696916.99408   1322272.80408  21475343.69308  21475344.39308
 -10834024.60108  -8442088.44508  23419381.16208  23419383.09308
   1418344.29707   1105207.69108  24297519.08907  24297519.89708
 -13627863.37208 -10619105.88408  22660521.64008  22660523.97708
 -23008563.65909 -17928736.67208  20845588.69809  20845589.13108
 -25071013.25909 -19535839.26709  20498530.38909  20498530.08109
  -3630003.18208  -2828572.31008  24007981.39408  24007981.63908
 93 07 23 08 43 00.0000000  0  7 14 24 25 13 22 18 29
   1847928.00108   1439943.71108  21504080.21008  21504080.96708
 -10992176.28708  -8565323.42808  23389285.83508  23389287.74208
   1614349.06707   1257938.53908  24334817.80607  24334818.54808
 -13469326.41408 -10495570.66008  22690690.23608  22690692.65008
  -3755354.22908  -2926248.42908  23984127.77108  23984128.00008
 -23128307.78309 -18022043.74008  20822802.17609  20822802.52808
 -25023717.81709 -19498985.66709  20507530.40609  20507530.09609
 93 07 23 08 44 00.0000000  0  7 14 24 25 13 18 29 22
   2000373.51408   1558732.43408  21533089.62008  21533090.37708
 -11148718.41608  -8687304.21908  23359496.88508  23359498.72608
   1811506.79107   1411567.78307  24372335.86107  24372336.47407
 -13308706.34508 -10370412.24908  22721255.32908  22721257.72408
 -23246354.98409 -18114028.54108  20800338.56409  20800338.95808
 -24974685.13509 -19460778.36109  20516861.01809  20516860.66809
  -3878988.09408  -3022586.48308  23960601.12008  23960601.44208
 93 07 23 08 45 00.0000000  0  7 14 24 25 13 22 18 29
   2154243.35508   1678631.01008  21562370.00408  21562370.75608
 -11303620.94408  -8808007.42108  23330019.84108  23330021.55408
   2009822.82607   1566099.55207  24410074.33607  24410075.18707
 -13146034.90408 -10243655.37408  22752210.82208  22752213.10008
  -4000921.79608  -3117599.73308  23937397.97608  23937398.20108
 -23362797.82509 -18204763.18208  20778180.14909  20778180.53608
 -24923973.80409 -19421263.03709  20526511.07709  20526510.77409
 93 07 23 08 46 00.0000000  0  7 14 24 25 13 18 29 22
   2309549.12608   1799648.46708  21591923.75808  21591924.53008
 -11456813.08408  -8927377.86608  23300868.32808  23300870.08708
   2209220.74807   1721474.34607  24448018.69707  24448019.60707
 -12981350.95608 -10115330.33608  22783549.17708  22783551.52508
 -23477636.07509 -18294247.49708  20756327.15109  20756327.51508
 -24871613.04109 -19380462.38109  20536474.87309  20536474.59609
  -4121132.83708  -3211270.65108  23914522.55708  23914522.92908
 93 07 23 08 47 00.0000000  0  7 14 24 25 13 22 18 29
   2466291.77208   1921785.59008  21621750.92308  21621751.63408
 -11608231.83408  -9045366.46308  23272054.21408  23272055.97408
   2409542.18507   1877568.82707  24486138.65507  24486139.62607
 -12814685.19508  -9985460.98308  22815264.66708  22815267.12808
  -4239608.89608  -3303589.62008  23891977.22708  23891977.45508
 -23590772.57409 -18382405.78008  20734797.97709  20734798.30308
 -24817527.30309 -19338317.63509  20546767.03609  20546766.78209
 93 07 23 08 48 00.0000000  0  7 14 24 25 13 18 29 22
   2624414.18508   2044997.86008  21651840.74908  21651841.39908
 -11757941.10108  -9162022.99708  23243565.40108  23243567.32308
   2610689.32807   2034306.72408  24524415.80607  24524416.84408
 -12646051.87508  -9854058.48308  22847354.51808  22847357.03808
 -23702104.90509 -18469158.19608  20713612.04809  20713612.38608
 -24761713.77909 -19294826.56009  20557387.99709  20557387.70809
  -4356302.91408  -3394519.98308  23869771.10508  23869771.38808
 93 07 23 08 49 00.0000000  0  7 14 24 25 13 22 18 29
   2783879.07308   2169256.21308  21682185.80708  21682186.46908
 -11906028.84808  -9277416.01208  23215385.23108  23215387.13608
   2812713.66807   2191728.20207  24562859.87407  24562860.85107
 -12475457.94008  -9721128.24408  22879817.61008  22879820.06908
  -4471112.04108  -3483981.61608  23847923.50308  23847923.80808
 -23811661.21909 -18554526.74708  20692764.17609  20692764.53708
 -24704279.33909 -19250072.45809  20568317.28509  20568317.03109
 93 07 23 08 50 00.0000000  0  7 14 24 25 13 18 29 22
   2944714.78708   2294582.74708  21712791.85108  21712792.51608
 -12052474.00608  -9391529.07908  23187517.57708  23187519.50808
   3015740.17907   2349930.53308  24601494.40307  24601495.59108
 -12302903.77008  -9586670.53208  22912653.63708  22912656.07708
 -23919505.37009 -18638561.11408  20672242.07709  20672242.42008
 -24645235.66709 -19204064.40109  20579553.09809  20579552.79509
  -4583943.09708  -3571901.91408  23826452.53808  23826452.82608
 93 07 23 08 51 00.0000000  0  7 14 24 25 13 18 29 22
   3106940.17008   2420992.14908  21743662.38008  21743663.05108
 -12197111.80108  -9504233.82408  23159993.90208  23159995.70808
   3219756.33707   2508904.07207  24640317.38807  24640318.72807
 -12128430.21408  -9450717.22608  22945854.98908  22945857.38308
 -24025643.48909 -18721266.10608  20652044.57809  20652044.93708
 -24584582.86009 -19156802.45409  20591094.90309  20591094.61709
  -4694874.68408  -3658342.09608  23805342.87508  23805343.21208
 93 07 23 08 52 00.0000000  0  7 14 24 13 19 22 18 29
   3270471.80308   2548419.37308  21774781.39608  21774782.14108
 -12339855.87508  -9615462.93708  23132830.46608  23132832.40508
 -11952150.51808  -9313356.52808  22979400.00008  22979402.41908
         0.46318         0.31018  24146155.56718  24146158.23718
  -4804058.33208  -3743420.25308  23784565.99908  23784566.18608
 -24130128.30809 -18802682.82408  20632161.68309  20632162.03808
 -24522381.81009 -19108334.15509  20602931.38509  20602931.11109
 93 07 23 08 53 00.0000000  0  7 14 24 13 19 18 29 22
   3435465.88008   2676986.17708  21806178.73608  21806179.42408
 -12480612.45608  -9725143.35608  23106045.33008  23106047.24208
 -11773959.48408  -9174506.51408  23013308.73108  23013311.16908
   -228887.51608   -178353.78408  24102599.59408  24102602.10108
 -24232844.74409 -18882721.58308  20612615.48509  20612615.79408
 -24458435.67509 -19058506.00809  20615099.97609  20615099.68809
  -4911358.67108  -3827030.89908  23764147.42208  23764147.56008
 93 07 23 08 54 00.0000000  0  7 14 24 13 19 22 18 29
   3601883.44908   2806662.19708  21837846.94208  21837847.64408
 -12619541.42908  -9833399.66108  23079607.93008  23079609.88008
 -11593913.78508  -9034211.28308  23047570.37108  23047572.85308
   -457281.31308   -356322.81108  24059137.45108  24059140.05508
  -5016723.67808  -3909133.50108  23744097.12908  23744097.37408
 -24333789.63109 -18961379.91008  20593406.38209  20593406.66508
 -24392680.83109 -19007268.47509  20627612.75809  20627612.38309
 93 07 23 08 55 00.0000000  0  7 14 24 13 19 18 29 22
   3769550.30108   2937311.68208  21869752.78408  21869753.50808
 -12756762.33108  -9940325.00708  23053495.72408  23053497.61008
 -11412130.48008  -8892562.06508  23082162.55808  23082165.27008
   -685282.44708   -533985.88908  24015750.18908  24015752.80408
 -24432979.07309 -19038670.35408  20574531.24909  20574531.52508
 -24325237.58709 -18954715.29309  20640446.76309  20640446.38509
  -5120153.88908  -3989728.48108  23724414.98708  23724415.33508
 93 07 23 08 56 00.0000000  0  7 14 24 13 19 22 18 29
   3938432.15508   3068907.91008  21901889.93508  21901890.66608
 -12892152.31108 -10045823.65908  23027731.83808  23027733.65808
 -11228625.84208  -8749571.53008  23117082.36608  23117085.07408
   -912865.75708   -711323.40508  23972442.38108  23972445.11408
  -5221636.41508  -4068805.79808  23705103.57608  23705103.76208
 -24530394.30209 -19114578.30008  20555993.65909  20555993.94308
 -24256240.05709 -18900950.93909  20653576.49909  20653576.11909
 93 07 23 08 57 00.0000000  0  7 14 24 13 19 18 29 22
   4108569.88008   3201482.74708  21934266.13708  21934266.92808
 -13025648.09908 -10149846.32108  23002328.41808  23002330.27608
 -11043416.83008  -8605252.91408  23152326.49308  23152329.24308
  -1140004.16208   -888314.22108  23929219.35508  23929221.93908
 -24626063.45209 -19189125.67308  20537788.41909  20537788.71708
 -24185736.04709 -18846012.70809  20666992.96209  20666992.61909
  -5321187.79908  -4146378.32808  23686159.58708  23686159.75908
 93 07 23 08 58 00.0000000  0  7 14 24 13 19 22 18 29
   4280055.89408   3335108.19008  21966898.83808  21966899.56008
 -13157261.36708 -10252402.08308  22977283.30608  22977285.16608
 -10856500.92208  -8459604.25008  23187895.45308  23187898.30308
  -1366630.07908  -1064905.68608  23886093.70108  23886096.36008
  -5418776.54508  -4222421.51708  23667589.05608  23667589.18308
 -24719945.85809 -19262280.73708  20519923.16009  20519923.45708
 -24113605.29709 -18789806.91409  20680718.93809  20680718.61509
 93 07 23 08 59 00.0000000  0  7 14 24 13 19 18 29 22
   4452825.96708   3469734.19308  21999775.94708  21999776.66208
 -13286986.91408 -10353486.88308  22952597.36608  22952599.32608
 -10667907.62808  -8312648.48508  23223783.62908  23223786.44208
  -1592727.46108  -1241085.32508  23843068.79808  23843071.32908
 -24811992.22509 -19334005.14308  20502407.27309  20502407.55908
 -24039828.19509 -18732318.24209  20694758.22309  20694757.87609
  -5514388.69308  -4296924.48908  23649394.63908  23649394.90708
 93 07 23 09 00 00.0000000  0  7 14 24 13 19 22 18 29
   4626832.30908   3605323.52908  22032888.34008  22032889.04808
 -13414736.04408 -10453031.62108  22928287.55208  22928289.31808
 -10477626.16308  -8164377.26108  23259993.03908  23259995.87608
  -1818228.92908  -1416800.65108  23800157.16808  23800159.77408
  -5607968.04408  -4369843.42608  23631587.01108  23631587.36508
 -24902239.88109 -19404327.95308  20485233.66309  20485233.92908
 -23964530.98509 -18673645.07909  20709086.77509  20709086.42309
 93 07 23 09 01 00.0000000  0  7 24 13 19 14 18 29 22
 -13540540.78208 -10551061.25108  22904347.64008  22904349.39708
 -10285718.12808  -8014838.60008  23296512.09708  23296514.77008
  -2043142.87108  -1592058.08708  23757357.30208  23757359.71008
   4802048.35008   3741855.47508  22066230.82108  22066231.49708
 -24990802.80309 -19473337.95608  20468380.68609  20468380.97508
 -23887869.34609 -18613908.72309  20723675.02209  20723674.64309
  -5699504.86208  -4441170.77008  23614168.09708  23614168.53308
 93 07 23 09 02 00.0000000  0  7 14 24 13 19 22 18 29
   4978550.48808   3879389.56908  22099818.14608  22099818.82308
 -13664372.01408 -10647553.08508  22880783.36808  22880785.09608
 -10092168.19408  -7864020.50508  23333343.45708  23333346.15408
  -2267410.83708  -1766812.20108  23714680.37608  23714682.83008
  -5788898.29908  -4510827.96208  23597157.11508  23597157.40508
 -25077648.82909 -19541010.15208  20451854.38209  20451854.66608
 -23809683.32609 -18552984.57109  20738553.35309  20738553.00009
 93 07 23 09 03 00.0000000  0  7 24 13 19 14 18 29 22
 -13786124.46008 -10742425.07908  22857614.60308  22857616.28408
  -9896982.12808  -7711927.54208  23370486.15208  23370488.87608
  -2490952.31308  -1941000.27008  23672141.99408  23672144.31308
   5156428.70908   4017995.91608  22133667.37608  22133668.05808
 -25162621.78409 -19607222.79608  20435684.57609  20435684.79308
 -23729697.74309 -18490658.14209  20753774.11909  20753773.72509
  -5876114.08608  -4578788.27908  23580560.43708  23580560.60408
 93 07 23 09 04 00.0000000  0  7 24 13 19 14 22 18 29
 -13905746.66008 -10835637.14308  22834851.22808  22834852.89208
  -9700261.72508  -7558639.00608  23407920.80408  23407923.67008
  -2713883.57908  -2114712.77508  23629719.41008  23629721.74008
   5335634.90608   4157637.04608  22167769.15808  22167769.81908
  -5961282.54608  -4645153.27008  23564353.35008  23564353.59908
 -25245654.29309 -19671923.41008  20419883.99409  20419884.17208
 -23647935.90909 -18426947.62609  20769332.84109  20769332.55109
 93 07 23 09 05 00.0000000  0  7 24 13 19 14 22 18 29
 -14023297.18908 -10927234.91408  22812482.05208  22812483.75308
  -9502097.42208  -7404225.30408  23445630.28208  23445633.15908
  -2936285.52608  -2288012.91308  23587397.70908  23587399.92008
   5516038.52208   4298211.27208  22202098.91408  22202099.51308
  -6044428.25308  -4709942.06308  23548531.22008  23548531.47108
 -25326843.95809 -19735188.05808  20404434.05109  20404434.21808
 -23564620.27709 -18362026.35309  20785187.28509  20785186.92509
 93 07 23 09 06 00.0000000  0  7 24 13 19 14 22 18 29
 -14138886.41208 -11017304.38908  22790486.09908  22790487.79108
  -9302559.23208  -7248741.03507  23483601.13008  23483604.06907
  -3158140.06708  -2460886.49708  23545180.13108  23545182.38508
   5697442.80908   4439565.22508  22236618.94408  22236619.69508
  -6125453.28008  -4773078.40408  23533112.76508  23533112.98808
 -25406331.30909 -19797126.24408  20389308.19609  20389308.40408
 -23479876.38809 -18295992.12609  20801313.46609  20801313.12009
 93 07 23 09 07 00.0000000  0  7 24 13 19 14 22 18 29
 -14252486.74208 -11105824.08408  22768868.64408  22768870.33408
  -9101604.65808  -7092153.12307  23521841.64208  23521844.48207
  -3379280.40208  -2633203.55708  23503098.48508  23503100.75708
   5879900.06508   4581739.64808  22271339.36008  22271340.20608
  -6204303.72808  -4834520.28308  23518107.92208  23518108.20308
 -25484033.08309 -19857673.07308  20374521.89309  20374522.13508
 -23393690.32109 -18228834.11509  20817714.11409  20817713.77109
 93 07 23 09 08 00.0000000  0  7 24 13 19 14 18 29 22
 -14364043.19508 -11192751.14508  22747640.08408  22747641.78308
  -8899235.09408  -6934462.57207  23560351.28008  23560354.10407
  -3599627.76308  -2804902.71208  23461167.60908  23461169.87208
   6063531.80308   4724829.25908  22306283.43108  22306284.23108
 -25559857.58809 -19916757.07208  20360093.06809  20360093.25308
 -23306067.04109 -18160556.21409  20834388.25309  20834387.89609
  -6281108.83308  -4894368.38508  23503492.45608  23503492.63208
 93 07 23 09 09 00.0000000  0  7 24 13 19 14 18 29 22
 -14473534.67408 -11278069.13408  22726804.45308  22726806.24508
  -8695439.70608  -6775661.05007  23599132.33208  23599135.18007
  -3819202.73408  -2975999.97908  23419383.75608  23419386.00108
   6248427.40708   4868903.66908  22341467.95808  22341468.80208
 -25633805.29209 -19974378.60808  20346021.25409  20346021.38308
 -23216995.60209 -18091149.88708  20851337.98709  20851337.63408
  -6355881.27708  -4952632.59208  23489263.71408  23489263.86608
 93 07 23 09 10 00.0000000  0  7 24 13 19 14 18 29 22
 -14581033.45908 -11361834.37208  22706348.05808  22706349.79208
  -8490275.65808  -6615793.09707  23638173.74208  23638176.77607
  -4038014.32108  -3146502.41008  23377745.28208  23377747.42908
   6434524.65508   5013914.45308  22376881.17308  22376881.94108
 -25705923.10209 -20030574.24308  20332297.54809  20332297.66708
 -23126473.03409 -18020612.82408  20868563.84709  20868563.48308
  -6428472.76808  -5009197.35508  23475449.93308  23475450.06608
 93 07 23 09 11 00.0000000  0  7 24 13 19 14 18 29 22
 -14686409.98108 -11443945.90308  22686295.47508  22686297.25608
  -8283733.03108  -6454850.92207  23677477.69208  23677480.61307
  -4256065.17008  -3316412.05208  23336251.48508  23336253.64508
   6621833.68408   5159869.46008  22412524.93708  22412525.70008
 -25776124.15609 -20085276.37008  20318938.79709  20318938.88408
 -23034404.43509 -17948871.07808  20886083.93909  20886083.55908
  -6498711.50908  -5063928.81008  23462083.89608  23462083.93608
 93 07 23 09 12 00.0000000  0  7 24 13 19 14 18 29 22
 -14789545.56808 -11524311.25208  22666669.44108  22666671.08908
  -8075884.62308  -6292891.26707  23717030.02908  23717032.99807
  -4473451.88908  -3485804.15608  23294883.91308  23294886.20708
   6810295.24008   5306722.55508  22448388.10808  22448388.90308
 -25844461.45009 -20138526.17709  20305934.51709  20305934.58009
 -22940785.61709 -17875921.36408  20903899.00609  20903898.65708
  -6566699.83408  -5116906.70008  23449146.07608  23449146.19908
 93 07 23 09 13 00.0000000  0  7 24 13 19 14 18 29 22
 -14890384.77108 -11602887.22408  22647480.41908  22647482.01808
  -7866776.90108  -6129950.26407  23756822.10608  23756824.97907
  -4690059.79708  -3654589.38608  23253664.75308  23253666.91808
   6999843.41808   5454422.32908  22484457.96208  22484458.72308
 -25911022.07109 -20190391.56909  20293268.50909  20293268.63109
 -22845621.79209 -17801767.70708  20922008.04409  20922007.67908
  -6632552.12408  -5168220.14008  23436614.78008  23436614.90808
 93 07 23 09 14 00.0000000  0  7 24 13 19 14 18 29 22
 -14988971.87808 -11679708.30008  22628719.93008  22628721.45308
  -7656427.65908  -5966041.87107  23796850.24908  23796853.20307
  -4905693.08808  -3822615.17808  23212631.03508  23212633.11708
   7190500.82108   5602986.49508  22520738.92008  22520739.67908
 -25975799.62709 -20240867.54109  20280941.72009  20280941.85309
 -22748957.61009 -17726444.93908  20940402.64709  20940402.30508
  -6696258.07908  -5217861.11208  23424491.88108  23424492.04608
 93 07 23 09 15 00.0000000  0  7 24 13 19 14 18 29 22
 -15085383.65208 -11754834.30908  22610373.32108  22610374.79308
  -7444850.39408  -5801176.55107  23837112.13308  23837115.04607
  -5120345.11908  -3989876.34808  23171784.05608  23171786.07008
   7382256.07208   5752406.10808  22557228.78208  22557229.65008
 -26038668.95209 -20289856.63009  20268978.11809  20268978.25709
 -22650810.53409 -17649966.67808  20959079.40109  20959078.99908
  -6757725.57608  -5265757.84508  23412795.02708  23412795.25608
 93 07 23 09 16 00.0000000  0  7 29 24 13 19 14 18 22
 -22551320.44209 -17572441.91808  20978011.76509  20978011.32708
 -15179740.69008 -11828359.21808  22592417.72008  22592419.23508
  -7232170.85908  -5635452.32707  23877583.77508  23877586.70007
  -5334229.37808  -4156539.26008  23131083.07508  23131085.04508
   7574969.15808   5902572.11108  22593900.80308  22593901.82208
 -26099702.24209 -20337415.06009  20257363.87409  20257364.05109
  -6817028.82008  -5311968.13808  23401509.90208  23401510.15708
 93 07 23 09 17 00.0000000  0  7 29 24 13 19 14 18 22
 -22450416.77809 -17493815.65308  20997213.09309  20997212.69608
 -15271946.42408 -11900207.79008  22574871.45108  22574873.01908
  -7018326.71208  -5468820.57707  23918276.99908  23918279.87407
  -5547277.93908  -4322550.95408  23090541.15408  23090543.05508
   7768721.87608   6053548.22808  22630770.74808  22630771.63308
 -26158860.90609 -20383512.72909  20246106.31309  20246106.49409
  -6874085.94308  -5356428.21808  23390652.36308  23390652.53408
 93 07 23 09 18 00.0000000  0  7 29 24 13 19 14 18 22
 -22348100.73209 -17414088.84008  21016683.10009  21016682.70908
 -15361935.22608 -11970328.88108  22557747.09708  22557748.76108
  -6803326.56708  -5301288.08307  23959190.14808  23959193.08507
  -5759411.29208  -4487849.55808  23050173.46208  23050175.36408
   7963516.16608   6205335.94308  22667838.81508  22667839.73408
 -26216132.89209 -20428140.22009  20235207.82609  20235207.96609
  -6928802.57508  -5399064.53608  23380240.07408  23380240.21708
 93 07 23 09 19 00.0000000  0  7 29 24 13 19 14 18 22
 -22244390.47909 -17333275.63508  21036418.48809  21036418.10608
 -15449647.74608 -12038676.24108  22541055.85008  22541057.50208
  -6587210.75108  -5132886.18707  24000315.64308  24000318.64507
  -5970656.58008  -4652456.17108  23009974.74308  23009976.62308
   8159370.25508   6357949.47608  22705108.70708  22705109.68208
 -26271439.32609 -20471236.16809  20224683.31409  20224683.47209
  -6981176.20008  -5439875.14408  23370273.64508  23370273.74308
 93 07 23 09 20 00.0000000  0  7 29 24 13 19 14 18 22
 -22139278.36109 -17251370.09908  21056420.59009  21056420.25308
 -15535013.64108 -12105195.05208  22524811.41208  22524812.93908
  -6370022.84108  -4963648.91007  24041645.11008  24041648.03007
  -6181030.22808  -4816383.53508  22969941.80008  22969943.64908
   8356299.37708   6511400.69008  22742583.06308  22742583.94608
 -26324740.05709 -20512769.12709  20214540.53809  20214540.66309
  -7031256.78008  -5478898.96608  23360743.72208  23360743.65508
 93 07 23 09 21 00.0000000  0  7 29 24 13 19 14 18 22
 -22032795.66809 -17168396.59208  21076683.60909  21076683.26308
 -15618119.36708 -12169952.69508  22508996.82608  22508998.42508
  -6151830.99308  -4793629.45107  24083165.83008  24083168.74207
  -6390476.41308  -4979588.25508  22930085.53908  22930087.33008
   8554202.32708   6665610.76008  22780242.87008  22780243.82608
 -26376154.04909 -20552831.92209  20204756.77909  20204756.85909
  -7079043.72008  -5516135.54008  23351650.08508  23351650.28408
 93 07 23 09 22 00.0000000  0  7 29 24 13 19 14 18 22
 -21924942.60909 -17084355.23708  21097207.36509  21097206.98208
 -15698991.05208 -12232969.52908  22493607.35208  22493608.88108
  -5932661.08208  -4622847.71507  24124872.41108  24124875.40907
  -6598913.79408  -5142006.89108  22890421.19308  22890422.88908
   8753107.10208   6820601.47808  22818093.15808  22818094.11208
 -26425738.52809 -20591469.15109  20195321.14909  20195321.15309
  -7124424.47708  -5551497.17608  23343014.45808  23343014.60808
 93 07 23 09 23 00.0000000  0  7 29 24 13 19 14 18 22
 -21815694.80309 -16999227.06408  21117996.53309  21117996.18008
 -15777599.52608 -12294222.81708  22478648.70108  22478650.07608
  -5712522.00708  -4451310.80907  24166763.51208  24166766.72907
  -6806315.50008  -5303618.51408  22850953.94308  22850955.63708
   8953058.08208   6976407.37808  22856142.60208  22856143.55608
 -26473459.77509 -20628654.54209  20186240.10909  20186240.13409
  -7167418.40008  -5584998.95108  23334833.00808  23334833.18708
 93 07 23 09 24 00.0000000  0  7 29 24 13 19 14 18 22
 -21705072.16709 -16913027.59208  21139047.39209  21139046.99508
 -15853966.84808 -12353729.76408  22464116.42508  22464117.79508
  -5491452.70408  -4279049.10407  24208831.69208  24208834.81107
  -7012732.70608  -5464462.99408  22811674.01808  22811675.64108
   9154016.24808   7132998.12508  22894383.83008  22894384.67508
 -26519325.91609 -20664394.36009  20177512.02309  20177512.08109
  -7208162.98808  -5616747.98308  23327079.52108  23327079.70508
 93 07 23 09 25 00.0000000  0  7 29 24 13 19 14 18 22
 -21593071.57609 -16825754.38408  21160360.33309  21160359.91608
 -15928153.49808 -12411537.48308  22449999.13008  22450000.53408
  -5269492.36808  -4106093.12307  24251069.48108  24251072.76907
  -7218165.32308  -5624540.22308  22772581.28708  22772582.82308
   9355923.25508   7290328.19708  22932805.48208  22932806.34908
 -26563394.95909 -20698733.89309  20169125.91109  20169126.00009
  -7246688.05008  -5646767.52008  23319748.56608  23319748.70208
 93 07 23 09 26 00.0000000  0  7 29 24 13 19 14 18 22
 -21479679.69209 -16737397.04508  21181938.11709  21181937.67408
 -16000029.31108 -12467544.56708  22436321.60708  22436322.92208
  -5046639.59308  -3932441.80507  24293477.01608  24293480.19907
  -7422475.40608  -5783742.75608  22733702.44708  22733703.92708
   9558737.74008   7448365.37808  22971399.90608  22971400.78808
 -26605611.57209 -20731629.88309  20161092.36609  20161092.40409
  -7282882.76708  -5674971.20208  23312860.86008  23312861.05608
 93 07 23 09 27 00.0000000  0  7 29 24 13 19 14 18 22
 -21364941.29708 -16647990.47208  21203772.07208  21203771.64708
 -16069475.54908 -12521658.47808  22423106.42208  22423107.76908
  -4822922.46408  -3758116.94207  24336049.22308  24336052.31207
  -7625646.28908  -5942057.61608  22695040.16708  22695041.59508
   9762473.82308   7607120.71908  23010169.62308  23010170.49608
 -26645848.90009 -20762983.65209  20153435.40809  20153435.46309
  -7316667.11808  -5701296.67308  23306432.09908  23306432.09708
 93 07 23 09 28 00.0000000  0  7 29 24 13 19 14 18 22
 -21248934.02808 -16557595.20208  21225847.47108  21225847.08508
 -16136503.13408 -12573887.71708  22410351.41408  22410352.88708
  -4598369.00608  -3583140.30907  24378780.30108  24378783.65307
  -7827752.51008  -6099542.84808  22656580.55108  22656581.99608
   9967138.66308   7766599.76208  23049116.01408  23049117.01008
 -26684095.84509 -20792786.39209  20146157.20609  20146157.27809
  -7348018.88008  -5725726.60608  23300465.99108  23300466.05408
 93 07 23 09 29 00.0000000  0  7 29 24 13 19 14 18 22
 -21131692.90308 -16466238.50308  21248157.72908  21248157.31308
 -16201119.44908 -12624238.04708  22398055.25208  22398056.68908
  -4373017.77608  -3407542.13607  24421663.42008  24421666.64607
  -8028884.52208  -6256268.94208  22618306.24708  22618307.65508
  10172709.00508   7926784.38708  23088234.74208  23088235.81808
 -26720451.93309 -20821115.79009  20139238.90209  20139238.94809
  -7376980.86808  -5748294.41208  23294954.77208  23294954.79408
 93 07 23 09 30 00.0000000  0  7 29 24 13 19 14 18 22
 -21013079.39708 -16373812.40608  21270729.11508  21270728.70508
 -16263334.80508 -12672717.50108  22386215.99408  22386217.42908
  -4146899.02408  -3231345.79007  24464692.32308  24464695.84007
  -8228987.97208  -6412193.60508  22580227.71108  22580229.14508
  10379166.58208   8087660.37508  23127522.29408  23127523.40808
 -26754874.05909 -20847938.22909  20132688.61309  20132688.62809
  -7403660.25008  -5769083.55108  23289877.76708  23289877.78308
 93 07 23 09 31 00.0000000  0  7 29 24 13 19 14 18 22
 -20893049.46308 -16280282.55808  21293570.06008  21293569.60408
 -16323165.40308 -12719338.70108  22374830.64308  22374832.02408
  -3920047.44708  -3054578.40007  24507860.89208  24507864.42907
  -8427900.14908  -6567189.99108  22542375.89908  22542377.31908
  10586480.16408   8249203.37208  23166972.75608  23166973.91808
 -26787354.20909 -20873247.43509  20126507.76409  20126507.81909
  -7428086.37308  -5788116.89808  23285229.55808  23285229.64408
 93 07 23 09 32 00.0000000  0  6 29 24 19 13 18 22
 -20771693.68908 -16185719.60108  21316663.21908  21316662.78308
 -16380624.27008 -12764111.80708  22363896.54708  22363897.82908
  -8625526.42908  -6721184.34508  22504768.78008  22504770.12708
  -3692490.99608  -2877261.75807  24551163.37408  24551166.96407
 -26817962.05209 -20897097.70009  20120683.19109  20120683.27709
  -7450133.01908  -5805296.11608  23281034.32208  23281034.48608
 93 07 23 09 33 00.0000000  0  7 29 24 13 19 16 18 22
 -20649127.69608 -16090213.59408  21339986.71408  21339986.26708
 -16435715.55508 -12807040.04308  22353413.04808  22353414.17908
  -3464235.00308  -2699400.01507  24594599.31708  24594602.53707
  -8821897.59708  -6874200.70208  22467400.37708  22467401.78508
        -0.00817        -0.02917  25363315.81017  25363319.41917
 -26846715.63409 -20919502.99809  20115211.64609  20115211.65709
  -7469709.18708  -5820550.29208  23277309.08608  23277309.07708
 93 07 23 09 34 00.0000000  0  7 29 24 19 13 16 18 22
 -20525369.57508 -15993778.67308  21363537.13408  21363536.73808
 -16488472.33608 -12848149.18708  22343373.72408  22343374.86308
  -9017106.73008  -7026311.62708  22430253.24808  22430254.69008
  -3235336.63908  -2521037.72307  24638157.08808  24638160.72307
   -219541.85007   -171071.38307  25321538.00107  25321541.85907
 -26873553.69909 -20940415.74409  20110104.56309  20110104.52909
  -7486868.02908  -5833920.78108  23274043.92608  23274043.99708
 93 07 23 09 35 00.0000000  0  7 29 24 13 19 16 18 22
 -20400322.34808 -15896339.29508  21387332.85408  21387332.43808
 -16538871.18508 -12887420.97808  22333783.13408  22333784.31208
  -3005822.60208  -2342195.74007  24681832.35608  24681836.08607
  -9211095.72408  -7177471.75308  22393338.32808  22393339.69808
   -438861.84608   -341969.84207  25279802.90208  25279806.22107
 -26898367.56109 -20959751.25209  20105382.57609  20105382.60109
  -7501617.06208  -5845413.54208  23271237.16708  23271237.23608
 93 07 23 09 36 00.0000000  0  7 29 24 19 13 16 18 22
 -20274029.97408 -15797929.65708  21411365.46208  21411365.01008
 -16586832.99408 -12924793.78408  22324656.16108  22324657.44308
  -9403813.72008  -7327641.48608  22356665.20908  22356666.49208
  -2775741.01007  -2162911.58507  24725615.44207  24725619.42007
   -658034.96608   -512753.79807  25238095.07008  25238098.54007
 -26921201.33609 -20977543.81809  20101037.48409  20101037.51609
  -7513971.35108  -5855040.26808  23268886.20708  23268886.37608
 93 07 23 09 37 00.0000000  0  7 29 24 13 19 16 18 22
 -20146567.37008 -15698608.15008  21435620.85208  21435620.36108
 -16632346.13808 -12960258.53708  22315995.26208  22315996.62708
  -2545146.99907  -1983228.18307  24769496.34507  24769500.04807
  -9595334.58208  -7476878.44208  22320219.89808  22320221.18708
   -877107.79308   -683459.70107  25196406.75608  25196410.57407
 -26942197.71409 -20993904.61109  20097041.94909  20097041.98309
  -7523961.60908  -5862824.89108  23266985.18608  23266985.27008
 93 07 23 09 38 00.0000000  0  7 29 24 19 22 13 16 18
 -20017890.48208 -15598340.42808  21460107.23008  21460106.78408
 -16675389.89308 -12993799.09308  22307804.34608  22307805.76008
  -9785697.89508  -7625213.41408  22283994.87008  22283996.19608
  -7531595.40008  -5868773.31108  23265532.53708  23265532.73508
  -2314036.12407  -1803142.11307  24813475.30607  24813479.40207
  -1096026.56508   -854045.51307  25154747.90008  25154751.39007
 -26961403.86309 -21008870.39109  20093387.11509  20093387.12309
 93 07 23 09 39 00.0000000  0  7 24 13 19 16 18 29 22
 -16715963.51008 -13025414.87008  22300083.39408  22300084.77108
  -2082385.51907  -1622635.47107  24857557.35307  24857561.22807
  -9974828.93308  -7772588.15408  22248004.36008  22248005.68308
  -1314744.64008  -1024474.92407  25113126.87508  25113130.64707
 -26978765.76809 -21022399.08909  20090083.23009  20090083.23809
 -19887907.72008 -15497055.15408  21484842.09908  21484841.67608
  -7536840.28308  -5872860.23108  23264534.50308  23264534.58208
 93 07 23 09 40 00.0000000  0  7 24 19 29 22 13 16 18
 -16754096.60408 -13055128.94708  22292826.93608  22292828.17108
 -10162671.26308  -7918958.70908  22212259.04708  22212260.35608
 -19756654.06308 -15394779.56908  21509818.84808  21509818.44608
  -7539657.29808  -5875055.34508  23263998.31708  23263998.58308
  -1850240.59407  -1441743.67707  24901733.21107  24901737.30207
  -1533299.98508  -1194777.53707  25071536.79008  25071540.49107
 -26994227.74109 -21034447.36709  20087140.88809  20087140.90609
 93 07 23 09 41 00.0000000  0  7 24 19 13 16 18 29 22
 -16789801.42308 -13082950.85308  22286032.51908  22286033.72108
 -10349168.55708  -8064281.15308  22176769.74408  22176771.01508
  -1617656.19507  -1260509.29207  24945992.95007  24945997.01207
  -1751656.08808  -1364924.86207  25029984.94208  25029988.38607
 -27007758.17609 -21044990.55909  20084566.11209  20084566.13409
 -19624140.53408 -15291522.28308  21535035.29508  21535034.92608
  -7539997.79008  -5875320.68908  23263933.59208  23263933.86608
 93 07 23 09 42 00.0000000  0  7 24 19 29 22 13 16 18
 -16823025.59908 -13108839.79108  22279710.13308  22279711.27208
 -10534285.38108  -8208527.90308  22141543.09508  22141544.26808
 -19490357.95908 -15187276.10408  21560493.33908  21560492.87608
  -7537819.47208  -5873623.31808  23264348.11908  23264348.24408
  -1384647.74007  -1078944.50607  24990333.17707  24990337.21207
  -1969714.42308  -1534840.18507  24988489.47708  24988493.04207
 -27019312.15409 -21053993.61409  20082367.49409  20082367.43009
 93 07 23 09 43 00.0000000  0  7 24 13 19 16 18 29 22
 -16853813.38008 -13132830.24008  22273851.31608  22273852.54208
  -1151267.09407   -897089.50007  25034743.88907  25034748.23107
 -10718028.41408  -8351704.22208  22106577.88708  22106579.00308
  -2187527.90908  -1704564.74107  24947040.91708  24947044.21007
 -27028877.11409 -21061446.87309  20080547.37309  20080547.36509
 -19355408.28708 -15082120.53108  21586173.46108  21586172.96908
  -7533210.56008  -5870031.93308  23265225.18508  23265225.41608
 93 07 23 09 44 00.0000000  0  7 24 19 29 13 16 18 22
 -16882255.95708 -13154993.24708  22268438.85108  22268440.05908
 -10900421.69308  -8493828.76708  22071869.55708  22071870.71308
 -19219449.10908 -14976178.31008  21612045.59508  21612045.16408
   -917576.90107   -714993.46507  25079213.99507  25079218.35207
  -2405216.94408  -1874192.25607  24905615.83308  24905619.10207
 -27036497.38209 -21067384.75209  20079097.25309  20079097.28209
  -7526292.49808  -5864641.24508  23266541.69308  23266541.80308
 93 07 23 09 45 00.0000000  0  6 24 19 16 18 29 22
 -16908219.96008 -13175224.89008  22263497.99608  22263499.18808
 -11081384.98908  -8634839.04108  22037433.25308  22037434.37808
  -2622714.57807  -2043670.66707  24864226.71107  24864230.38507
 -27042176.35409 -21071809.87609  20078016.52209  20078016.52109
 -19082369.74008 -14869363.19808  21638130.88508  21638130.45908
  -7516931.99908  -5857347.38508  23268322.97608  23268323.04008
 93 07 23 09 46 00.0000000  0  6 24 19 29 16 22 18
 -16931594.52608 -13193438.80408  22259049.99508  22259051.17908
 -11260859.41008  -8774689.12908  22003280.41708  22003281.48008
 -18944079.74208 -14761604.73308  21664446.53108  21664446.10408
  -2839911.66408  -2212914.92108  24822895.59508  24822899.10208
  -7505101.67308  -5848128.95008  23270574.18508  23270574.53308
 -27045988.51309 -21074780.37009  20077291.14409  20077291.09109
 93 07 23 09 47 00.0000000  0  6 24 19 16 18 29 22
 -16952417.98108 -13209664.83308  22255087.42608  22255088.59408
 -11438905.72308  -8913426.36108  21969399.15308  21969400.22908
  -3056758.23208  -2381886.00407  24781630.93408  24781634.12607
 -27047955.29109 -21076312.91509  20076916.85609  20076916.80509
 -18804614.87308 -14652930.81308  21690985.89408  21690985.40708
  -7490874.09808  -5837042.51808  23273281.58208  23273281.72708
 93 07 23 09 48 00.0000000  0  6 24 19 16 29 22 18
 -16970796.38108 -13223985.62008  22251590.03308  22251591.17008
 -11615564.76908  -9051082.59308  21935781.95508  21935783.00908
  -3273182.17808  -2550527.80407  24740446.67608  24740449.65007
 -18663985.56108 -14543349.54108  21717746.72408  21717746.24108
  -7474276.73208  -5824109.49908  23276439.88908  23276440.17108
 -27047979.10209 -21076331.46409  20076912.17809  20076912.18209
 93 07 23 09 49 00.0000000  0  6 24 19 16 18 29 22
 -16986746.41608 -13236414.18808  22248554.85908  22248555.98708
 -11790858.14908  -9187674.69708  21902424.56308  21902425.59908
  -3489272.41908  -2718909.56707  24699325.92908  24699329.07707
 -27046054.21609 -21074831.49009  20077278.56709  20077278.55009
 -18522256.80508 -14432911.52908  21744716.77808  21744716.31608
  -7455312.58708  -5809332.25208  23280048.67608  23280048.95008
 93 07 23 09 50 00.0000000  0  6 24 19 16 29 22 18
 -17000221.65108 -13246914.34908  22245990.56508  22245991.72508
 -11964717.23608  -9323149.21308  21869340.20508  21869341.22308
  -3705134.23808  -2887113.35608  24658248.74308  24658251.54308
 -18379426.60208 -14321615.25808  21771896.43208  21771895.96508
  -7433918.84708  -5792661.76108  23284119.85508  23284119.95708
 -27042234.76209 -21071855.29009  20078005.34809  20078005.34009
 93 07 23 09 51 00.0000000  0  6 24 19 16 18 29 22
 -17011239.99408 -13255500.04208  22243893.84108  22243894.97108
 -12137110.13508  -9457481.25308  21836534.84808  21836535.80808
  -3920725.00808  -3055105.98608  24617222.76508  24617225.95208
 -27036600.89309 -21067465.32009  20079077.44509  20079077.44609
 -18235540.31908 -14209496.08608  21799277.15608  21799276.63108
  -7410041.71608  -5774056.22508  23288663.52808  23288663.60408
 93 07 23 09 52 00.0000000  0  6 24 19 16 29 22 18
 -17019790.95708 -13262163.11108  22242266.66808  22242267.79308
 -12307960.83208  -9590611.52908  21804022.96708  21804023.90908
  -4135894.47808  -3222770.31408  24576277.41408  24576280.33508
 -18090527.73208 -14096499.26808  21826872.08208  21826871.60808
  -7383671.17908  -5753507.76808  23293681.63308  23293681.62308
 -27029082.75009 -21061607.02909  20080508.05609  20080508.07509
 93 07 23 09 53 00.0000000  0  6 24 19 16 18 29 22
 -17025821.76808 -13266862.42108  22241119.06308  22241120.20308
 -12477204.65408  -9722489.74208  21771816.87908  21771817.77008
  -4350591.01308  -3390066.12008  24535421.83408  24535424.72808
 -27019592.28009 -21054211.83509  20082314.02509  20082314.01409
 -17944404.87508 -13982637.31508  21854678.35108  21854677.82608
  -7354911.77708  -5731097.86308  23299154.36708  23299154.51908
 93 07 23 09 54 00.0000000  0  6 24 19 16 29 22 18
 -17029337.99808 -13269602.30608  22240449.88208  22240451.12808
 -12644853.74708  -9853125.32908  21739914.26308  21739915.15608
  -4564852.65808  -3557023.06308  24494649.25508  24494652.10108
 -17797229.11208 -13867954.90308  21882684.94608  21882684.42408
  -7323820.39708  -5706870.81008  23305070.69608  23305071.03908
 -27008165.69309 -21045307.99609  20084488.54209  20084488.49509
 93 07 23 09 55 00.0000000  0  6 24 19 16 18 29 22
 -17030369.08708 -13270405.72608  22240253.66608  22240254.86708
 -12811023.30208  -9982608.05408  21708293.20708  21708294.08908
  -4778725.13208  -3723676.74308  24453950.58808  24453953.16708
 -26994914.58609 -21034982.45209  20087010.13509  20087010.07209
 -17649050.80108 -13752491.27908  21910882.34008  21910881.84008
  -7290405.75408  -5680833.44308  23311429.42408  23311429.61108
 93 07 23 09 56 00.0000000  0  7 24 03 19 16 18 29 22
 -17028952.14908 -13269301.59708  22240523.24208  22240524.42508
        -0.75917        -0.65217  24962601.20517  24962603.69617
 -12975771.44908 -10110983.11208  21676942.62508  21676943.47908
  -4992214.35408  -3890031.76408  24413324.75708  24413327.29008
 -26979908.65709 -21023289.50009  20089865.58809  20089865.54709
 -17499863.41608 -13636241.37408  21939271.81508  21939271.32108
  -7254674.16508  -5652990.63208  23318228.95508  23318229.14908
 93 07 23 09 57 00.0000000  0  7 24 03 19 16 18 29 22
 -17025039.38308 -13266252.65708  22241267.82708  22241268.91808
   -185101.07608   -144234.47907  24927377.60908  24927380.07607
 -13138914.43808 -10238107.46908  21645897.46908  21645898.32908
  -5205243.82808  -4056028.57608  24372786.32508  24372789.12508
 -26963026.16709 -21010134.30509  20093078.30309  20093078.27009
 -17349586.19908 -13519142.25608  21967868.63208  21967868.14708
  -7216512.31508  -5623254.13908  23325490.90508  23325491.18308
 93 07 23 09 58 00.0000000  0  7 24 03 19 16 18 29 22
 -17018679.32408 -13261296.73708  22242478.03508  22242479.17508
   -368216.75508   -286921.90708  24892531.82608  24892534.28208
 -13300357.74208 -10363907.41208  21615175.86708  21615176.69308
  -5417854.98408  -4221699.42208  24332327.64208  24332330.40908
 -26944187.11509 -20995454.45909  20096663.10409  20096663.08809
 -17198208.17708 -13401185.36008  21996674.92108  21996674.43608
  -7175832.19908  -5591555.39508  23333232.08808  23333232.49508
 93 07 23 09 59 00.0000000  0  7 24 03 19 16 18 29 22
 -17009874.06308 -13254435.46308  22244153.64408  22244154.71608
   -549339.24608   -428056.18807  24858065.15908  24858067.72007
 -13460142.41708 -10488414.89208  21584769.79708  21584770.59708
  -5630078.79108  -4387068.42808  24291942.55108  24291945.41108
 -26923350.95309 -20979218.45409  20100628.05809  20100628.00309
 -17045793.88908 -13282420.98308  22025678.34208  22025677.90608
  -7132664.05608  -5557917.91208  23341446.82508  23341447.08308
 93 07 23 10 00 00.0000000  0  7 24 03 19 16 18 29 22
 -16998572.79508 -13245629.26608  22246304.25508  22246305.33208
   -728483.19507   -567648.72407  24823974.78007  24823977.35307
 -13618389.09808 -10611723.93508  21554656.47908  21554657.16608
  -5841871.58108  -4552101.57408  24251639.55108  24251642.33908
 -26900593.54309 -20961485.37709  20104958.70009  20104958.65909
 -16892406.70308 -13162898.49008  22054866.94608  22054866.53108
  -7087175.61808  -5522472.39008  23350102.96408  23350103.18908
 93 07 23 10 01 00.0000000  0  7 24 03 19 16 18 29 22
 -16984696.15108 -13234816.26908  22248944.85908  22248945.96408
   -905610.96808   -705670.30108  24790268.71908  24790271.12408
 -13775079.16709 -10733820.06208  21524839.32309  21524840.01308
  -6053088.85108  -4716686.28308  24211445.99708  24211448.91508
 -26875965.69709 -20942294.82509  20109645.18709  20109645.11109
 -16738027.61108 -13042603.11208  22084244.42908  22084243.92008
  -7039435.52308  -5485272.34608  23359187.63908  23359187.75608
 93 07 23 10 02 00.0000000  0  7 24 03 19 16 18 29 22
 -16968255.52208 -13222005.38808  22252073.39508  22252074.43708
  -1080661.76908   -842073.41708  24756957.42108  24756959.99508
 -13930075.18109 -10854596.14208  21495344.54409  21495345.18008
  -6263670.66208  -4880775.80808  24171373.53008  24171376.34308
 -26849421.01609 -20921610.64009  20114696.44809  20114696.38809
 -16582614.97108 -12921502.35308  22113818.37008  22113817.87808
  -6989339.67508  -5446236.63808  23368720.53708  23368720.87308
 93 07 23 10 03 00.0000000  0  7 24 03 19 16 18 29 22
 -16949336.55108 -13207263.33708  22255673.58508  22255674.55208
  -1253659.31008   -976876.56508  24724036.89408  24724039.64808
 -14083386.93309 -10974059.80708  21466170.23709  21466170.90308
  -6473748.73108  -5044472.83108  24131396.81608  24131399.63408
 -26820965.74709 -20899437.69709  20120111.30509  20120111.29009
 -16426232.17108 -12799645.63008  22143577.08208  22143576.63308
  -6936849.57708  -5405335.32308  23378709.11308  23378709.40608
 93 07 23 10 04 00.0000000  0  7 19 24 03 16 18 29 22
 -14235066.34809 -11092251.49308  21437306.54709  21437307.16808
 -16928011.67908 -13190646.52808  22259731.59808  22259732.57608
  -1424606.99208  -1110082.43308  24691506.61708  24691509.19508
  -6683371.68208  -5207815.22808  24091506.83608  24091509.67608
 -26790701.99009 -20875855.49809  20125870.28709  20125870.24809
 -16268952.07108 -12677089.68008  22173506.49008  22173505.94608
  -6881993.04008  -5362589.99108  23389148.03308  23389148.34608
 93 07 23 10 05 00.0000000  0  7 19 24 03 16 18 29 22
 -14385026.57609 -11209103.55408  21408769.97509  21408770.66108
 -16904227.32108 -13172113.23608  22264257.52808  22264258.50808
  -1593425.58308  -1241629.29608  24659381.63108  24659383.77808
  -6892398.33708  -5370692.96008  24051730.14008  24051733.00508
 -26758646.18809 -20850876.90909  20131970.30009  20131970.21409
 -16110701.15008 -12553777.24108  22203620.60708  22203620.04708
  -6824770.05408  -5318000.72108  23400037.12808  23400037.52108
 93 07 23 10 06 00.0000000  0  7 19 24 03 16 18 29 22
 -14533248.18109 -11324600.86408  21380564.32809  21380564.99108
 -16878015.00608 -13151688.06208  22269245.57008  22269246.51008
  -1760117.30208  -1371518.82808  24627661.08508  24627663.30508
  -7100791.40908  -5533077.00508  24012074.18608  24012076.95208
 -26724813.71009 -20824513.91309  20138408.29709  20138408.24209
 -15951437.50808 -12429675.67308  22233927.42208  22233926.87108
  -6765249.94308  -5271621.47508  23411363.64808  23411363.98108
 93 07 23 10 07 00.0000000  0  8 19 24 27 03 16 18 29 22
 -14679737.97709 -11438748.67308  21352688.20709  21352688.92108
 -16849403.84308 -13129393.63508  22274690.16408  22274691.09608
         0.47618         0.20618  23902151.86218  23902153.38518
  -1924650.84708  -1499726.64608  24596351.39908  24596353.43308
  -7308583.93208  -5694993.08108  23972532.41508  23972535.05608
 -26689185.25609 -20796751.48709  20145188.17009  20145188.08409
 -15791194.93008 -12304811.29208  22264420.53508  22264420.05408
  -6703455.96408  -5223470.34608  23423122.63108  23423122.99108
 93 07 23 10 08 00.0000000  0  8 19 24 27 03 16 18 29 22
 -14824509.51609 -11551557.61508  21325139.06009  21325139.76008
 -16818270.50508 -13105133.88108  22280614.61708  22280615.52208
   -229533.40608   -178857.23408  23858472.83708  23858474.36408
  -2086925.54608  -1626174.33508  24565471.43808  24565473.42408
  -7515751.15508  -5856421.92908  23933109.89608  23933112.34308
 -26651665.59209 -20767515.37309  20152327.90009  20152327.84409
 -15629985.52408 -12179193.57508  22295097.58208  22295097.02608
  -6639318.89308  -5173493.44608  23435327.47308  23435327.87408
 93 07 23 10 09 00.0000000  0  8 19 24 27 03 16 18 29 22
 -14967592.16509 -11663050.56508  21297911.27509  21297911.96208
 -16784656.07408 -13078940.81108  22287011.28208  22287012.10108
   -458519.32108   -357287.67908  23814898.17808  23814899.62008
  -2246956.64208  -1750873.81008  24535018.24208  24535020.66808
  -7722324.44208  -6017387.94908  23893800.17908  23893802.48508
 -26612235.98209 -20736790.98509  20159831.08809  20159831.00309
 -15467896.78008 -12052890.63408  22325942.01508  22325941.42308
  -6572871.69708  -5121716.47208  23447972.07608  23447972.31708
 93 07 23 10 10 00.0000000  0  8 19 24 27 03 16 18 29 22
 -15108900.81709 -11773161.15208  21271021.09409  21271021.80208
 -16748548.34308 -13050804.91208  22293882.27208  22293883.19908
   -686953.12008   -535287.89708  23771428.58108  23771429.97508
  -2404705.33208  -1873794.79508  24504999.50908  24505002.00908
  -7928244.37808  -6177844.87508  23854614.73708  23854617.07808
 -26570833.67509 -20704529.43809  20167709.74909  20167709.65709
 -15304899.68908 -11925879.90208  22356959.42508  22356958.90108
  -6504082.91308  -5068114.83608  23461062.23308  23461062.61308
 93 07 23 10 11 00.0000000  0  8 19 24 27 03 16 18 29 22
 -15248377.05409 -11881843.88308  21244479.54909  21244480.26808
 -16709959.85808 -13020735.95908  22301225.38108  22301226.34308
   -914806.74808   -712836.04208  23728069.42608  23728070.75908
  -2560167.95508  -1994934.43108  24475415.95608  24475418.21908
  -8133450.84008  -6337745.84208  23815565.22608  23815567.33708
 -26527509.22109 -20670770.12009  20175954.11809  20175954.05109
 -15140992.90008 -11798160.31908  22388149.78808  22388149.30808
  -6432941.62008  -5012680.10608  23474599.90808  23474600.21308
 93 07 23 10 12 00.0000000  0  8 19 24 27 03 16 18 29 22
 -15386070.33409 -11989137.31608  21218277.41409  21218278.11608
 -16668937.25208 -12988770.28308  22309031.69908  22309032.75708
  -1142101.57608   -889948.74008  23684816.53708  23684817.80608
  -2713355.48308  -2114301.25008  24446265.32808  24446267.37808
  -8337951.67208  -6497096.96308  23776649.80108  23776651.90308
 -26482398.24409 -20635618.70309  20184538.40709  20184538.35009
 -14976221.74408 -11669767.20408  22419504.71408  22419504.23008
  -6359496.48008  -4955450.14808  23488576.07808  23488576.34808
 93 07 23 10 13 00.0000000  0  8 19 24 27 03 16 18 29 22
 -15522011.13709 -12095065.16808  21192408.67909  21192409.39608
 -16625582.55608 -12954987.40108  22317281.81208  22317282.92208
  -1368828.61908  -1066619.06008  23641671.76908  23641673.05608
  -2864241.29208  -2231874.52408  24417552.70308  24417554.67208
  -8541807.86208  -6655945.78008  23737857.10308  23737859.12008
 -26435598.53809 -20599151.43309  20193444.14709  20193444.11709
 -14810591.82408 -11540704.93208  22451023.02608  22451022.57808
  -6283802.64908  -4896468.00208  23502979.97608  23502980.47208
 93 07 23 10 14 00.0000000  0  8 19 24 27 03 16 18 29 22
 -15656166.47609 -12199601.73108  21166879.72609  21166880.49408
 -16579885.49508 -12919379.28308  22325977.68408  22325978.83708
  -1594945.76308  -1242814.07708  23598642.94608  23598644.16608
  -3012757.46308  -2347601.31108  24389290.83708  24389293.09308
  -8745021.63508  -6814294.01408  23699186.76408  23699188.69408
 -26387057.63109 -20561327.37509  20202681.13709  20202681.14009
 -14644065.93308 -11410944.48808  22482711.90308  22482711.38108
  -6205934.08208  -4835791.22408  23517798.04608  23517798.40508
 93 07 23 10 15 00.0000000  0  8 19 24 27 03 16 18 29 22
 -15788448.16409 -12302678.29508  21141707.22609  21141707.94108
 -16531747.00408 -12881868.76608  22335138.04808  22335139.25908
  -1820445.93208  -1418528.31808  23555731.55408  23555732.68808
  -3158852.95608  -2461441.86608  24361489.61508  24361492.06308
  -8947460.21608  -6972038.20408  23660663.80008  23660665.58208
 -26336686.92409 -20522077.46109  20212266.37009  20212266.37609
 -14476638.42008 -11280481.50108  22514572.35208  22514571.79708
  -6125846.30008  -4773385.21908  23533038.16908  23533038.56208
 93 07 23 10 16 00.0000000  0  8 19 24 27 03 16 18 29 22
 -15918797.63209 -12404249.28608  21116902.51409  21116903.23608
 -16481161.37108 -12842451.37908  22344764.20508  22344765.41108
  -2045314.29808  -1593750.21808  23512940.33008  23512941.49408
  -3302510.29608  -2573382.54108  24334152.45908  24334154.76608
  -9149030.14508  -7129105.54008  23622306.23708  23622307.97708
 -26284452.27009 -20481375.09309  20222206.29309  20222206.28709
 -14308332.06508 -11149333.68908  22546599.99708  22546599.40908
  -6043416.19408  -4709154.02108  23548724.10408  23548724.60808
 93 07 23 10 17 00.0000000  0  8 19 24 27 03 16 18 29 22
 -16047250.67609 -12504342.56008  21092458.80209  21092459.44908
 -16428116.28808 -12801117.55908  22354858.37208  22354859.55108
  -2269506.93808  -1768445.57608  23470277.70508  23470278.82908
  -3443722.22508  -2683417.72708  24307280.70208  24307283.06108
  -9349754.76308  -7285514.18208  23584109.42908  23584111.17108
 -26230344.29609 -20439212.99809  20232502.64509  20232502.64209
 -14139179.99508 -11017526.87308  22578788.59008  22578787.94908
  -5958677.90208  -4643124.24008  23564849.41208  23564849.94208
 93 07 23 10 18 00.0000000  0  8 19 24 27 03 16 18 29 22
 -16173852.41609 -12602993.24008  21068367.31709  21068367.85608
 -16372645.56208 -12757893.61208  22365414.15108  22365415.40208
  -2492990.94908  -1942588.87608  23427750.13908  23427751.23108
  -3582495.69208  -2791552.81008  24280873.02708  24280875.06908
  -9549735.94808  -7441343.52808  23546054.10608  23546055.90008
 -26174413.53909 -20395630.57509  20243145.97409  20243145.93809
 -13969173.77108 -10885054.49408  22611139.67208  22611139.18908
  -5871765.66608  -4575400.44608  23581388.32108  23581388.79008
 93 07 23 10 19 00.0000000  0  8 19 24 27 03 16 18 29 22
 -16298593.90009 -12700194.37908  21044629.84609  21044630.30808
 -16314814.81808 -12712830.69608  22376418.95108  22376420.11208
  -2715727.96908  -2116150.03808  23385364.63508  23385365.62408
  -3718814.58508  -2897775.26908  24254932.26308  24254934.39808
  -9748974.65108  -7596594.32508  23508140.16508  23508141.95008
 -26116700.88609 -20350659.70509  20254128.25009  20254128.19809
 -13798236.59008 -10751856.69908  22643667.91508  22643667.46508
  -5782755.29508  -4506041.77408  23598326.54208  23598326.90708
 93 07 23 10 20 00.0000000  0  8 19 24 27 03 16 18 29 22
 -16421486.81709 -12795955.08608  21021244.15209  21021244.60208
 -16254707.27208 -12665993.66108  22387857.07708  22387858.15408
  -2937692.46108  -2289109.28908  23343126.10308  23343127.02608
  -3852662.70508  -3002072.40408  24229461.85808  24229463.97508
  -9947426.54508  -7751232.01308  23470376.06408  23470377.75308
 -26057250.99609 -20304335.10709  20265441.16109  20265441.13809
 -13626437.65508 -10617987.37608  22676360.10008  22676359.60908
  -5691596.55408  -4435009.05608  23615673.56908  23615673.83708
 93 07 23 10 21 00.0000000  0  8 19 24 27 03 16 18 29 22
 -16542505.28409 -12890255.20708  20998215.02109  20998215.54508
 -16192279.80508 -12617348.90308  22399736.65408  22399737.67108
  -3158901.91908  -2461480.19708  23301031.19108  23301032.13508
  -3983980.24108  -3104397.73008  24204473.13508  24204475.01908
 -10145025.29208  -7905204.92408  23432774.15108  23432775.72308
 -25996004.57609 -20256610.63709  20277096.03409  20277095.99309
 -13453884.68908 -10483530.48508  22709195.83308  22709195.32108
  -5598173.46108  -4362211.89508  23633451.20108  23633451.84008
 93 07 23 10 22 00.0000000  0  8 24 27 03 19 16 18 29 22
 -16127492.06408 -12566864.96608  22412065.36108  22412066.30108
  -3379409.30008  -2633303.99908  23259069.97608  23259070.83608
  -4112729.78608  -3204722.00008  24179972.87608  24179974.70008
 -16661605.20809 -12983060.35308  20975551.02609  20975551.63108
 -10341762.87608  -8058506.79608  23395336.20108  23395337.65008
 -25932963.25409 -20207487.51909  20289092.38209  20289092.30309
 -13280583.53108 -10348490.61708  22742173.90208  22742173.52608
  -5502509.92308  -4287668.92808  23651655.45108  23651655.92408
 93 07 23 10 23 00.0000000  0  8 24 27 03 19 16 18 29 22
 -16060386.80208 -12514575.17208  22424835.12608  22424836.04108
  -3599193.02408  -2804563.98108  23217246.48208  23217247.33208
  -4238896.66608  -3303033.78108  24155963.89808  24155965.84008
 -16778746.23409 -13074339.06608  20953259.83009  20953260.44808
 -10537618.04408  -8211121.07008  23358066.00808  23358067.53908
 -25868145.54909 -20156980.22609  20301426.78209  20301426.73809
 -13106460.81408 -10212810.58708  22775308.35508  22775307.95508
  -5404705.12808  -4211457.48008  23670267.24508  23670267.78008
 93 07 23 10 24 00.0000000  0  8 24 27 03 19 16 18 29 22
 -15991027.81108 -12460529.22808  22438033.75408  22438034.55608
  -3818185.46308  -2975207.34508  23175573.53608  23175574.46308
  -4362464.94908  -3399320.69208  24132449.61408  24132451.70108
 -16893958.40109 -13164114.74208  20931335.64109  20931336.27408
 -10732532.82208  -8363002.57608  23320974.90608  23320976.29408
 -25801559.40209 -20105094.92409  20314097.81709  20314097.71009
 -12931554.00408 -10076519.56708  22808592.01508  22808591.55108
  -5304813.23408  -4133619.68608  23689276.03408  23689276.75008
 93 07 23 10 25 00.0000000  0  8 24 27 03 19 16 18 29 22
 -15919390.38608 -12404707.88108  22451665.84208  22451666.73708
  -4036370.99208  -3145222.00408  23134054.20308  23134055.17808
  -4483429.71108  -3493578.91208  24109430.80108  24109432.69408
 -17007301.61709 -13252434.11208  20909767.09909  20909767.75908
 -10926485.82508  -8514134.65608  23284066.86808  23284068.10208
 -25733243.08509 -20051861.43609  20327097.94009  20327097.83909
 -12755972.61308  -9939702.89208  22842003.96708  22842003.59408
  -5202888.40908  -4054197.76508  23708671.69808  23708672.22408
 93 07 23 10 26 00.0000000  0  8 24 27 03 19 16 18 29 22
 -15845366.42308 -12347026.89908  22465752.10008  22465753.16208
  -4253656.72608  -3314535.56008  23092705.93108  23092706.97708
  -4601718.73808  -3585752.09708  24086921.17208  24086922.97208
 -17118661.22209 -13339207.80208  20888576.09409  20888576.74008
 -11119474.90208  -8664515.63108  23247342.12208  23247343.37708
 -25663133.35109 -19997230.46509  20340439.31209  20340439.23609
 -12579649.23508  -9802308.04908  22875557.23508  22875556.77008
  -5098866.91108  -3973142.12208  23728466.37708  23728466.91508
 93 07 23 10 27 00.0000000  0  8 24 27 03 19 16 18 29 22
 -15768878.71308 -12287426.09908  22480307.15708  22480308.36108
  -4470008.81708  -3483121.55308  23051535.45108  23051536.47108
  -4717291.70908  -3675808.85808  24064928.02208  24064930.13308
 -17227962.35909 -13424377.49508  20867776.78109  20867777.38108
 -11311506.72008  -8814150.69208  23210799.50108  23210800.82808
 -25591190.29309 -19941170.93909  20354129.59609  20354129.55909
 -12402473.02708  -9664248.66708  22909272.83408  22909272.30908
  -4992656.10508  -3890380.55508  23748677.76508  23748678.24808
 93 07 23 10 28 00.0000000  0  8 24 27 03 19 16 18 29 22
 -15690051.10908 -12226002.01708  22495307.55908  22495308.90108
  -4685559.83708  -3651083.30308  23010517.37708  23010518.41608
  -4830222.17408  -3763806.54308  24043437.75108  24043439.92408
 -17335355.24709 -13508060.22008  20847340.60009  20847341.17308
 -11502605.96008  -8963059.06408  23174434.41508  23174435.86108
 -25517507.27209 -19883755.58409  20368151.01809  20368150.98809
 -12224476.82008  -9525550.32408  22943144.36908  22943143.86808
  -4884250.78908  -3805908.95808  23769306.63908  23769307.25408
 93 07 23 10 29 00.0000000  0  8 24 27 03 19 16 18 29 22
 -15608979.53608 -12162829.36908  22510734.95708  22510736.34208
  -4900365.67708  -3818464.37408  22969641.17608  22969642.16608
  -4940504.85308  -3849741.01208  24022451.68708  24022453.67408
 -17440919.36109 -13590317.93708  20827252.40409  20827252.91508
 -11692756.84508  -9111228.46508  23138249.71508  23138251.14108
 -25442187.88609 -19825065.13709  20382483.87109  20382483.82509
 -12045696.69208  -9386241.16408  22977165.13508  22977164.61708
  -4773763.72608  -3719815.21608  23790331.76408  23790332.46208
 93 07 23 10 30 00.0000000  0  8 24 27 03 19 16 18 29 22
 -15525724.56408 -12097955.37708  22526577.99808  22526579.32708
  -5114339.02708  -3985196.78608  22928923.37308  22928924.39108
  -5048085.17108  -3933569.78908  24001980.02508  24001982.03608
 -17544539.18109 -13671060.62408  20807534.12609  20807534.62808
 -11881932.65708  -9258638.06408  23102250.64108  23102252.06908
 -25365160.66009 -19765043.91909  20397141.73309  20397141.69209
 -11866133.13008  -9246321.52408  23011334.91608  23011334.38808
  -4661273.18708  -3632160.34908  23811738.11608  23811738.89608
 93 07 23 10 31 00.0000000  0  8 24 27 03 19 16 18 29 22
 -15440318.09008 -12031404.90408  22542830.41608  22542831.62008
  -5327339.97508  -4151171.45908  22888390.53508  22888391.55108
  -5152915.48308  -4015255.66308  23982031.38608  23982033.49508
 -17646040.67309 -13750152.65808  20788219.01609  20788219.52208
 -12070058.95708  -9405229.86308  23066451.36708  23066452.70808
 -25286319.45109 -19703609.21709  20412144.66309  20412144.63509
 -11685841.45508  -9105834.52108  23045643.37508  23045642.72408
  -4546787.12908  -3542950.58108  23833524.21608  23833524.99508
 93 07 23 10 32 00.0000000  0  8 24 27 03 19 16 18 29 22
 -15352717.59708 -11963144.80808  22559500.20008  22559501.33108
  -5539355.56708  -4316378.27108  22848045.09708  22848046.24008
  -5255001.90708  -4094803.43508  23962604.95208  23962606.78808
 -17745425.83909 -13827595.62508  20769306.58009  20769307.08908
 -12257085.62308  -9550964.81208  23030861.26308  23030862.63008
 -25205719.81309 -19640804.28108  20427482.21709  20427482.17208
 -11504987.69908  -8964909.51108  23080058.68708  23080058.03408
  -4430322.23008  -3452198.81108  23855686.74608  23855687.38908
 93 07 23 10 33 00.0000000  0  8 24 27 03 19 16 18 29 22
 -15262858.47208 -11893124.74308  22576599.92008  22576600.94908
  -5750390.31808  -4480820.86308  22807886.50708  22807887.59608
  -5354322.13908  -4172195.73908  23943705.02308  23943706.57408
 -17842821.73709 -13903488.48008  20750772.70809  20750773.20208
 -12443006.13708  -9695837.82508  22995481.67608  22995482.98508
 -25123382.36409 -19576645.23108  20443150.52409  20443150.46708
 -11323581.31908  -8823553.91208  23114579.23908  23114578.62808
  -4311878.24808  -3359904.85108  23878225.83308  23878226.62208
 93 07 23 10 34 00.0000000  0  8 24 27 03 19 16 18 29 22
 -15170790.53608 -11821383.51408  22594119.88608  22594120.88908
  -5960528.92708  -4644565.15308  22767898.30308  22767899.46908
  -5450859.87908  -4247419.87608  23925334.24808  23925336.04508
 -17938282.74209 -13977873.61508  20732607.05209  20732607.51508
 -12627865.44508  -9839883.93108  22960304.13608  22960305.41708
 -25039357.35309 -19511171.18308  20459139.89609  20459139.83308
 -11141490.41908  -8681664.92208  23149229.97508  23149229.43908
  -4191448.66708  -3266063.67308  23901142.92508  23901143.84308
 93 07 23 10 35 00.0000000  0  8 24 27 03 19 16 18 29 22
 -15076564.07408 -11747960.32608  22612050.60108  22612051.69908
  -6169787.18608  -4807623.40108  22728077.67708  22728078.88108
  -5544593.42708  -4320458.94108  23907497.22108  23907499.11708
 -18031753.76609 -14050708.09408  20714820.10509  20714820.55608
 -12811628.09708  -9983075.49908  22925335.21808  22925336.46808
 -24953664.40909 -19444397.46108  20475446.80309  20475446.70808
 -10958589.82508  -8539144.98908  23184034.75508  23184034.24908
  -4068963.75508  -3170620.96108  23924451.15408  23924451.90808
 93 07 23 10 36 00.0000000  0  8 24 27 03 19 16 18 29 22
 -14980162.42108 -11672842.19208  22630395.14608  22630396.25508
  -6378054.58308  -4969909.52708  22688445.61908  22688446.74108
  -5635477.33608  -4391277.50808  23890202.65108  23890204.64508
 -18123122.64809 -14121904.59008  20697433.16109  20697433.62608
 -12994221.60708 -10125356.04908  22890588.79108  22890589.91508
 -24866300.53709 -19376321.70808  20492071.61009  20492071.48208
 -10774860.38108  -8395979.22008  23218997.35208  23218996.83708
  -3944409.09808  -3073565.49508  23948153.30708  23948154.01208
 93 07 23 10 37 00.0000000  0  8 24 27 03 19 16 18 29 22
 -14881644.41708 -11596074.95308  22649142.52108  22649143.57608
  -6585302.57308  -5131401.35608  22649007.47508  22649008.54408
  -5723542.28308  -4459899.47508  23873444.46008  23873446.39608
 -18212467.32609 -14191523.81608  20680431.44909  20680431.92008
 -13175756.79208 -10266811.93408  22856043.71508  22856044.75808
 -24777318.14809 -19306984.77108  20509004.32309  20509004.26208
 -10590494.69308  -8252317.65708  23254081.05008  23254080.51008
  -3817953.45008  -2975028.72408  23972216.88608  23972217.71408
 93 07 23 10 38 00.0000000  0  8 24 27 03 19 16 18 29 22
 -14781044.78508 -11517685.66708  22668285.99908  22668287.08508
  -6791540.35108  -5292105.99608  22609761.72108  22609762.67708
  -5808776.59608  -4526315.75808  23857224.85208  23857226.54708
 -18299813.17209 -14259585.51608  20663810.06309  20663810.52508
 -13356242.17208 -10407449.79708  22821698.37208  22821699.51808
 -24686749.79109 -19236412.01708  20526238.85309  20526238.86508
 -10405557.97808  -8108211.12308  23289273.35008  23289272.89108
  -3689661.61808  -2875061.15408  23996629.99908  23996631.01808
 93 07 23 10 39 00.0000000  0  8 24 27 03 19 16 18 29 22
 -14678337.76008 -11437654.25508  22687830.46408  22687831.52608
  -6996724.38608  -5451989.51308  22570716.35608  22570717.23208
  -5891112.53908  -4590473.58408  23841556.80508  23841558.54208
 -18385080.18209 -14326027.31408  20647584.26909  20647584.71008
 -13535528.15908 -10547153.07508  22787581.36708  22787582.48608
 -24594515.04109 -19164540.77208  20543790.56109  20543790.52808
 -10219942.62408  -7963575.81208  23324594.68408  23324594.27708
  -3559433.71808  -2773584.95408  24021411.62008  24021412.51508
 93 07 23 10 40 00.0000000  0  8 24 27 03 19 16 18 29 22
 -14573438.09708 -11355914.31908  22707792.26908  22707793.33508
  -7200794.56808  -5611005.13808  22531883.03708  22531883.84408
  -5970516.63008  -4652346.83808  23826446.54208  23826448.40308
 -18468192.31009 -14390789.99008  20631768.51209  20631768.97608
 -13713512.56508 -10685842.13908  22753712.03808  22753713.10808
 -24500467.76309 -19091257.17908  20561687.18509  20561687.13908
 -10033601.70608  -7818375.12208  23360054.17608  23360053.82808
  -3427250.34908  -2670585.00508  24046565.41108  24046566.30108
 93 07 23 10 41 00.0000000  0  8 24 27 03 19 16 18 29 22
 -14466348.33708 -11272467.80208  22728170.84108  22728172.02208
  -7403748.36508  -5769150.86408  22493262.15908  22493262.97208
  -6047022.48108  -4711961.75508  23811888.07808  23811889.70508
 -18549217.61509 -14453926.55808  20616349.89009  20616350.36508
 -13890294.92308 -10823594.54208  22720071.26908  22720072.43108
 -24404643.55209 -19016588.94308  20579921.92109  20579921.83908
  -9846652.40308  -7672700.35608  23395629.40908  23395629.12208
  -3293241.73608  -2566162.81808  24072066.47108  24072067.47008
 93 07 23 10 42 00.0000000  0  8 24 27 03 19 16 18 29 22
 -14357197.37708 -11187415.14708  22748941.60608  22748942.85708
  -7605627.48908  -5926459.19408  22454845.81808  22454846.51208
  -6120640.54008  -4769326.42208  23797878.93308  23797880.65308
 -18628222.90309 -14515489.09108  20601315.60009  20601316.05308
 -14065913.35108 -10960439.97908  22686652.18708  22686653.36008
 -24307198.16309 -18940657.47308  20598465.17409  20598465.11308
  -9659156.75508  -7526599.85908  23431308.66508  23431308.41008
  -3157462.58308  -2460361.01708  24097904.61708  24097905.53208
 93 07 23 10 43 00.0000000  0  8 24 27 03 19 16 18 29 22
 -14246097.51708 -11100843.87708  22770083.26408  22770084.59408
  -7806518.05408  -6082997.21008  22416617.55008  22416618.22508
  -6191376.16108  -4824445.04208  23784418.39208  23784420.06708
 -18705218.04509 -14575485.26008  20586663.90809  20586664.34108
 -14240287.86208 -11096316.13408  22653469.69208  22653470.86308
 -24208233.40609 -18863542.08708  20617297.47309  20617297.44108
  -9471081.64208  -7380047.84408  23467098.08408  23467097.81508
  -3019921.75108  -2353186.46508  24124077.77108  24124078.69608
 93 07 23 10 44 00.0000000  0  8 24 27 03 19 16 18 29 22
 -14133000.80808 -11012716.65108  22791604.86708  22791606.30408
  -8006385.80408  -6238738.21508  22378583.92508  22378584.63308
  -6259178.66308  -4877278.12408  23771515.92508  23771517.61608
 -18780138.35009 -14633864.70008  20572407.05809  20572407.47508
 -14413345.83908 -11231166.41708  22620537.77408  22620538.96208
 -24107754.19209 -18785246.60108  20636418.11309  20636418.05908
  -9282370.19808  -7232999.97308  23503008.77108  23503008.44508
  -2880532.35508  -2244571.49508  24150602.74908  24150603.71708
 93 07 23 10 45 00.0000000  0  8 24 27 03 19 16 18 29 22
 -14017841.79708 -10922982.40608  22813518.93808  22813520.33608
  -8205112.34708  -6393589.94708  22340767.42908  22340768.09408
  -6324000.17908  -4927788.36908  23759180.80008  23759182.61808
 -18852925.55609 -14690581.96908  20558556.07509  20558556.52808
 -14585100.73308 -11365001.32208  22587853.89608  22587854.89208
 -24005715.24509 -18705735.70008  20655835.39309  20655835.35308
  -9093016.82708  -7085451.90108  23539041.58708  23539041.14808
  -2739240.99408  -2134474.48208  24177489.83508  24177490.67808
 93 07 23 10 46 00.0000000  0  8 24 27 03 19 16 18 29 22
 -13900678.32108 -10831686.26108  22835814.52608  22835815.77208
  -8402585.17108  -6547464.74108  22303189.47908  22303190.15008
  -6385834.42908  -4975970.84408  23747413.99108  23747415.79208
 -18923546.35209 -14745611.14108  20545117.35609  20545117.81208
 -14755537.09408 -11497808.80208  22555420.94708  22555421.92908
 -23902016.62709 -18624931.56308  20675568.52209  20675568.50808
  -8903067.35708  -6937439.32108  23575187.71008  23575187.26808
  -2596102.28108  -2022937.91808  24204728.17008  24204729.24608
 93 07 23 10 47 00.0000000  0  8 24 27 03 19 16 18 29 22
 -13781640.49808 -10738929.64408  22858466.82208  22858468.00908
  -8598859.57608  -6700405.75208  22265839.64808  22265840.35108
  -6444706.34108  -5021845.03508  23736211.06208  23736212.65708
 -18992015.45509 -14798963.67008  20532088.08009  20532088.50008
 -14924638.29008 -11629575.89608  22523241.96408  22523242.91208
 -23796600.07809 -18542788.79708  20695628.69709  20695628.60408
  -8712583.58508  -6789010.41908  23611435.59408  23611435.08108
  -2451234.78908  -1910054.28408  24232295.65508  24232296.82208
 93 07 23 10 48 00.0000000  0  8 24 27 03 19 16 18 29 22
 -13660710.28608 -10644698.37608  22881479.12808  22881480.31708
  -8794024.04208  -6852481.91508  22228701.07508  22228701.75008
  -6500599.36108  -5065398.01408  23725574.94908  23725576.56108
 -19058418.79609 -14850706.50208  20519451.87209  20519452.27308
 -15092390.03608 -11760291.47608  22491319.84308  22491320.88808
 -23689546.48309 -18459370.40308  20716000.36209  20716000.24308
  -8521552.72108  -6640155.22608  23647787.52708  23647787.05208
  -2304711.98008  -1795880.75908  24260178.15708  24260179.34008
 93 07 23 10 49 00.0000000  0  8 24 27 03 19 16 18 29 22
 -13537809.18908 -10548931.38008  22904866.43308  22904867.66508
  -8988012.53608  -7003641.73208  22191786.25008  22191786.87208
  -6553475.73708  -5106600.32408  23715512.85008  23715514.31008
 -19122780.08109 -14900858.14308  20507204.45409  20507204.79008
 -15258749.15908 -11889921.89908  22459662.64508  22459663.75908
 -23580961.80109 -18374758.95708  20736663.28709  20736663.17508
  -8329933.70008  -6490841.70108  23684251.45508  23684250.83208
  -2156448.45108  -1680350.82108  24288391.72108  24288393.02208
 93 07 23 10 50 00.0000000  0  8 24 27 03 19 16 18 29 22
 -13412928.29408 -10451621.71408  22928630.60008  22928631.86608
  -9180736.64208  -7153816.24108  22155111.96508  22155112.54808
  -6603336.56208  -5145452.85908  23706024.49808  23706026.10708
 -19184999.60809 -14949340.88208  20495364.46209  20495364.81808
 -15423659.56508 -12018423.45108  22428281.11108  22428282.26208
 -23470789.37309 -18288910.30708  20757628.35309  20757628.27708
  -8137720.45708  -6341065.15408  23720828.47108  23720827.92208
  -2006426.92808  -1563451.02008  24316940.08308  24316941.16708
 93 07 23 10 51 00.0000000  0  8 24 27 03 19 16 18 29 22
 -13286056.61708 -10352760.76308  22952773.51008  22952774.84408
  -9372216.71508  -7303021.39208  22118674.53208  22118675.00208
  -6650177.57708  -5181952.31908  23697111.06308  23697112.60108
 -19245002.47909 -14996096.33808  20483946.23209  20483946.61508
 -15587087.27308 -12145769.65808  22397181.80708  22397182.95508
 -23358947.93909 -18201761.16708  20778911.17709  20778911.10408
  -7944901.46808  -6190816.59508  23757520.70408  23757520.16708
  -1854714.38908  -1445233.52308  24345810.05808  24345810.98308
 93 07 23 10 52 00.0000000  0  8 24 27 03 19 16 18 29 22
 -13157308.69508 -10252437.84108  22977273.47208  22977274.79708
  -9562512.27308  -7451303.56408  22082462.42508  22082462.87308
  -6694036.73208  -5216128.26408  23688764.93008  23688766.69208
 -19302889.25609 -15041202.88908  20472930.72709  20472931.11708
 -15749134.98708 -12272040.54408  22366345.11808  22366346.20708
 -23245568.81009 -18113413.79708  20800486.42309  20800486.31908
  -7751533.54508  -6040140.31808  23794317.43208  23794316.89608
  -1701435.61808  -1325795.61608  24374978.13008  24374979.07108
 93 07 23 10 53 00.0000000  0  8 24 27 03 19 16 18 29 22
 -13026736.29708 -10150693.23208  23002120.63308  23002121.91908
  -9751578.54508  -7598627.83008  22046484.21608  22046484.52708
  -6734912.23708  -5247979.27008  23680986.49808  23680988.47908
 -19358678.10909 -15084674.70808  20462314.43409  20462314.83808
 -15909863.26308 -12397283.30508  22335759.60408  22335760.56708
 -23130788.02609 -18023974.20308  20822328.52309  20822328.38708
  -7557686.50508  -5889090.68408  23831205.35708  23831204.73108
  -1546606.02008  -1205149.30808  24404441.13108  24404442.31508
 93 07 23 10 54 00.0000000  0  8 24 27 03 19 16 18 29 22
 -12894338.73908 -10047526.36408  23027315.21908  23027316.35708
  -9939338.75808  -7744934.42408  22010754.60508  22010754.91508
  -6772755.11208  -5277467.21008  23673785.30908  23673787.14308
 -19412318.75909 -15126472.59708  20452106.97709  20452107.37508
 -16069160.47108 -12521410.94408  22305446.28008  22305447.24108
 -23014564.86909 -17933410.74908  20844445.13709  20844444.98808
  -7363382.15108  -5737684.73308  23868180.30708  23868179.61008
  -1390125.22308  -1083216.28108  24434218.43008  24434219.66608
 93 07 23 10 55 00.0000000  0  8 24 27 03 19 16 18 29 22
 -12760138.55708  -9942954.90908  23052852.78008  23052853.93408
 -10125850.70008  -7890268.32008  21975262.48208  21975262.79208
  -6807536.95308  -5304569.92308  23667166.50108  23667168.27908
 -19463853.23609 -15166629.32308  20442300.24809  20442300.64108
 -16226919.51908 -12644340.02408  22275425.75708  22275426.67808
 -22896794.83509 -17841641.88808  20866856.06909  20866855.89808
  -7168621.76808  -5585923.43008  23905241.96308  23905241.32808
  -1231973.59408   -959981.34808  24464313.76008  24464315.08608
 93 07 23 10 56 00.0000000  0  8 24 27 03 19 16 18 29 22
 -12624152.40508  -9836991.78908  23078730.23108  23078731.35908
 -10311171.43608  -8034674.04808  21939997.08708  21939997.30308
  -6839253.08008  -5329283.76508  23661131.15808  23661132.71208
 -19513333.04809 -15205185.02008  20432884.57409  20432884.96508
 -16383148.61608 -12766076.93708  22245696.20808  22245697.19808
 -22777455.38709 -17748650.13508  20889565.53409  20889565.39308
  -6973339.98708  -5433755.83808  23942402.81508  23942402.28808
  -1072170.36008   -835459.47108  24494723.54508  24494725.04408
