     2              OBSERVATION DATA    GPS                 RINEX VERSION / TYPE
srx v1.3 (5/19/93)  STARR               93/07/27 15:25:13   PGM / RUN BY / DATE
don                                                         MARKER NAME
0                   TURBOROGUE          93.05.25            REC # / TYPE / VERS
 -2493920.4340 -1987295.6918  5505387.1036                  APPROX POSITION XYZ
    30                                                      INTERVAL
     1     1     0                                          WAVELENGTH FACT L1/2
     4    L1    L2    P1    P2                              # / TYPES OF OBSERV
SNR is mapped to signal strength [0,1,4-9]                  COMMENT
 SNR:   >500  >100   >50   >10    >5    >0   bad   n/a      COMMENT
 sig:      9     8     7     6     5     4     1     0      COMMENT
  1993    06    20    00    00   00.000000                  TIME OF FIRST OBS
  1993    06    20    10    24   30.000000                  TIME OF LAST OBS
    23                                                      # OF SATELLITES
    01   482   482   482   482                              PRN / # OF OBS
    02   192   192   192   192                              PRN / # OF OBS
    03   483   483   483   483                              PRN / # OF OBS
    07   416   416   416   416                              PRN / # OF OBS
    12   345   345   345   345                              PRN / # OF OBS
    13   313   313   313   313                              PRN / # OF OBS
    14   330   330   330   330                              PRN / # OF OBS
    15   571   571   571   571                              PRN / # OF OBS
    16   336   336   336   336                              PRN / # OF OBS
    17   610   610   610   610                              PRN / # OF OBS
    18   219   219   219   219                              PRN / # OF OBS
    19    55    55    55    55                              PRN / # OF OBS
    20   416   416   416   416                              PRN / # OF OBS
    21   715   715   715   715                              PRN / # OF OBS
    22   508   508   508   508                              PRN / # OF OBS
    23   678   678   678   678                              PRN / # OF OBS
    24   167   167   167   167                              PRN / # OF OBS
    25   573   573   573   573                              PRN / # OF OBS
    26   423   423   423   423                              PRN / # OF OBS
    27    64    64    64    64                              PRN / # OF OBS
    28   645   645   645   645                              PRN / # OF OBS
    29   221   221   221   221                              PRN / # OF OBS
    31   610   610   610   610                              PRN / # OF OBS
                                                            END OF HEADER
 93 06 20 00 00 00.0000000  0  8 20 29 22 17 16 25 24 03
 -17695952.30308 -13789042.88208  21814296.83308  21814298.15708
  -1817048.20207  -1415880.05307  25148047.67907  25148049.84007
  -9567379.40308  -7455095.74008  23437340.22008  23437341.58408
 -11776421.04908  -9176421.00008  23144365.43208  23144367.64308
 -14758056.54908 -11499773.56508  22550093.48808  22550094.79308
 -14025317.38808 -10928813.14408  22603754.68008  22603755.58208
 -10837970.19908  -8445158.08208  23331442.32208  23331444.24008
 -25341572.04909 -19746662.48508  20851720.12109  20851721.27608
 93 06 20 00 00 30.0000000  0  8 20 29 22 17 16 25 24 03
 -17606188.69808 -13719097.25908  21831378.30908  21831379.67308
  -1766831.70707  -1376750.32507  25157603.43207  25157605.70507
  -9660979.04608  -7528030.48308  23419528.74008  23419530.05008
 -11887969.25508  -9263341.59408  23123138.46308  23123140.72808
 -14802219.51708 -11534186.26408  22541689.49708  22541690.81408
 -13962578.27008 -10879925.55808  22615693.58008  22615694.48208
 -10743405.82608  -8371471.61008  23349437.23008  23349439.22208
 -25402703.32909 -19794297.23508  20840087.23909  20840088.38308
 93 06 20 00 01 00.0000000  0  8 20 29 22 17 16 25 24 03
 -17516040.70008 -13648852.09508  21848532.89208  21848534.31108
  -1716181.33807  -1337282.51507  25167242.09807  25167244.07807
  -9754301.74208  -7600749.41808  23401769.98308  23401771.30808
 -11999293.12608  -9350087.38808  23101954.28408  23101956.36208
 -14845838.79908 -11568175.31108  22533388.95808  22533390.29508
 -13899350.54308 -10830657.23508  22627725.36508  22627726.22508
 -10648599.48908  -8297596.60008  23367478.44208  23367480.34208
 -25463410.15209 -19841601.24008  20828535.09209  20828536.22208
 93 06 20 00 01 30.0000000  0  8 20 29 22 17 16 25 24 03
 -17425501.60808 -13578302.18008  21865761.95808  21865763.32608
  -1665075.40207  -1297459.72207  25176967.36807  25176969.38507
  -9847326.18508  -7673235.94808  23384067.97208  23384069.27008
 -12110378.38308  -9436647.26108  23080815.41408  23080817.53908
 -14888894.22908 -11601724.97708  22525195.79208  22525197.19008
 -13835627.12308 -10781002.66408  22639851.56508  22639852.39208
 -10553549.86908  -8223532.00708  23385565.81408  23385567.78208
 -25523682.82309 -19888566.94508  20817065.52909  20817066.71108
 93 06 20 00 02 00.0000000  0  8 22 29 20 17 16 25 24 03
  -9940050.59208  -7745488.68508  23366423.05508  23366424.37008
  -1613503.43807  -1257273.79207  25186781.15007  25186783.09707
 -17334571.16308 -13507447.32908  21883065.52908  21883066.80408
 -12221209.10608  -9523008.79408  23059724.96108  23059727.01408
 -14931391.05308 -11634839.36908  22517108.88008  22517110.22208
 -13771416.33808 -10730968.32708  22652070.50408  22652071.41108
 -10458253.28108  -8149274.97308  23403700.17008  23403702.10408
 -25583517.22109 -19935191.13808  20805679.37609  20805680.58308
 93 06 20 00 02 30.0000000  0  8 22 29 20 17 16 25 24 03
 -10032502.28308  -7817528.92008  23348829.98108  23348831.30308
  -1561464.46907  -1216723.96407  25196683.90507  25196685.84107
 -17243268.56108 -13436302.49108  21900439.89508  21900441.22708
 -12331807.37908  -9609189.18508  23038678.76608  23038680.82608
 -14973336.70708 -11667524.28308  22509126.94608  22509128.32008
 -13706730.68108 -10680563.96008  22664379.95408  22664380.73808
 -10362709.07808  -8074825.00808  23421881.69508  23421883.65608
 -25642929.57209 -19981486.46408  20794373.54009  20794374.78808
 93 06 20 00 03 00.0000000  0  8 22 29 20 17 16 25 24 03
 -10124683.08208  -7889358.06808  23331288.51008  23331289.79308
  -1508950.74807  -1175804.20807  25206677.14307  25206678.75207
 -17151594.13508 -13364867.90608  21917884.97208  21917886.31008
 -12442180.61208  -9695194.22508  23017675.31308  23017677.42008
 -15014711.02308 -11699763.99608  22501253.55408  22501254.98008
 -13641554.02808 -10629776.99908  22676782.67008  22676783.49108
 -10266914.83608  -8000180.20308  23440110.89208  23440112.79608
 -25701916.55309 -20027450.33508  20783148.67409  20783149.90508
 93 06 20 00 03 30.0000000  0  8 22 29 20 17 16 25 24 03
 -10216597.99108  -7960980.02608  23313797.64108  23313798.90908
  -1455954.58708  -1134508.50207  25216762.07608  25216763.66407
 -17059554.44608 -13293148.70308  21935399.54108  21935400.94608
 -12552333.23408  -9781027.35908  22996713.93808  22996715.93808
 -15055519.09708 -11731562.48108  22493488.03208  22493489.47708
 -13575882.24508 -10578604.22408  22689279.68808  22689280.43808
 -10170866.26708  -7925337.21608  23458388.33508  23458390.30808
 -25760481.77809 -20073085.56508  20772004.06309  20772005.28808
 93 06 20 00 04 00.0000000  0  8 22 29 20 17 16 25 24 03
 -10308265.90508  -8032409.52208  23296353.74908  23296355.03108
  -1402497.55308  -1092853.67807  25226934.39308  25226935.94907
 -16967157.51008 -13221151.12608  21952982.11708  21952983.55608
 -12662272.67108  -9866694.37908  22975793.10008  22975795.07508
 -15095768.30008 -11762925.49008  22485828.90608  22485830.22308
 -13509716.19308 -10527046.30208  22701870.67708  22701871.40908
 -10074580.64708  -7850309.51308  23476710.97208  23476712.87208
 -25818629.89309 -20118395.77408  20760938.85309  20760940.05108
 93 06 20 00 04 30.0000000  0  8 22 29 20 17 16 25 24 03
 -10399669.14708  -8103632.78408  23278960.30808  23278961.58208
  -1348582.86608  -1050842.24407  25237194.05208  25237196.19307
 -16874389.27208 -13148864.24108  21970635.35208  21970636.81808
 -12771974.02608  -9952175.88508  22954917.62008  22954919.50408
 -15135419.80108 -11793822.75508  22478283.38508  22478284.85208
 -13443028.38308 -10475081.81508  22714560.98308  22714561.83508
  -9978049.93608  -7775090.83508  23495080.11508  23495082.07708
 -25876343.80909 -20163367.64508  20749956.24709  20749957.43608
 93 06 20 00 05 00.0000000  0  8 22 29 20 17 16 25 24 03
 -10490813.60508  -8174654.39508  23261616.10108  23261617.33708
  -1294238.69807  -1008496.16507  25247535.38407  25247537.36607
 -16781266.81308 -13076301.34908  21988356.01908  21988357.49908
 -12881434.09108 -10037469.37008  22934087.97908  22934089.94808
 -15174499.47208 -11824274.44008  22470846.64608  22470848.16808
 -13375849.90908 -10422734.99808  22727344.69608  22727345.54508
  -9881300.12708  -7699701.44208  23513491.09308  23513492.94408
 -25933637.02609 -20208011.69708  20739053.70609  20739054.88008
 93 06 20 00 05 30.0000000  0  8 22 29 20 17 16 25 24 03
 -10581693.31708  -8245469.70808  23244322.25708  23244323.48708
  -1239470.48407   -965819.67807  25257957.36607  25257959.54107
 -16687795.56908 -13003466.68508  22006143.08908  22006144.49608
 -12990646.91108 -10122570.19608  22913305.30208  22913307.19608
 -15213029.42008 -11854297.76908  22463514.62708  22463516.20308
 -13308204.20608 -10370024.10808  22740217.22408  22740218.11908
  -9784334.03708  -7624143.51108  23531943.14208  23531945.08708
 -25990512.11809 -20252329.93608  20728230.76909  20728231.93908
 93 06 20 00 06 00.0000000  0  8 22 29 20 17 16 25 24 03
 -10672292.64008  -8316066.53808  23227081.66108  23227082.93908
  -1184273.88207   -922809.35007  25268460.83107  25268463.12607
 -16593958.21408 -12930346.72408  22023999.76408  22024001.20308
 -13099592.52908 -10207462.81308  22892573.62308  22892575.45708
 -15250992.10108 -11883879.06908  22456290.66208  22456292.14908
 -13240073.64908 -10316935.40908  22753182.01208  22753182.95808
  -9687145.45108  -7548412.20208  23550437.50408  23550439.46708
 -26046948.48809 -20296306.31508  20717491.31509  20717492.43208
 93 06 20 00 06 30.0000000  0  8 22 29 20 17 16 25 24 03
 -10762593.10908  -8386430.49908  23209898.10508  23209899.34108
  -1128644.27908   -879461.62507  25279047.27508  25279049.21507
 -16499752.44908 -12856939.67808  22041926.56508  22041927.99208
 -13208260.84308 -10292139.35808  22871894.74608  22871896.60308
 -15288388.51508 -11913019.12808  22449174.41408  22449175.76308
 -13171466.82608 -10263475.59908  22766237.38708  22766238.29408
  -9589711.80108  -7472489.93808  23568978.62708  23568980.63308
 -26102940.23709 -20339936.23508  20706836.40309  20706837.55508
 93 06 20 00 07 00.0000000  0  8 29 22 20 17 16 25 24 03
  -1072597.58707   -835788.88007  25289712.21207  25289714.67107
 -10852605.68808  -8456570.12608  23192769.19608  23192770.48708
 -16405198.42408 -12783261.24708  22059919.59408  22059921.09408
 -13316680.11208 -10376621.83808  22851263.17708  22851265.02208
 -15325249.01808 -11941741.59908  22442160.03408  22442161.44108
 -13102404.17908 -10209660.59908  22779379.69108  22779380.63908
  -9492053.97208  -7396393.00408  23587562.26708  23587564.28008
 -26158504.44709 -20383233.00908  20696262.87609  20696264.04008
 93 06 20 00 07 30.0000000  0  8 29 22 20 17 16 25 24 03
  -1016156.39308   -791808.74907  25300452.86108  25300455.03207
 -10942346.32408  -8526497.85208  23175692.24208  23175693.31908
 -16310312.99008 -12709324.57708  22077975.72908  22077977.21408
 -13424864.48608 -10460921.28208  22830676.28808  22830678.12608
 -15361570.55708 -11970044.09408  22435248.18908  22435249.73408
 -13032886.47908 -10155491.00708  22792608.52408  22792609.46908
  -9394194.93808  -7320139.29408  23606184.35508  23606186.40308
 -26213654.62109 -20426207.15608  20685768.11309  20685769.32808
 93 06 20 00 08 00.0000000  0  8 22 29 20 17 16 25 24 03
 -11031778.62808  -8596185.31908  23158673.84708  23158674.89508
   -959296.51907   -747502.38007  25311272.80407  25311274.98007
 -16215071.84908 -12635110.73408  22096099.51708  22096101.08508
 -13532784.88708 -10545015.03608  22810139.63408  22810141.50208
 -15397298.15408 -11997883.76908  22428449.47808  22428451.03608
 -12962889.47908 -10100947.93508  22805928.52908  22805929.52708
  -9296114.56308  -7243713.10508  23624848.45108  23624850.54908
 -26268362.96709 -20468837.02108  20675357.47309  20675358.67008
 93 06 20 00 08 30.0000000  0  8 22 29 20 17 16 25 24 03
 -11120861.97208  -8665600.87108  23141721.75208  23141722.75608
   -901983.82907   -702843.17907  25322179.06007  25322181.20207
 -16119455.67208 -12560604.66208  22114294.63208  22114296.30508
 -13640429.67408 -10628894.02508  22789655.43208  22789657.29308
 -15432406.87508 -12025241.20508  22421768.49208  22421770.05108
 -12892405.19708 -10046025.16208  22819341.28708  22819342.28308
  -9197799.26808  -7167103.84808  23643557.19608  23643559.38408
 -26322607.33709 -20511105.34808  20665035.11509  20665036.24208
 93 06 20 00 09 00.0000000  0  8 29 22 20 17 16 25 24 03
   -844244.99507   -657851.88107  25333166.17207  25333168.59907
 -11209628.36908  -8734769.45208  23124830.08008  23124831.05308
 -16023497.99708 -12485832.48908  22132554.83208  22132556.49308
 -13747828.32908 -10712581.22608  22769218.11508  22769220.02608
 -15466922.26308 -12052136.30308  22415200.44308  22415201.94308
 -12821467.77208  -9990749.29308  22832840.28208  22832841.29308
  -9099301.73908  -7090352.59108  23662300.72708  23662302.87308
 -26376417.58609 -20553035.40008  20654795.39209  20654796.48708
 93 06 20 00 09 30.0000000  0  8 29 22 20 17 16 25 24 03
   -786072.96707   -612523.07107  25344236.12107  25344238.51807
 -11298068.12508  -8803683.51008  23108000.55008  23108001.51908
 -15927200.21908 -12410795.29508  22150879.66108  22150881.34908
 -13854971.95708 -10796069.70808  22748829.33308  22748831.12708
 -15500844.10808 -12078568.89008  22408745.33008  22408746.88108
 -12750096.91808  -9935135.69108  22846421.79208  22846422.74408
  -9000618.68508  -7013456.77508  23681079.56508  23681081.69308
 -26429792.47509 -20594626.21208  20644638.48109  20644639.55708
 93 06 20 00 10 00.0000000  0  8 29 22 20 17 16 25 24 03
   -727469.56307   -566858.08707  25355388.04107  25355390.02107
 -11386176.31408  -8872339.20208  23091234.08308  23091235.04308
 -15830568.88308 -12335498.19308  22169267.95108  22169269.69908
 -13961873.73208 -10879369.72908  22728486.51508  22728488.45008
 -15534195.28508 -12104556.80508  22402398.88608  22402400.36108
 -12678306.86008  -9879195.44108  22860082.96808  22860084.02608
  -8901744.68908  -6936412.16508  23699894.67808  23699896.84208
 -26482734.69009 -20635879.87608  20634563.88209  20634564.96208
 93 06 20 00 10 30.0000000  0  8 22 29 20 17 16 25 24 03
 -11473952.24908  -8940735.99808  23074530.92408  23074531.92408
   -668437.17707   -520858.81407  25366621.35007  25366623.62107
 -15733599.04908 -12259937.32808  22187720.71308  22187722.47208
 -14068522.81308 -10962472.84108  22708191.84108  22708193.75708
 -15566985.87808 -12130107.90008  22396159.04308  22396160.52608
 -12606075.01808  -9822910.94308  22873828.29908  22873829.35008
  -8802666.78708  -6859208.66508  23718748.56808  23718750.73008
 -26535236.20109 -20676790.13508  20624573.15709  20624574.24708
 93 06 20 00 11 00.0000000  0  8 22 29 20 17 16 25 24 03
 -11561389.43108  -9008868.82908  23057892.16508  23057893.12308
   -608989.52307   -474536.00107  25377934.14507  25377936.13607
 -15636281.76308 -12184105.71408  22206239.60408  22206241.33308
 -14174889.43308 -11045355.85408  22687950.96208  22687952.82708
 -15599193.47908 -12155204.71408  22390030.11208  22390031.55608
 -12533379.67508  -9766265.27608  22887661.83608  22887662.87508
  -8703360.22908  -6781827.00008  23737646.04108  23737648.28408
 -26587284.67309 -20717347.37708  20614668.64709  20614669.72408
 93 06 20 00 11 30.0000000  0  8 22 29 20 17 16 25 24 03
 -11648499.97608  -9076747.13908  23041315.56308  23041316.48008
   -549151.94708   -427909.33407  25389320.93708  25389322.82407
 -15538631.44508 -12108014.60908  22224821.89108  22224823.63508
 -14280991.22308 -11128032.50908  22667760.45708  22667762.33908
 -15630827.94008 -12179854.91608  22384010.19208  22384011.73208
 -12460225.41808  -9709262.01108  22901582.54808  22901583.60108
  -8603819.68308  -6704262.99408  23756587.95708  23756590.18808
 -26638891.57409 -20757560.53708  20604848.17409  20604849.28708
 93 06 20 00 12 00.0000000  0  8 29 22 20 17 16 25 24 03
   -488938.08008   -380989.48007  25400779.38508  25400781.36007
 -11735296.68108  -9144380.89608  23024798.70708  23024799.59608
 -15440650.68108 -12031666.00708  22243467.03908  22243468.77508
 -14386821.37008 -11210497.49208  22647621.49308  22647623.33108
 -15661873.10208 -12204045.92908  22378102.48108  22378104.01408
 -12386605.95308  -9651896.24708  22915591.94308  22915592.96808
  -8504052.37308  -6626522.28508  23775573.11708  23775575.41608
 -26690056.09009 -20797428.98108  20595111.89809  20595112.99208
 93 06 20 00 12 30.0000000  0  8 29 22 20 17 16 25 24 03
   -428336.51608   -333767.48607  25412311.50208  25412313.24607
 -11821781.71608  -9211771.79408  23008341.09408  23008341.89608
 -15342335.25508 -11955056.63808  22262175.85608  22262177.60308
 -14492359.07208 -11292734.59008  22627538.32108  22627540.11708
 -15692300.00908 -12227755.18908  22372312.55608  22372314.00008
 -12312512.11408  -9594160.83708  22929691.53508  22929692.63608
  -8404061.22108  -6548607.16308  23794600.77408  23794603.06208
 -26740770.74009 -20836946.88008  20585461.21009  20585462.31308
 93 06 20 00 13 00.0000000  0  8 29 22 20 17 16 25 24 03
   -367324.47208   -286225.65107  25423921.61108  25423923.51607
 -11907959.24908  -9278923.07708  22991942.00708  22991942.85108
 -15243682.79108 -11878184.62608  22280948.83908  22280950.61608
 -14597607.25008 -11374746.09208  22607510.26208  22607512.00908
 -15722111.01508 -12250984.53108  22366639.75908  22366641.13808
 -12237959.82808  -9536068.19608  22943878.38708  22943879.40208
  -8303852.84308  -6470522.78808  23813669.84108  23813672.20008
 -26791030.01109 -20876109.93808  20575897.17309  20575898.27808
 93 06 20 00 13 30.0000000  0  8 29 22 20 17 16 25 24 03
   -305904.76208   -238366.15007  25435609.44608  25435611.38907
 -11993856.90408  -9345856.27508  22975596.25708  22975597.03708
 -15144718.92508 -11801069.97008  22299781.09708  22299782.83508
 -14702594.12408 -11456553.96908  22587531.81508  22587533.47808
 -15751335.44508 -12273756.79908  22361078.50708  22361079.82408
 -12162982.31808  -9477644.21308  22958146.08308  22958147.08608
  -8203474.55508  -6392306.02208  23832771.27908  23832773.57508
 -26840855.79909 -20914935.21808  20566415.61209  20566416.74308
 93 06 20 00 14 00.0000000  0  8 22 29 20 17 16 25 24 03
 -12079469.08308  -9412567.02708  22959304.67808  22959305.60308
   -244062.06307   -190177.05307  25447377.63807  25447379.87707
 -15045439.52508 -11723709.45908  22318673.37508  22318675.15108
 -14807303.53108 -11538145.64308  22567606.30208  22567607.90708
 -15779963.41408 -12296064.28708  22355630.66808  22355632.05408
 -12087574.70108  -9418885.08408  22972495.92408  22972496.93308
  -8102942.98608  -6313969.81108  23851901.90008  23851904.22108
 -26890240.92709 -20953417.12808  20557017.90909  20557019.02708
 93 06 20 00 14 30.0000000  0  8 22 29 20 17 16 25 24 03
 -12164778.54408  -9479041.89708  22943070.84208  22943071.66908
   -181787.67707   -141651.56807  25459227.92607  25459229.95307
 -14945838.78408 -11646098.55008  22337626.86108  22337628.56508
 -14911737.95808 -11619523.04408  22547733.02308  22547734.70708
 -15808001.85208 -12317912.40108  22350295.20808  22350296.56508
 -12011726.62008  -9359782.73508  22986929.37108  22986930.32508
  -8002257.49008  -6235513.65908  23871061.76608  23871064.16808
 -26939176.49509 -20991548.72908  20547705.76009  20547706.90808
 93 06 20 00 15 00.0000000  0  8 22 29 20 17 16 25 24 03
 -12249762.97508  -9545263.49508  22926898.69108  22926899.60108
   -119087.40708    -92794.23207  25471159.54608  25471161.42707
 -14845909.19408 -11568231.39408  22356642.91908  22356644.62308
 -15015894.24608 -11700683.72108  22527912.55808  22527914.24208
 -15835448.98008 -12339299.76408  22345072.17208  22345073.60308
 -11935442.09708  -9300340.30008  23001445.88608  23001446.91608
  -7901407.78108  -6156929.54608  23890252.93408  23890255.18208
 -26987651.79609 -21029321.68108  20538481.23709  20538482.36108
 93 06 20 00 15 30.0000000  0  8 22 29 20 17 16 25 24 03
 -12334409.08908  -9611221.47108  22910791.10208  22910791.91608
    -55982.03608    -43621.21707  25483168.18308  25483170.13907
 -14745656.21708 -11490112.22908  22375720.46408  22375722.15308
 -15119761.71508 -11781619.34708  22508147.17708  22508148.90508
 -15862280.69208 -12360207.57308  22339966.17908  22339967.59408
 -11858718.47108  -9240555.71508  23016045.90608  23016047.02608
  -7800393.58208  -6078217.25008  23909475.30508  23909477.64508
 -27035669.11709 -21066737.76508  20529343.82109  20529344.94808
 93 06 20 00 16 00.0000000  0  8 22 29 20 17 16 25 24 03
 -12418712.63108  -9676912.50608  22894748.68808  22894749.53608
      7514.27807      5856.43007  25495250.98807  25495253.08907
 -14645083.96908 -11411744.28608  22394858.79308  22394860.42308
 -15223345.53708 -11862333.95108  22488435.74908  22488437.45308
 -15888496.34008 -12380635.33508  22334977.43908  22334978.91308
 -11781563.45808  -9180434.98308  23030728.01408  23030729.24908
  -7699209.83108  -5999372.84308  23928729.98908  23928732.35608
 -27083229.22409 -21103797.57908  20520293.44109  20520294.54808
 93 06 20 00 16 30.0000000  0  8 22 29 20 17 16 25 24 03
 -12502667.51508  -9742331.86408  22878772.54708  22878773.38908
     71394.91107     55633.53407  25507407.06807  25507409.33107
 -14544192.29208 -11333127.43808  22414057.90008  22414059.58308
 -15326652.58308 -11942832.89308  22468777.12708  22468778.76808
 -15914095.32208 -12400582.58508  22330106.13908  22330107.57608
 -11703993.86408  -9119991.20308  23045489.02008  23045490.24508
  -7597848.02508  -5920389.69808  23948018.59508  23948020.95908
 -27130328.44209 -21140498.25908  20511330.73909  20511331.83908
 93 06 20 00 17 00.0000000  0  8 22 29 20 17 16 25 24 03
 -12586251.59808  -9807462.28408  22862866.85208  22862867.74208
    135676.79607    105723.30707  25519639.22307  25519641.97007
 -14442962.99008 -11254247.50008  22433321.20508  22433322.94908
 -15429657.33808 -12023096.28008  22449175.87808  22449177.46408
 -15939054.26308 -12420031.10108  22325356.60208  22325358.02408
 -11625992.05708  -9059210.62908  23060332.20108  23060333.55008
  -7496279.72108  -5841245.64308  23967346.42108  23967348.85408
 -27176945.78009 -21176823.44808  20502459.74809  20502460.85308
 93 06 20 00 17 30.0000000  0  8 22 29 20 17 16 25 24 03
 -12669494.50408  -9872326.85308  22847026.27608  22847027.24408
    200335.93507    156107.02207  25531943.68707  25531945.98007
 -14341425.23108 -11175127.21408  22452643.19108  22452645.04308
 -15532378.97508 -12103139.05408  22429628.58708  22429630.19408
 -15963402.96508 -12439004.11108  22320723.12408  22320724.50708
 -11547583.00808  -8998112.72708  23075253.05808  23075254.36608
  -7394535.37608  -5761964.40508  23986707.85808  23986710.16708
 -27223106.94209 -21212793.17308  20493675.54109  20493676.68308
 93 06 20 00 18 00.0000000  0  8 22 29 20 17 16 25 24 03
 -12752403.25208  -9936931.04108  22831249.22508  22831250.19008
    265363.53107    206777.88007  25544317.89507  25544320.32007
 -14239584.75808 -11095771.05808  22472022.78808  22472024.69808
 -15634820.36208 -12182963.45708  22410134.67208  22410136.19908
 -15987167.24708 -12457521.73008  22316200.89708  22316202.34108
 -11468776.90308  -8936705.42708  23090249.42808  23090250.67208
  -7292619.96608  -5682549.87608  24006101.72908  24006104.12908
 -27268814.17009 -21248409.18608  20484977.76509  20484978.84308
 93 06 20 00 18 30.0000000  0  8 22 29 20 17 16 25 24 03
 -12834958.30908 -10001259.62508  22815539.53808  22815540.44508
    330768.56807    257742.80707  25556764.14107  25556766.84307
 -14137431.22308 -11016170.96408  22491461.94508  22491463.88908
 -15736948.15408 -12262543.50108  22390700.36108  22390701.85508
 -16010338.55808 -12475577.29608  22311791.56808  22311792.95308
 -11389553.42008  -8874972.90008  23105325.28108  23105326.49008
  -7190506.43708  -5602980.97208  24025533.40008  24025535.77208
 -27314054.38709 -21283661.29508  20476368.81309  20476369.93608
 93 06 20 00 19 00.0000000  0  8 22 29 20 17 16 25 24 03
 -12917155.61508 -10065309.44008  22799897.73408  22799898.71708
    396539.58507    308992.92107  25569280.07607  25569282.43607
 -14034973.20108 -10936333.60908  22510959.12808  22510961.14308
 -15838746.64308 -12341866.94808  22371328.75408  22371330.23908
 -16032915.73108 -12493169.89608  22307495.24108  22307496.72008
 -11309909.37408  -8812912.65708  23120481.05808  23120482.34808
  -7088190.07208  -5523254.02008  24045003.70108  24045006.01508
 -27358832.81509 -21318553.56808  20467847.75109  20467848.85408
 93 06 20 00 19 30.0000000  0  8 22 29 20 17 16 25 24 03
 -12998987.33408 -10129074.38208  22784325.66208  22784326.66608
    462680.65007    360531.41507  25581866.38507  25581868.44407
 -13932218.41108 -10856264.99808  22530512.76008  22530514.78308
 -15940213.78208 -12420932.19908  22352020.13208  22352021.55708
 -16054896.54108 -12510297.79608  22303312.41008  22303313.95108
 -11229861.10008  -8750537.43008  23135713.81808  23135715.05408
  -6985684.44308  -5443379.57808  24064509.84508  24064512.17508
 -27403153.67109 -21353089.29208  20459413.81009  20459414.86808
 93 06 20 00 20 00.0000000  0  8 22 29 20 17 16 25 24 03
 -13080451.03308 -10192552.55608  22768823.58708  22768824.54308
    529183.09407    412351.50407  25594521.74907  25594523.57807
 -13829179.24608 -10775974.80108  22550120.48108  22550122.53208
 -16041367.82508 -12499753.48308  22332771.14208  22332772.55308
 -16076282.89608 -12526962.47708  22299242.79108  22299244.21008
 -11149418.49108  -8687854.93508  23151021.56508  23151022.88508
  -6883001.72708  -5363367.16008  24084049.86208  24084052.16908
 -27447026.50909 -21387275.90808  20451065.07609  20451066.15608
 93 06 20 00 20 30.0000000  0  8 22 29 20 17 16 25 24 03
 -13161534.96908 -10255734.81308  22753393.91008  22753394.83908
    596070.86708    464471.82507  25607250.15608  25607252.22807
 -13725850.83408 -10695459.20308  22569783.28108  22569785.36008
 -16142202.84108 -12578326.17908  22313582.78208  22313584.24608
 -16097056.49208 -12543149.68908  22295289.71608  22295291.11108
 -11068572.76908  -8624858.33308  23166406.03708  23166407.32608
  -6780136.57608  -5283212.58608  24103624.42208  24103626.79908
 -27490443.02209 -21421106.94808  20442803.17409  20442804.27508
 93 06 20 00 21 00.0000000  0  8 22 29 20 17 16 25 24 03
 -13242252.29408 -10318631.39908  22738033.88108  22738034.80408
    663344.58807    516892.85007  25620051.61607  25620053.66307
 -13622242.81508 -10614725.73508  22589499.28608  22589501.29108
 -16242736.27408 -12656663.87608  22294451.87208  22294453.29608
 -16117228.27908 -12558867.95708  22291451.13208  22291452.44508
 -10987338.42308  -8561558.89908  23181864.46708  23181865.79208
  -6677117.75308  -5202938.27108  24123228.45808  24123230.72108
 -27533409.82909 -21454587.57008  20434626.85909  20434627.92608
 93 06 20 00 21 30.0000000  0  8 22 29 20 17 16 25 24 03
 -13322605.74708 -10381244.44908  22722743.08108  22722743.98808
    731022.91907    569629.19507  25632930.49207  25632932.37707
 -13518345.26208 -10533766.65708  22609270.45508  22609272.42708
 -16342969.09108 -12734767.32908  22275378.22608  22275379.61808
 -16136790.49108 -12574111.23208  22287728.53008  22287729.88408
 -10905704.96508  -8497948.47708  23197398.96208  23197400.16108
  -6573955.10108  -5122551.88208  24142859.76708  24142861.98608
 -27575913.67709 -21487707.44408  20426538.61409  20426539.68908
 93 06 20 00 22 00.0000000  0  8 22 29 20 17 16 25 24 03
 -13402627.09108 -10443598.71008  22707515.60008  22707516.44608
    799076.03407    622657.64907  25645880.56607  25645882.30507
 -13414173.86808 -10452594.19508  22629093.64108  22629095.62708
 -16442917.84408 -12812649.43208  22256358.56908  22256360.00408
 -16155759.52708 -12588892.28708  22284118.85708  22284120.22008
 -10823686.61908  -8434038.14308  23213006.52308  23213007.85308
  -6470661.49908  -5042063.42708  24162515.93108  24162518.24308
 -27617967.23909 -21520476.44208  20418536.01909  20418537.13308
 93 06 20 00 22 30.0000000  0  8 22 20 29 17 16 25 24 03
 -13482323.31508 -10505699.63408  22692349.96208  22692350.77608
 -13309727.60208 -10371207.55308  22648969.17208  22648971.17008
    867495.35607    675971.38607  25658900.23207  25658902.31207
 -16542567.08808 -12890298.15008  22237395.95708  22237397.42308
 -16174139.26508 -12603214.14908  22280621.33608  22280622.63908
 -10741286.79308  -8369830.55108  23228686.69308  23228688.09208
  -6367233.61608  -4961470.37008  24182197.66408  24182199.86108
 -27659566.04609 -21552891.08808  20410620.00509  20410621.17208
 93 06 20 00 23 00.0000000  0  8 22 20 29 17 16 25 24 03
 -13561660.67708 -10567520.92608  22677252.63608  22677253.29908
 -13204983.80708 -10289589.06808  22668901.23408  22668903.26108
    936277.82507    729568.08207  25671989.10407  25671991.17607
 -16641888.44808 -12967691.37008  22218495.67108  22218497.14108
 -16191897.13008 -12617051.43708  22277242.13408  22277243.39708
 -10658494.52308  -8305317.16008  23244441.62008  23244442.96808
  -6263648.43208  -4880754.71008  24201909.23408  24201911.68208
 -27700684.30809 -21584931.28108  20402795.43609  20402796.60008
 93 06 20 00 23 30.0000000  0  8 22 20 29 17 16 25 24 03
 -13640629.01408 -10629054.66608  22662225.43108  22662226.09508
 -13099943.39508 -10207739.44908  22688889.83308  22688891.79608
   1005407.39507    783435.26407  25685143.92807  25685146.09607
 -16740879.63908 -13044827.32208  22199658.19008  22199659.58108
 -16209022.10708 -12630395.56908  22273983.37208  22273984.61208
 -10575323.09508  -8240508.31608  23260268.56508  23260270.02708
  -6159893.96408  -4799907.15608  24221653.11708  24221655.51208
 -27741319.59909 -21616595.13408  20395062.83109  20395063.94308
 93 06 20 00 24 00.0000000  0  8 22 20 29 17 16 25 24 03
 -13719215.34508 -10690290.73908  22647270.82808  22647271.40308
 -12994619.35708 -10125668.83308  22708932.36808  22708934.34708
   1074866.27507    837559.07607  25698361.54707  25698363.60607
 -16839538.26808 -13121704.13708  22180884.13908  22180885.51508
 -16225534.41108 -12643262.28808  22270841.16308  22270842.40208
 -10491794.25208  -8175420.97108  23276163.67608  23276165.12008
  -6055972.48208  -4718929.45008  24241428.75808  24241431.20808
 -27781482.03909 -21647890.53708  20387420.18809  20387421.29508
 93 06 20 00 24 30.0000000  0  8 22 20 29 17 16 25 24 03
 -13797400.33808 -10751214.08008  22632392.63208  22632393.31108
 -12889008.10508 -10043374.41708  22729029.54308  22729031.49108
   1144669.11207    891950.91506  25711644.56907  25711646.36406
 -16937844.43008 -13198306.30208  22162177.06308  22162178.45908
 -16241428.57708 -12655647.34308  22267816.59008  22267817.87708
 -10407899.41608  -8110048.44008  23292128.32308  23292129.76408
  -5951886.71208  -4637823.73208  24261235.81008  24261238.12408
 -27821164.95109 -21678812.27808  20379868.81009  20379869.88908
 93 06 20 00 25 00.0000000  0  8 22 20 29 17 16 25 24 03
 -13875181.89308 -10811823.05508  22617591.39008  22617592.08808
 -12783113.93808  -9960859.55208  22749180.60808  22749182.55308
   1214822.77307    946616.14507  25724994.40507  25724996.29507
 -17035801.71608 -13274636.61208  22143536.33608  22143537.68008
 -16256703.10008 -12667549.55508  22264909.80208  22264911.16408
 -10323641.20808  -8044392.76308  23308162.07608  23308163.62408
  -5847644.00508  -4556595.72808  24281072.57508  24281074.98408
 -27860369.24309 -21709361.07008  20372408.47409  20372409.54008
 93 06 20 00 25 30.0000000  0  8 22 20 17 29 16 25 24 03
 -13952586.03208 -10872137.94208  22602861.87508  22602862.55908
 -12676960.89508  -9878142.95908  22769380.91008  22769382.85408
 -17133430.22508 -13350710.72808  22124958.22408  22124959.61008
   1285322.42707   1001550.92207  25738409.95407  25738412.22707
 -16271389.47408 -12678993.47308  22262115.04008  22262116.53808
 -10239027.54808  -7978460.11108  23324263.48008  23324265.21808
  -5743277.51308  -4475271.25308  24300932.96708  24300935.44908
 -27899115.49109 -21739552.94308  20365035.32309  20365036.36708
 93 06 20 00 26 00.0000000  0  8 22 20 29 17 16 25 24 03
 -14029617.00408 -10932162.04708  22588203.27608  22588204.01508
 -12570548.35508  -9795224.15008  22789630.61608  22789632.47008
   1356176.89207   1056762.19607  25751893.10007  25751895.37307
 -17230725.01108 -13426524.80108  22106443.61308  22106444.97608
 -16285481.32308 -12689974.12308  22259433.43208  22259435.00508
 -10154043.55908  -7912238.89508  23340435.37908  23340437.17708
  -5638802.39608  -4393862.15508  24320814.00408  24320816.51008
 -27937400.17709 -21769385.16108  20357750.00909  20357751.02308
 93 06 20 00 26 30.0000000  0  8 22 20 29 17 16 25 24 03
 -14106268.51808 -10991890.47308  22573616.97708  22573617.73108
 -12463851.99908  -9712084.19008  22809934.36608  22809936.19808
   1427406.74107   1112266.00007  25765447.82307  25765449.68807
 -17327675.69908 -13502070.74408  22087994.36808  22087995.82808
 -16298926.19408 -12700450.63508  22256875.00108  22256876.54008
 -10068656.33508  -7845703.47208  23356683.93008  23356685.75408
  -5534181.45808  -4312339.42908  24340722.68208  24340725.22108
 -27975195.61009 -21798836.14108  20350557.78309  20350558.78208
 93 06 20 00 27 00.0000000  0  8 22 20 29 17 16 25 24 03
 -14182543.61708 -11051325.58608  22559102.20208  22559103.03908
 -12356884.61308  -9628733.02508  22830289.59408  22830291.48108
   1498990.69507   1168045.68107  25779069.64807  25779071.89607
 -17424298.62408 -13577361.28108  22069607.58808  22069609.08408
 -16311722.48108 -12710421.76108  22254439.90408  22254441.45308
  -9982872.25908  -7778858.81408  23373008.18308  23373009.93108
  -5429419.36108  -4230706.72208  24360658.25308  24360660.78508
 -28012512.17209 -21827913.97508  20343456.68109  20343457.64408
 93 06 20 00 27 30.0000000  0  8 22 20 29 17 16 25 24 03
 -14258454.99608 -11110477.28008  22544656.69808  22544657.51608
 -12249663.96108  -9545184.52008  22850693.12608  22850694.99408
   1570904.58707   1224082.47907  25792754.40007  25792756.60207
 -17520598.88908 -13652400.39408  22051282.18608  22051283.62208
 -16323880.11308 -12719895.23308  22252126.42708  22252127.98208
  -9896711.34508  -7711720.51208  23389404.26208  23389406.00008
  -5324537.57208  -4148980.72508  24380616.65508  24380619.30708
 -28049363.86109 -21856629.56908  20336444.05409  20336445.01608
 93 06 20 00 28 00.0000000  0  8 22 20 29 17 16 25 24 03
 -14333999.37608 -11169342.99908  22530280.99208  22530281.78408
 -12142194.16808  -9461441.87708  22871143.98708  22871145.83908
   1643142.20707   1280371.53007  25806500.54507  25806502.99107
 -17616576.09608 -13727187.77508  22033018.32608  22033019.75508
 -16335396.05208 -12728868.68308  22249935.02108  22249936.54408
  -9810185.80408  -7644298.08808  23405869.71808  23405871.31208
  -5219524.48308  -4067152.42008  24400600.03208  24400602.55608
 -28085751.82609 -21884983.82308  20329519.63209  20329520.59708
 93 06 20 00 28 30.0000000  0  8 22 20 17 29 16 25 24 03
 -14409149.38208 -11227901.41608  22515980.48008  22515981.17708
 -12034475.62308  -9377505.40808  22891642.19208  22891644.05008
 -17712214.97008 -13801711.52208  22014818.78808  22014820.19108
   1715704.99207   1336913.95007  25820308.94407  25820310.94507
 -16346272.11108 -12737343.53208  22247865.41908  22247866.85808
  -9723303.48108  -7576597.65008  23422402.93108  23422404.58708
  -5114370.50408  -3985214.31808  24420610.27008  24420612.86908
 -28121673.00009 -21912974.34408  20322684.06109  20322685.05308
 93 06 20 00 29 00.0000000  0  8 22 20 17 29 16 25 24 03
 -14483879.58508 -11286132.71408  22501759.79308  22501760.47908
 -11926499.57908  -9293368.28208  22912189.40908  22912191.27708
 -17807486.90508 -13875949.34708  21996689.04508  21996690.50908
   1788601.83607   1393716.70207  25834180.65507  25834183.04107
 -16356517.53608 -12745326.98308  22245915.77808  22245917.21608
  -9636077.92308  -7508629.74608  23439001.56108  23439003.05108
  -5009093.15208  -3903180.09608  24440643.89108  24440646.47008
 -28157115.93609 -21940592.20808  20315939.49209  20315940.47308
 93 06 20 00 29 30.0000000  0  7 22 20 17 16 25 24 03
 -14558211.63008 -11344053.76108  22487614.85908  22487615.44608
 -11818281.89208  -9209042.86508  22932782.59108  22932784.45908
 -17902414.12608 -13949918.56108  21978624.97308  21978626.46908
 -16366158.60808 -12752839.50608  22244081.23708  22244082.56108
  -9548540.37608  -7440418.74008  23455659.47308  23455661.04308
  -4903700.63708  -3821056.14208  24460699.48308  24460702.16708
 -28192092.86209 -21967846.94708  20309283.58009  20309284.59708
 93 06 20 00 30 00.0000000  0  8 18 22 20 17 16 25 24 03
         0.37518        -0.08117  24641499.01018  24641501.15117
 -14632118.30708 -11401643.35208  22473550.79908  22473551.39908
 -11709806.78508  -9124516.86808  22953424.75808  22953426.63008
 -17996985.08808 -14023610.17208  21960628.71608  21960630.18908
 -16375187.94808 -12759875.35308  22242362.93908  22242364.35708
  -9460671.16108  -7371949.29008  23472380.44508  23472381.99808
  -4798169.60008  -3738824.24308  24480781.41708  24480784.01908
 -28226585.80109 -21994724.55508  20302719.78309  20302720.81208
 93 06 20 00 30 30.0000000  0  8 18 22 20 17 16 25 24 03
     27366.42908     21324.09507  24646706.52808  24646708.82907
 -14705619.54308 -11458917.01808  22459563.99508  22459564.57608
 -11601092.84908  -9039804.76908  22974112.39308  22974114.28908
 -18091214.95308 -14097035.99608  21942697.28608  21942698.68008
 -16383637.24708 -12766459.21708  22240755.00108  22240756.45708
  -9372495.28708  -7303240.88908  23489159.89108  23489161.51008
  -4692526.41508  -3656504.96507  24500884.76808  24500887.45907
 -28260609.36109 -22021236.41508  20296245.30809  20296246.36408
 93 06 20 00 31 00.0000000  0  8 18 22 20 17 16 25 24 03
     55321.51908     43107.27507  24652026.23108  24652028.49807
 -14778719.12408 -11515877.70708  22445653.61808  22445654.23808
 -11492119.45608  -8954890.49808  22994849.39008  22994851.32408
 -18185091.31708 -14170186.36308  21924833.23708  21924834.57808
 -16391494.46008 -12772581.71308  22239259.83708  22239261.25708
  -9283988.27608  -7234274.45508  23506002.20908  23506003.97508
  -4586748.67908  -3574080.84007  24521013.63308  24521016.44907
 -28294140.51709 -22047364.58008  20289864.53609  20289865.60308
 93 06 20 00 31 30.0000000  0  8 18 22 20 17 16 25 24 03
     83860.63508     65345.53107  24657457.11908  24657459.49907
 -14851406.11408 -11572516.89408  22431821.69808  22431822.31208
 -11382881.55308  -8869770.10708  23015636.75308  23015638.67108
 -18278603.47808 -14243052.93608  21907038.39708  21907039.76608
 -16398752.20208 -12778237.09108  22237878.80408  22237880.17708
  -9195123.59908  -7165029.32608  23522912.66008  23522914.37508
  -4480822.47008  -3491541.02707  24541170.71508  24541173.35107
 -28327170.55709 -22073102.26408  20283579.11809  20283580.17208
 93 06 20 00 32 00.0000000  0  8 18 22 20 17 16 25 24 03
    112972.91508     88030.44107  24662996.88608  24662999.18207
 -14923691.57808 -11628843.20408  22418066.17708  22418066.87408
 -11273398.36808  -8784458.58408  23036470.70708  23036472.66708
 -18371755.18008 -14315638.63108  21889312.21108  21889313.49408
 -16405412.69008 -12783427.08008  22236611.37608  22236612.66808
  -9105920.66108  -7095520.61608  23539887.35708  23539889.13908
  -4374788.27208  -3408917.06107  24561348.52008  24561351.28107
 -28359715.68009 -22098462.09308  20277386.00309  20277387.02708
 93 06 20 00 32 30.0000000  0  8 18 22 20 17 16 25 24 03
    142659.73008    111163.03707  24668646.01108  24668648.15907
 -14995578.58408 -11684859.02608  22404386.47708  22404387.20308
 -11163672.61608  -8698958.05108  23057350.87908  23057352.84808
 -18464545.51608 -14387942.74108  21871654.73108  21871655.98108
 -16411460.85108 -12788139.93008  22235460.44508  22235461.71108
  -9016388.60108  -7025755.44608  23556924.69508  23556926.59108
  -4268644.21608  -3326207.48707  24581547.05708  24581549.95607
 -28391775.27409 -22123443.59008  20271285.26209  20271286.26308
 93 06 20 00 33 00.0000000  0  8 18 22 20 17 16 25 24 03
    172936.31508    134755.24107  24674407.54808  24674410.06007
 -15067032.82808 -11740537.63108  22390789.12308  22390789.89108
 -11053679.96608  -8613249.55008  23078281.82908  23078283.85608
 -18556946.07008 -14459943.12208  21854071.46508  21854072.68208
 -16416844.97308 -12792335.34708  22234435.77808  22234437.08908
  -8926494.42608  -6955708.11308  23574031.09708  23574032.96608
  -4162361.96608  -3243390.24107  24601772.02708  24601774.88307
 -28423322.38909 -22148025.75008  20265282.07209  20265283.05808
 93 06 20 00 33 30.0000000  0  8 22 18 20 17 16 25 24 03
 -15138064.31608 -11795886.81708  22377272.25408  22377273.04708
    203769.51708    158781.13407  24680275.02008  24680277.67307
 -10943456.33508  -8527361.06008  23099256.68308  23099258.73208
 -18648981.57008 -14531659.04708  21836557.82408  21836559.00508
 -16421583.54808 -12796027.73908  22233533.98908  22233535.33008
  -8836278.52608  -6885410.08008  23591198.76508  23591200.46508
  -4055975.26108  -3160491.58907  24622016.82708  24622019.69107
 -28454389.69409 -22172234.03208  20259370.12709  20259371.12508
 93 06 20 00 34 00.0000000  0  8 22 18 20 17 16 25 24 03
 -15208677.66208 -11850910.17908  22363834.98508  22363835.78208
    235159.62708    183240.93607  24686248.42408  24686251.07007
 -10833007.05308  -8441296.74808  23120274.49308  23120276.64908
 -18740665.66408 -14603101.14908  21819110.82408  21819111.96408
 -16425669.53008 -12799211.61108  22232756.48408  22232757.91308
  -8745756.25508  -6814873.31808  23608424.68208  23608426.49508
  -3949471.60208  -3077501.80307  24642283.74408  24642286.65007
 -28484979.63609 -22196070.34608  20253549.04509  20253550.06208
 93 06 20 00 34 30.0000000  0  8 22 18 20 17 16 25 24 03
 -15278865.23708 -11905601.77308  22350478.68708  22350479.53408
    267097.02808    208127.22207  24692325.97708  24692328.39307
 -10722334.73108  -8355058.64208  23141334.84608  23141336.96208
 -18832000.21808 -14674270.88408  21801730.39508  21801731.54508
 -16429117.61908 -12801898.42708  22232100.35108  22232101.77808
  -8654928.34508  -6744098.40108  23625708.63008  23625710.31708
  -3842840.08608  -2994412.40807  24662575.07708  24662578.09307
 -28515091.62009 -22219534.22508  20247818.93109  20247819.92808
 93 06 20 00 35 00.0000000  0  8 22 18 20 17 16 25 24 03
 -15348626.83908 -11959961.44008  22337203.47008  22337204.31908
    299586.72207    233443.91507  24698508.29907  24698510.97807
 -10611440.95308  -8268647.97008  23162437.28508  23162439.45508
 -18922980.48208 -14745164.55108  21784417.34308  21784418.52008
 -16431938.46908 -12804096.49008  22231563.64208  22231565.04208
  -8563794.24608  -6673084.89408  23643050.97608  23643052.63708
  -3736093.55808  -2911233.41307  24682888.49308  24682891.36507
 -28544724.44109 -22242624.73308  20242179.97309  20242180.99308
 93 06 20 00 35 30.0000000  0  8 22 18 20 17 16 25 24 03
 -15417951.77208 -12013980.84808  22324011.33108  22324012.17508
    332650.83708    259208.15707  24704800.32608  24704802.84707
 -10500317.43908  -8182058.28308  23183583.40808  23183585.56308
 -19013593.96708 -14815772.41808  21767174.11208  21767175.35608
 -16434134.37908 -12805807.58508  22231145.68808  22231147.13608
  -8472350.31608  -6601829.96308  23660452.30408  23660453.96008
  -3629221.56308  -2827956.64107  24703225.50508  24703228.60007
 -28573866.48809 -22265332.81508  20236634.42609  20236635.43608
 93 06 20 00 36 00.0000000  0  8 22 18 20 17 16 25 24 03
 -15486871.91908 -12067684.83908  22310896.21108  22310897.08108
    366257.56007    285395.23207  24711195.37707  24711197.84407
 -10388996.36908  -8095314.66308  23204767.15208  23204769.33308
 -19103867.65608 -14886115.51108  21749995.57908  21749996.77808
 -16435746.06508 -12807063.44208  22230839.01608  22230840.43008
  -8380623.51808  -6530354.61408  23677907.45908  23677909.10008
  -3522265.96508  -2744614.72407  24723578.58608  24723581.57007
 -28602546.80509 -22287681.10508  20231176.72509  20231177.72708
 93 06 20 00 36 30.0000000  0  8 22 18 20 17 16 25 24 03
 -15555355.14208 -12121048.36808  22297864.40008  22297865.18608
    400441.10907    312031.79407  24717699.98607  24717702.53407
 -10277450.33408  -8008395.74608  23225993.61708  23225995.90608
 -19193753.73008 -14956156.56508  21732890.79108  21732892.04208
 -16436753.34108 -12807848.33008  22230647.36108  22230648.76808
  -8288573.71008  -6458627.57808  23695424.03408  23695425.70108
  -3415220.12708  -2661202.49107  24743948.64908  24743951.90007
 -28630735.04209 -22309645.95508  20225812.66909  20225813.67608
 93 06 20 00 37 00.0000000  0  8 22 18 20 17 16 25 24 03
 -15623415.82008 -12174082.64008  22284912.91108  22284913.64608
    435197.85107    339114.97007  24724314.16607  24724316.72707
 -10165688.86208  -7921308.94608  23247261.16908  23247263.46408
 -19283253.80408 -15025896.83808  21715859.47508  21715860.78108
 -16437155.06108 -12808161.35808  22230570.88408  22230572.28408
  -8196201.95008  -6386649.66608  23713001.88408  23713003.52308
  -3308094.09708  -2577727.74607  24764334.23608  24764337.35707
 -28658437.65409 -22331232.39908  20220541.00609  20220542.04908
 93 06 20 00 37 30.0000000  0  8 22 18 20 17 16 25 24 03
 -15691032.30508 -12226770.78808  22272045.91908  22272046.63108
    470528.70707    366645.51007  24731037.35307  24731040.05607
 -10053698.86308  -7834044.07908  23268572.21808  23268574.50308
 -19372351.06008 -15095323.22708  21698904.75708  21698906.01208
 -16436923.53108 -12807980.94508  22230615.00908  22230616.40308
  -8103494.69908  -6314410.34108  23730643.59308  23730645.31308
  -3200873.56508  -2494179.35707  24784737.56708  24784740.99507
 -28685638.62209 -22352427.95008  20215364.81909  20215365.87508
 93 06 20 00 38 00.0000000  0  8 22 18 20 17 16 25 24 03
 -15758218.35808 -12279123.53408  22259260.80008  22259261.44808
    506411.86107    394606.39507  24737865.94807  24737868.41107
  -9941496.50708  -7746613.73608  23289923.58908  23289926.05008
 -19461059.30308 -15164446.49008  21682024.11508  21682025.34208
 -16436066.18008 -12807312.87708  22230778.13308  22230779.56008
  -8010471.15208  -6241924.55108  23748345.36908  23748347.10008
  -3093579.69608  -2410573.81307  24805155.05908  24805158.44907
 -28712351.13909 -22373242.88608  20210281.60809  20210282.67208
 93 06 20 00 38 30.0000000  0  8 22 18 20 17 16 25 24 03
 -15824976.33408 -12331142.71708  22246557.12108  22246557.70908
    542849.56108    422999.39607  24744799.80308  24744802.12507
  -9829082.70808  -7659018.63208  23311315.28408  23311317.75308
 -19549389.89908 -15233275.48008  21665215.36508  21665216.56108
 -16434560.19008 -12806139.37708  22231064.69808  22231066.10008
  -7917145.53508  -6169203.36908  23766104.66508  23766106.61708
  -2986206.82408  -2326906.71207  24825587.36508  24825590.95707
 -28738573.08409 -22393675.56008  20205291.73009  20205292.77108
 93 06 20 00 39 00.0000000  0  8 22 20 18 17 16 25 24 03
 -15891310.93208 -12382831.99308  22233934.10908  22233934.69908
  -9716468.33608  -7571267.22208  23332745.04008  23332747.62508
    579829.06507    451814.61107  24751836.80507  24751839.17207
 -19637360.22408 -15301823.74108  21648475.06708  21648476.23508
 -16432396.10108 -12804453.07508  22231476.45308  22231477.90408
  -7823555.61808  -6096276.23908  23783914.39808  23783916.21008
  -2878750.51808  -2243174.58707  24846035.68608  24846039.26207
 -28764312.34709 -22413732.11908  20200393.73209  20200394.77308
 93 06 20 00 39 30.0000000  0  8 22 20 18 17 16 25 24 03
 -15957210.99508 -12434182.67208  22221393.81208  22221394.39908
  -9603650.48308  -7483357.27008  23354213.56708  23354216.19108
    617358.48207    481058.31507  24758978.52107  24758980.72507
 -19724964.33208 -15370086.63808  21631804.55608  21631805.71708
 -16429572.89008 -12802253.17008  22232013.66708  22232015.11208
  -7729717.11208  -6023155.40208  23801771.38708  23801773.18708
  -2771200.57508  -2159369.48507  24866501.76408  24866505.29307
 -28789563.00809 -22433407.94708  20195588.68509  20195589.72208
 93 06 20 00 40 00.0000000  0  8 22 20 18 17 16 25 24 03
 -16022673.66208 -12485192.52308  22208936.67308  22208937.20108
  -9490631.39808  -7395290.51208  23375720.48508  23375723.09308
    655445.64108    510736.57607  24766226.53508  24766228.45407
 -19812194.54808 -15438058.19108  21615205.20908  21615206.31008
 -16426101.66708 -12799548.31608  22232674.16908  22232675.68008
  -7635638.86508  -5949847.74808  23819673.89808  23819675.69808
  -2663549.30907  -2075485.39407  24886987.13507  24886990.84607
 -28814324.35909 -22452702.49408  20190876.72509  20190877.80208
 93 06 20 00 40 30.0000000  0  8 22 20 18 17 16 25 24 03
 -16087690.70608 -12535855.13608  22196564.32908  22196564.87708
  -9377408.11508  -7307064.63608  23397266.26908  23397268.73308
    694089.53308    540848.72007  24773580.07908  24773582.19607
 -19899032.86808 -15505724.37208  21598680.34008  21598681.40408
 -16421989.04408 -12796343.67908  22233456.74308  22233458.25708
  -7541318.74308  -5876351.61708  23837622.54508  23837624.31908
  -2555785.75607  -1991513.80107  24907493.86707  24907497.52807
 -28838590.44309 -22471611.12408  20186259.03409  20186260.08108
 93 06 20 00 41 00.0000000  0  8 22 20 18 17 16 25 24 03
 -16152263.98808 -12586171.96008  22184276.45408  22184276.95108
  -9263988.43808  -7218685.73708  23418849.30008  23418851.81408
    733271.80107    571380.32207  24781036.15507  24781038.64407
 -19985465.84108 -15573074.70008  21582232.65308  21582233.75108
 -16417259.28708 -12792658.15508  22234356.86308  22234358.28608
  -7446748.87108  -5802660.88308  23855618.67108  23855620.53808
  -2447908.71907  -1907453.74707  24928022.18207  24928025.71407
 -28862366.31309 -22490137.76908  20181734.64209  20181735.65908
 93 06 20 00 41 30.0000000  0  8 22 20 18 17 16 25 24 03
 -16216381.93808 -12636133.98008  22172075.13608  22172075.60608
  -9150365.49508  -7130148.45108  23440471.13508  23440473.64608
    772992.86707    602331.79207  24788594.62807  24788597.25307
 -20071486.16808 -15640103.48708  21565863.52508  21565864.61008
 -16411919.04408 -12788496.92908  22235373.11208  22235374.49108
  -7351910.12008  -5728760.63608  23873665.90508  23873667.75008
  -2339920.90707  -1823307.38907  24948571.50207  24948575.17207
 -28885641.95109 -22508274.62408  20177305.45009  20177306.44608
 93 06 20 00 42 00.0000000  0  8 22 20 18 17 16 25 24 03
 -16280057.93908 -12685751.62408  22159957.96008  22159958.46708
  -9036558.45408  -7041467.71808  23462127.92608  23462130.48608
    813228.48107    633684.21607  24796251.34507  24796253.74207
 -20157104.66808 -15706819.16108  21549570.77908  21549571.89908
 -16405982.18108 -12783870.79908  22236502.90308  22236504.22808
  -7256809.91308  -5654656.66708  23891762.97008  23891764.91408
  -2231852.40207  -1739098.14607  24969136.34707  24969139.98207
 -28908433.32709 -22526034.13008  20172968.43209  20172969.41708
 93 06 20 00 42 30.0000000  0  8 22 20 18 17 16 25 24 03
 -16343285.62608 -12735019.93108  22147926.12908  22147926.63108
  -8922561.93608  -6952639.35208  23483820.83208  23483823.40008
    853984.04407    665441.82907  24804006.79907  24804009.25707
 -20242318.45908 -15773219.47408  21533355.11408  21533356.22608
 -16399434.53308 -12778768.73508  22237748.89708  22237750.19908
  -7161438.41808  -5580341.31008  23909911.62908  23909913.59408
  -2123707.43207  -1654829.30707  24989715.40707  24989719.24807
 -28930732.60009 -22543410.18408  20168725.03509  20168725.99908
 93 06 20 00 43 00.0000000  0  8 22 20 18 17 16 25 24 03
 -16406050.67308 -12783927.74008  22135982.33508  22135982.87608
  -8808372.34408  -6863660.53108  23505550.43608  23505553.06008
    895277.15907    697618.30807  24811864.53607  24811866.81607
 -20327125.51808 -15839302.85408  21517216.92108  21517218.08408
 -16392268.65508 -12773184.93608  22239112.44108  22239113.78508
  -7065788.09908  -5505808.69008  23928113.43808  23928115.33008
  -2015491.41907  -1570505.11007  25010308.35907  25010311.90107
 -28952532.83809 -22560397.37908  20164576.54309  20164577.56408
 93 06 20 00 43 30.0000000  0  8 22 20 17 18 16 25 24 03
 -16468352.91908 -12832474.92808  22124126.47708  22124127.06708
  -8693995.35308  -6774535.69108  23527315.65108  23527318.28508
 -20411520.78208 -15905065.35508  21501157.04508  21501158.09108
    937121.88707    730224.60107  24819827.23607  24819829.58407
 -16384496.20308 -12767128.48608  22240591.53208  22240592.86708
  -6969867.80508  -5431065.69008  23946366.45408  23946368.44208
  -1907225.23907  -1486141.77607  25030910.64407  25030914.42507
 -28973837.13309 -22576998.12108  20160522.43309  20160523.45708
 93 06 20 00 44 00.0000000  0  8 22 20 18 17 16 25 24 03
 -16530184.86808 -12880655.64908  22112360.20608  22112360.85808
  -8579428.04308  -6685262.54108  23549117.13708  23549119.82108
    979530.22607    763270.04107  24827897.29907  24827899.61807
 -20495480.18308 -15970488.22008  21485180.02908  21485181.05308
 -16376109.74008 -12760593.57608  22242187.57608  22242188.85908
  -6873667.02908  -5356104.12708  23964672.79108  23964674.81308
  -1798904.24507  -1401735.73907  25051523.38507  25051526.81907
 -28994639.83809 -22593208.01508  20156563.79309  20156564.83708
 93 06 20 00 44 30.0000000  0  8 22 17 20 18 16 25 24 03
 -16591549.34208 -12928472.10308  22100683.06208  22100683.74708
 -20579009.54008 -16035575.98408  21469284.93308  21469285.87508
  -8464675.49608  -6595845.04908  23570953.89508  23570956.54508
   1022499.75607    796752.76807  24836073.90907  24836076.43307
 -16367107.74508 -12753579.02708  22243900.56908  22243901.84108
  -6777185.84608  -5280924.06108  23983032.52008  23983034.66708
  -1690521.89307  -1317281.88707  25072147.63907  25072151.45807
 -29014942.74409 -22609028.46208  20152700.24809  20152701.32908
 93 06 20 00 45 00.0000000  0  8 22 17 20 18 16 25 24 03
 -16652450.74708 -12975927.72708  22089093.87708  22089094.56108
 -20662117.08408 -16100335.06708  21453470.07308  21453470.90708
  -8349751.35708  -6506293.83608  23592823.29108  23592825.92008
   1066018.21507    830663.23707  24844355.51207  24844357.96207
 -16357500.37808 -12746092.76608  22245728.75208  22245730.02908
  -6680436.12908  -5205534.74808  24001443.48908  24001445.72208
  -1582083.10507  -1232784.07607  25092783.02307  25092786.52507
 -29034757.09309 -22624468.22608  20148929.70809  20148930.81208
 93 06 20 00 45 30.0000000  0  8 17 22 20 18 16 25 24 03
 -20744818.90908 -16164778.00308  21437732.45008  21437733.25908
 -16712902.37708 -13023032.87508  22077590.31508  22077590.97408
  -8234667.97308  -6416618.54408  23614723.02408  23614725.57908
   1110066.21807    864986.36207  24852737.58107  24852740.23407
 -16347285.36708 -12738133.01708  22247672.55008  22247673.89108
  -6583442.73208  -5129955.56408  24019900.67808  24019902.97708
  -1473592.77807  -1148246.08807  25113428.01907  25113431.34407
 -29054091.76008 -22639534.21008  20145250.44708  20145251.57008
 93 06 20 00 46 00.0000000  0  8 17 22 20 18 16 25 24 03
 -20827132.57808 -16228918.48008  21422068.57108  21422069.42908
 -16772901.01708 -13069785.04508  22066172.99308  22066173.62008
  -8119421.14808  -6326815.90108  23636653.89908  23636656.44908
   1154629.96107    899711.35807  24861217.57807  24861220.42307
 -16336439.21108 -12729681.46508  22249736.34308  22249737.83408
  -6486207.36208  -5054187.82908  24038404.02708  24038406.29108
  -1365036.89307  -1063657.05707  25134085.46607  25134089.07907
 -29072940.12508 -22654221.24508  20141663.69808  20141664.83608
 93 06 20 00 46 30.0000000  0  8 17 22 20 18 16 25 24 03
 -20909071.90808 -16292767.26408  21406476.01908  21406476.84208
 -16832430.22608 -13116171.42508  22054844.90608  22054845.52808
  -8004008.15708  -6236883.78408  23658616.39708  23658618.82808
   1199701.82207    934832.24307  24869794.51607  24869797.32207
 -16324959.62008 -12720736.32808  22251920.88508  22251922.33808
  -6388728.71308  -4978230.52408  24056953.64508  24056956.00308
  -1256403.88707   -979007.94407  25154757.75407  25154760.98607
 -29091296.00808 -22668524.52308  20138170.68008  20138171.82108
 93 06 20 00 47 00.0000000  0  8 17 22 16 18 20 25 24 03
 -20990620.96808 -16356311.94208  21390957.72808  21390958.55608
 -16891471.91508 -13162177.91808  22043609.54508  22043610.16108
 -16312851.63408 -12711301.53208  22254224.95108  22254226.41108
   1245287.95307    970353.89407  24878469.03807  24878472.32607
  -7888417.23308  -6146813.01408  23680612.66708  23680615.10408
  -6291015.09408  -4902090.12808  24075547.95608  24075550.40808
  -1147689.34907   -894295.30407  25175445.31707  25175448.71307
 -29109145.40208 -22682433.13108  20134774.05008  20134775.16308
 93 06 20 00 47 30.0000000  0  8 17 22 16 18 20 25 24 03
 -21071789.99608 -16419560.49708  21375511.73508  21375512.54208
 -16950035.68908 -13207812.00908  22032465.26808  22032465.93908
 -16300130.83308 -12701389.21708  22256645.69408  22256647.13008
   1291367.54407   1006260.06007  24887237.94107  24887240.79907
  -7772659.77608  -6056612.48308  23702640.63908  23702643.07208
  -6193087.21308  -4825782.77208  24094183.04408  24094185.48908
  -1038914.64207   -809535.80207  25196144.48807  25196147.85807
 -29126496.59508 -22695953.52708  20131472.25608  20131473.31308
 93 06 20 00 48 00.0000000  0  8 17 22 16 18 20 25 24 03
 -21152553.08808 -16482492.73308  21360143.02108  21360143.81508
 -17008104.07308 -13253060.08108  22021415.21008  22021415.81708
 -16286790.46908 -12690994.12708  22259184.30708  22259185.72408
   1337949.83107   1042557.96807  24896102.37207  24896105.31007
  -7656723.17608  -5966272.35308  23724702.77708  23724705.13108
  -6094922.84808  -4749291.14708  24112863.02508  24112865.61908
   -930067.25007   -724719.64507  25216857.59507  25216860.67707
 -29143334.23008 -22709073.74808  20128268.17108  20128269.20408
 93 06 20 00 48 30.0000000  0  8 17 22 16 18 20 25 24 03
 -21232888.73908 -16545091.90008  21344855.55408  21344856.36608
 -17065675.30608 -13297920.76408  22010459.71808  22010460.34008
 -16272840.71208 -12680124.18808  22261838.89408  22261840.29708
   1385042.34207   1079253.39907  24905063.96307  24905066.67207
  -7540614.89608  -5875798.44308  23746797.45608  23746799.86208
  -5996537.09608  -4672627.01608  24131585.38108  24131587.93608
   -821155.56707   -639853.41007  25237582.80707  25237585.93107
 -29159662.55408 -22721797.11008  20125160.97708  20125162.04108
 93 06 20 00 49 00.0000000  0  8 17 22 16 20 18 25 24 03
 -21312770.76408 -16607337.59108  21329654.47208  21329655.28208
 -17122754.57008 -13342398.09608  21999597.99108  21999598.56708
 -16258261.29508 -12668763.60408  22264613.33208  22264614.69308
  -7424329.92108  -5785186.86108  23768925.93208  23768928.23208
   1432666.50207   1116363.16107  24914126.39907  24914129.13807
  -5897939.93708  -4595798.14608  24150347.91908  24150350.42308
   -712182.97507   -554939.68707  25258319.62807  25258322.80407
 -29175474.36208 -22734118.00108  20122152.07408  20122153.12408
 93 06 20 00 49 30.0000000  0  8 17 22 16 20 18 25 24 03
 -21392200.19808 -16669230.61708  21314539.49408  21314540.33008
 -17179348.89208 -13386497.55108  21988828.40608  21988828.99308
 -16243036.23008 -12656899.92308  22267510.59508  22267511.88908
  -7307876.37808  -5694443.92408  23791086.36508  23791088.62708
   1480826.04007   1153890.09407  24923291.18507  24923293.55907
  -5799118.82608  -4518794.77408  24169153.02908  24169155.57108
   -603148.20807   -469977.54107  25279068.20707  25279071.24907
 -29190774.58008 -22746040.24808  20119240.55608  20119241.59808
 93 06 20 00 50 00.0000000  0  8 17 22 16 20 18 25 24 03
 -21471188.67708 -16730780.03908  21299508.44308  21299509.28208
 -17235480.50608 -13430236.45708  21978146.97608  21978147.48908
 -16227183.67208 -12644547.28508  22270527.23108  22270528.47908
  -7191282.93408  -5603591.96908  23813273.45108  23813275.66508
   1529500.73607   1191818.43107  24932553.42107  24932555.72007
  -5700098.24508  -4441635.97008  24187996.03308  24187998.66308
   -494065.02107   -384977.64707  25299826.14107  25299829.17407
 -29205589.31908 -22757584.20008  20116421.40908  20116422.43108
 93 06 20 00 50 30.0000000  0  8 17 22 16 20 18 25 24 03
 -21549743.18808 -16791991.30908  21284559.99808  21284560.87108
 -17291143.30908 -13473610.05508  21967554.59408  21967555.08208
 -16210703.56408 -12631705.65208  22273663.40608  22273664.65308
  -7074552.36508  -5512633.16508  23835486.58208  23835488.89108
   1578699.38307   1230155.05707  24941915.21807  24941918.04307
  -5600885.42308  -4364327.36808  24206875.66808  24206878.34208
   -384938.16107   -299943.72307  25320592.43607  25320595.25607
 -29219918.10108 -22768749.48008  20113694.74508  20113695.74508
 93 06 20 00 51 00.0000000  0  8 17 22 16 20 18 25 24 03
 -21627849.17808 -16852853.08308  21269696.83808  21269697.71808
 -17346315.28308 -13516601.19008  21957055.73008  21957056.15508
 -16193574.49308 -12618358.33308  22276922.93508  22276924.18308
  -6957664.79608  -5421552.02308  23857729.64608  23857731.92208
   1628435.45307   1268910.41207  24951379.67707  24951382.30007
  -5501456.60208  -4286850.45408  24225796.43608  24225799.16608
   -275754.25407   -214865.32107  25341369.27307  25341372.19307
 -29233738.91909 -22779518.94608  20111064.71109  20111065.73108
 93 06 20 00 51 30.0000000  0  8 17 22 16 20 18 25 24 03
 -21705520.76108 -16913376.35308  21254916.43708  21254917.32208
 -17400986.91508 -13559202.44408  21946652.10208  21946652.47608
 -16175814.96908 -12604519.75208  22280302.38308  22280303.63208
  -6840621.62308  -5330349.63208  23880002.34708  23880004.65108
   1678706.30207   1308082.49107  24960945.88207  24960948.55507
  -5401806.80308  -4209201.35308  24244759.22208  24244761.93408
   -166517.29407   -129745.59407  25362156.33307  25362159.34107
 -29247049.74209 -22789891.01408  20108531.78309  20108532.73708
 93 06 20 00 52 00.0000000  0  8 17 22 16 20 18 25 24 03
 -21782789.25908 -16973585.53208  21240212.71908  21240213.55608
 -17455190.02908 -13601438.62008  21936337.58408  21936337.93508
 -16157465.49508 -12590221.46408  22283794.14808  22283795.47808
  -6723453.90908  -5239050.20408  23902298.68508  23902301.04108
   1729480.22107   1347646.57307  24970607.81607  24970610.60207
  -5301976.43808  -4131411.55408  24263756.36108  24263759.21108
    -57267.26507    -44615.70607  25382945.90807  25382948.85407
 -29259879.54409 -22799888.25508  20106090.34409  20106091.33908
 93 06 20 00 52 30.0000000  0  8 17 22 16 20 18 25 24 03
 -21859642.29008 -17033470.97108  21225588.06608  21225588.89508
 -17508912.09008 -13643299.95108  21926114.57008  21926114.93608
 -16138530.01108 -12575466.54208  22287397.43508  22287398.79308
  -6606151.12408  -5147645.52908  23924620.77508  23924623.10608
   1780771.42107   1387613.70607  24980368.07607  24980370.95507
  -5201948.50708  -4053467.81008  24282791.09308  24282793.92608
     52000.45307     40527.97907  25403738.80707  25403741.74507
 -29272214.46908 -22809499.88408  20103743.06808  20103744.07708
 93 06 20 00 53 00.0000000  0  8 17 22 16 18 20 25 24 03
 -21936062.75508 -17093019.34808  21211045.73608  21211046.57108
 -17562151.91108 -13684785.51108  21915983.38208  21915983.72508
 -16119015.83208 -12560260.69308  22291110.88908  22291112.23708
   1832575.64007   1427980.56407  24990226.23407  24990229.15007
  -6488707.88308  -5056131.40608  23946969.56208  23946971.99208
  -5101711.42508  -3975361.09608  24301865.74008  24301868.41408
    161303.40607    125699.12607  25424538.50207  25424541.42707
 -29284046.70908 -22818719.81408  20101491.47708  20101492.44308
 93 06 20 00 53 30.0000000  0  8 17 22 16 18 20 25 24 03
 -22012035.17108 -17152218.59608  21196588.63708  21196589.42608
 -17614892.71208 -13725882.22308  21905947.10608  21905947.45308
 -16098909.32508 -12544593.29008  22294936.96208  22294938.32108
   1884903.05207   1468755.14507  25000183.85707  25000186.74407
  -6371111.07808  -4964497.61208  23969347.57808  23969349.99208
  -5001245.30208  -3897075.89908  24320983.90508  24320986.61108
    270666.29207    210916.92107  25445349.70507  25445352.48007
 -29295360.45108 -22827535.72308  20099338.53708  20099339.52008
 93 06 20 00 54 00.0000000  0  8 17 22 16 18 20 25 24 03
 -22087552.11208 -17211062.92708  21182218.22408  21182218.99508
 -17667144.93708 -13766598.22808  21896003.83708  21896004.19108
 -16078209.05708 -12528463.21208  22298876.04708  22298877.39308
   1937726.92907   1509916.59107  25010236.29207  25010238.83807
  -6253375.69708  -4872755.84308  23991751.91108  23991754.50308
  -4900561.61808  -3818621.17508  24340143.60408  24340146.16808
    380084.85607    296178.14707  25466171.33507  25466174.01307
 -29306168.41008 -22835957.51608  20097281.84508  20097282.84808
 93 06 20 00 54 30.0000000  0  8 17 22 16 18 20 25 24 03
 -22162608.55408 -17269548.42908  21167935.37508  21167936.17208
 -17718897.56808 -13806924.93908  21886155.65908  21886156.06308
 -16056901.55008 -12511859.96408  22302930.77608  22302932.05808
   1991041.47007   1551460.39107  25020381.72907  25020384.40907
  -6135500.29508  -4780904.96408  24014182.95908  24014185.47708
  -4799665.56608  -3740000.96908  24359343.61208  24359346.22808
    489567.76307    381489.46307  25487005.22607  25487008.14207
 -29316465.56908 -22843981.27908  20095322.37208  20095323.35808
 93 06 20 00 55 00.0000000  0  8 17 22 16 18 20 25 24 03
 -22237241.15308 -17327703.66608  21153733.12808  21153733.94808
 -17770166.23108 -13846874.53208  21876399.49708  21876399.96208
 -16034985.95908 -12494782.88608  22307101.06408  22307102.45608
   2044821.97807   1593367.22807  25030615.42807  25030618.26307
  -6017505.94008  -4688961.39608  24036636.59108  24036639.13708
  -4698587.50908  -3661238.93908  24378578.19808  24378580.67608
    599089.82607    466831.29807  25507846.43007  25507849.52307
 -29326270.90808 -22851621.80008  20093456.50008  20093457.41608
 93 06 20 00 55 30.0000000  0  8 17 22 16 18 20 25 24 03
 -22311423.47208 -17385508.03808  21139616.82108  21139617.66808
 -17820916.26808 -13886420.00108  21866741.98708  21866742.47708
 -16012414.52608 -12477194.76008  22311396.22608  22311397.61408
   2099090.45607   1635654.34507  25040942.48807  25040945.29807
  -5899373.18808  -4596909.97908  24059116.53308  24059119.18408
  -4597311.15108  -3582322.40208  24397850.51008  24397852.99108
    708663.80507    552213.62907  25528697.76107  25528700.81607
 -29335562.02608 -22858861.62608  20091688.45108  20091689.38208
 93 06 20 00 56 00.0000000  0  8 17 22 16 18 20 25 24 03
 -22385162.11608 -17442966.68908  21125584.71108  21125585.57108
 -17871151.08808 -13925564.00308  21857182.60908  21857183.14208
 -15989195.03108 -12459101.65308  22315814.80208  22315816.14608
   2153839.43407   1678315.85707  25051360.81907  25051363.68807
  -5781117.04508  -4504762.42108  24081619.94508  24081622.61108
  -4495858.65908  -3503268.60808  24417156.31908  24417158.93408
    818278.80907    637627.90807  25549556.66007  25549559.74507
 -29344351.35308 -22865710.44908  20090015.87208  20090016.79608
 93 06 20 00 56 30.0000000  0  8 17 22 16 18 20 25 24 03
 -22458478.25008 -17500096.11508  21111633.12808  21111633.98408
 -17920884.27808 -13964317.12308  21847718.74808  21847719.23608
 -15965358.78108 -12440527.95808  22320350.74208  22320352.03508
   2209060.17407   1721344.98507  25061869.25107  25061872.12107
  -5662751.99908  -4412530.00108  24104144.07308  24104146.93308
  -4394253.97908  -3424096.23508  24436491.03608  24436493.63808
    927909.95307    723054.78307  25570418.87607  25570421.86107
 -29352651.03108 -22872177.72608  20088436.48208  20088437.44608
 93 06 20 00 57 00.0000000  0  8 17 22 16 18 20 25 24 03
 -22531349.24708 -17556878.68008  21097766.25808  21097767.07608
 -17970090.06308 -14002659.27908  21838355.12708  21838355.61108
 -15940907.77108 -12421475.22608  22325003.68008  22325005.00508
   2264768.83507   1764754.32507  25072470.16007  25072472.98907
  -5544266.63508  -4320203.83108  24126691.17908  24126693.97808
  -4292483.89708  -3344794.96108  24455857.19108  24455859.89008
   1037560.37007    808496.64307  25591284.40507  25591287.70407
 -29360446.48308 -22878252.09908  20086953.05208  20086954.05008
 93 06 20 00 57 30.0000000  0  8 17 22 16 18 20 25 24 03
 -22603741.90908 -17613288.51608  21083990.36408  21083991.12308
 -18018756.61208 -14040581.25108  21829094.28008  21829094.77508
 -15915845.35408 -12401946.07408  22329772.87308  22329774.26608
   2320971.06107   1808548.23107  25083165.11607  25083167.86607
  -5425655.84208  -4227779.92408  24149262.04708  24149264.99508
  -4190551.24508  -3265367.01808  24475254.41308  24475257.08108
   1147242.86807    893963.52207  25612156.26507  25612159.34107
 -29367730.42208 -22883927.89308  20085566.95208  20085567.99108
 93 06 20 00 58 00.0000000  0  8 17 22 16 18 20 25 24 03
 -22675681.08808 -17669344.99108  21070300.77308  21070301.53408
 -18066916.96608 -14078108.78408  21819929.76308  21819930.12108
 -15890216.26908 -12381975.36308  22334649.96108  22334651.20108
   2377651.95707   1852715.18107  25093951.19607  25093953.68907
  -5306940.44408  -4135274.50608  24171852.87808  24171855.84608
  -4088479.73308  -3185830.87908  24494678.00308  24494680.79708
   1256929.08407    979433.34106  25633029.04607  25633032.11906
 -29374520.65308 -22889218.98208  20084274.80208  20084275.85808
 93 06 20 00 58 30.0000000  0  8 17 22 16 18 20 25 24 03
 -22747176.78908 -17725055.89708  21056695.55208  21056696.28708
 -18114586.85508 -14115254.13808  21810858.41808  21810858.76908
 -15864037.85608 -12361576.60408  22339631.55308  22339632.75508
   2434803.69207   1897248.98407  25104827.04307  25104829.39607
  -5188127.28508  -4042692.90708  24194462.37208  24194465.31708
  -3986274.42908  -3106190.49408  24514127.21808  24514129.89608
   1366600.58107   1064891.68206  25653898.87007  25653901.95806
 -29380821.95308 -22894129.08608  20083075.69308  20083076.75108
 93 06 20 00 59 00.0000000  0  7 17 22 16 18 20 25 03
 -22818195.28408 -17780394.95308  21043181.12708  21043181.87908
 -18161730.99108 -14151989.81308  21801887.16208  21801887.53308
 -15837260.22708 -12340710.92708  22344727.13708  22344728.34708
   2492451.50307   1942169.31207  25115797.19607  25115799.28907
  -5069190.41508  -3950014.91408  24217095.39008  24217098.47608
  -3883903.24608  -3026420.83208  24533607.71408  24533610.58208
 -29386605.02708 -22898635.37408  20081975.20508  20081976.25808
 93 06 20 00 59 30.0000000  0  7 17 22 16 18 20 25 03
 -22888715.77608 -17835345.95108  21029761.49108  21029762.26608
 -18208347.09708 -14188314.03708  21793016.30608  21793016.69108
 -15809845.26908 -12319348.62708  22349943.99408  22349945.23808
   2550607.52407   1987485.67607  25126863.67207  25126865.95807
  -4950112.63208  -3857227.11308  24239755.13908  24239758.28008
  -3781341.53108  -2946502.72308  24553124.71408  24553127.56708
 -29391850.47608 -22902722.73608  20080977.05108  20080978.07708
 93 06 20 01 00 00.0000000  0  7 17 22 16 18 20 25 03
 -22958769.70108 -17889933.39208  21016430.70308  21016431.39708
 -18254452.29608 -14224240.15408  21784242.79708  21784243.14008
 -15781811.58808 -12297504.21008  22355278.61808  22355279.84808
   2609255.37007   2033185.24307  25138024.21307  25138026.47907
  -4830914.94208  -3764345.88708  24262437.69308  24262440.92808
  -3678600.12208  -2866444.58107  24572675.77108  24572678.61007
 -29396576.96308 -22906405.71208  20080077.66108  20080078.67108
 93 06 20 01 00 30.0000000  0  7 17 22 16 18 20 25 03
 -23028385.05408 -17944179.09008  21003183.32308  21003183.97008
 -18300059.05408 -14259777.87608  21775564.11108  21775564.44408
 -15753173.62908 -12275188.92608  22360728.20908  22360729.52708
   2668350.30207   2079233.20107  25149269.51907  25149271.98407
  -4711631.42108  -3671397.77708  24285136.67208  24285139.91108
  -3575727.64808  -2786284.30608  24592251.94408  24592254.85408
 -29400815.28508 -22909708.29508  20079271.09408  20079272.14008
 93 06 20 01 01 00.0000000  0  7 22 16 18 20 25 17 03
 -18345146.37308 -14294910.83908  21766984.27708  21766984.61308
 -15723904.96108 -12252382.17708  22366297.86608  22366299.23008
   2727903.06007   2125637.89907  25160601.95107  25160603.95307
  -4592257.31708  -3578379.08708  24307852.92708  24307856.13208
  -3472725.84208  -2706023.25907  24611852.44508  24611855.38707
 -23097556.95408 -17998079.24308  20990020.31508  20990020.93908
 -29404558.95608 -22912625.43508  20078558.70508  20078559.72608
 93 06 20 01 01 30.0000000  0  7 22 16 18 20 17 25 03
 -18389694.02708 -14329623.28308  21758507.08308  21758507.45108
 -15694003.59708 -12229082.41208  22371987.89308  22371989.25508
   2787942.32607   2172421.72907  25172027.13607  25172029.32907
  -4472770.98208  -3485272.94808  24330590.42908  24330593.72308
 -23166270.31908 -18051622.09308  20976944.41208  20976945.08608
  -3369574.33708  -2625645.56508  24631481.73108  24631484.63308
 -29407783.43708 -22915138.00808  20077945.09508  20077946.11308
 93 06 20 01 02 00.0000000  0  7 22 16 18 20 25 17 03
 -18433713.69408 -14363924.31108  21750130.34908  21750130.77708
 -15663514.00508 -12205324.29108  22377789.96608  22377791.32408
   2848459.33707   2219577.85207  25183543.19607  25183545.48807
  -4353190.98708  -3392093.83508  24353345.79308  24353349.13708
  -3266299.91008  -2545172.07407  24651134.17708  24651137.11707
 -23234547.44608 -18104825.00708  20963951.77108  20963952.42908
 -29410504.88908 -22917258.61508  20077427.20108  20077428.22908
 93 06 20 01 02 30.0000000  0  7 22 16 18 20 25 17 03
 -18477212.15208 -14397819.19808  21741852.82208  21741853.28008
 -15632447.73308 -12181116.80608  22383701.65308  22383703.04508
   2909434.58507   2267091.01907  25195146.21707  25195148.90107
  -4233524.27708  -3298847.14308  24376117.63608  24376121.07108
  -3162919.09108  -2464615.69508  24670807.14008  24670810.04108
 -23302385.30608 -18157685.64408  20951042.62608  20951043.32408
 -29412727.45108 -22918990.47908  20077004.28008  20077005.29308
 93 06 20 01 03 00.0000000  0  7 22 16 18 20 17 25 03
 -18520187.28508 -14431306.30208  21733675.00308  21733675.44608
 -15600811.24208 -12156464.99408  22389721.97008  22389723.29408
   2970867.51307   2314960.80307  25206836.95607  25206839.34707
  -4113766.58008  -3205529.54908  24398906.86008  24398910.18508
 -23369764.39108 -18210188.78908  20938220.78408  20938221.52008
  -3059403.68008  -2383954.42908  24690505.69008  24690508.64808
 -29414444.48308 -22920328.42108  20076677.56208  20076678.55708
 93 06 20 01 03 30.0000000  0  7 22 16 18 20 17 25 03
 -18562653.84508 -14464397.11508  21725593.78808  21725594.26008
 -15568622.41908 -12131382.79308  22395847.28808  22395848.53408
   3032741.61007   2363174.39807  25218611.21707  25218613.74107
  -3993916.66208  -3112140.09608  24421713.61908  24421717.16108
 -23436663.86308 -18262318.21408  20925490.23408  20925490.92708
  -2955748.84808  -2303184.52708  24710230.55508  24710233.57008
 -29415652.45608 -22921269.69708  20076447.69808  20076448.68708
 93 06 20 01 04 00.0000000  0  7 22 16 18 20 17 25 03
 -18604575.69508 -14497063.48108  21717616.41308  21717616.79908
 -15535842.78408 -12105840.22208  22402085.01608  22402086.36808
   3095070.89207   2411742.68107  25230471.91407  25230474.45307
  -3873951.60708  -3018660.92208  24444542.33808  24444545.77708
 -23503047.16608 -18314045.43608  20912857.87608  20912858.60208
  -2851933.77008  -2222289.75808  24729985.98008  24729989.04908
 -29416325.61608 -22921794.23908  20076319.60908  20076320.57608
 93 06 20 01 04 30.0000000  0  7 22 16 18 20 17 25 03
 -18645969.31708 -14529318.24008  21709739.47308  21709739.84508
 -15502490.71508 -12079851.60108  22408431.68108  22408433.03308
   3157813.80407   2460633.26706  25242411.36907  25242413.57506
  -3753908.18908  -2925120.68908  24467385.84108  24467389.38808
 -23568945.08508 -18365394.43808  20900317.92608  20900318.61608
  -2747987.00708  -2141292.37007  24749766.34608  24749769.51207
 -29416498.42308 -22921928.89708  20076286.67608  20076287.68108
 93 06 20 01 05 00.0000000  0  7 22 16 18 20 17 25 03
 -18686845.28608 -14561169.63308  21701961.08108  21701961.45508
 -15468568.10108 -12053418.39708  22414886.99208  22414888.38608
   3220974.34907   2509849.26107  25254430.59307  25254432.91307
  -3633803.45408  -2831532.67308  24490241.15508  24490244.67808
 -23634380.57308 -18416383.09608  20887865.94808  20887866.63708
  -2643915.19108  -2060197.55307  24769570.70008  24769573.83907
 -29416185.58308 -22921685.12708  20076346.17708  20076347.22308
 93 06 20 01 05 30.0000000  0  7 22 16 18 20 17 25 03
 -18727165.83108 -14592588.22908  21694288.41208  21694288.76708
 -15434031.91108 -12026507.08108  22421458.98908  22421460.44708
   3284602.82407   2559429.88007  25266538.63107  25266541.17607
  -3513607.83608  -2737873.83608  24513113.64108  24513117.19908
 -23699330.41208 -18466993.33508  20875506.33508  20875507.03408
  -2539703.72408  -1978993.90507  24789401.41708  24789404.73007
 -29415354.92608 -22921037.86408  20076504.25908  20076505.26708
 93 06 20 01 06 00.0000000  0  7 22 16 18 20 17 25 03
 -18766906.89908 -14623555.28208  21686725.80208  21686726.13908
 -15398865.69608 -11999104.83808  22428150.84108  22428152.38808
   3348716.85307   2609388.86707  25278738.94007  25278741.48207
  -3393319.83508  -2644143.01308  24536003.80008  24536007.29008
 -23763796.92308 -18517226.96208  20863238.74008  20863239.41308
  -2435354.32908  -1897682.79407  24809258.63008  24809261.88107
 -29414002.74508 -22919984.21708  20076761.57808  20076762.60708
 93 06 20 01 06 30.0000000  0  7 22 16 18 20 17 25 03
 -18806111.15508 -14654104.04208  21679265.49308  21679265.80008
 -15363098.81508 -11971234.54308  22434957.03308  22434958.55708
   3413290.92007   2659706.32206  25291026.98407  25291029.50006
  -3272965.83108  -2550360.75508  24558906.52408  24558910.08708
 -23827803.14008 -18567101.91408  20851058.72708  20851059.40108
  -2330902.34208  -1816291.73707  24829135.33608  24829138.58007
 -29412152.62608 -22918542.56808  20077113.65308  20077114.70308
 93 06 20 01 07 00.0000000  0  7 22 16 18 20 17 25 03
 -18844802.88908 -14684253.43508  21671902.64808  21671902.99808
 -15326739.53208 -11942902.63408  22441876.00808  22441877.47208
   3478309.64107   2710370.27706  25303399.47907  25303401.86506
  -3152552.83708  -2456532.52708  24581820.36008  24581823.86708
 -23891347.81708 -18616617.21908  20838966.60608  20838967.26308
  -2226366.83108  -1734835.59907  24849027.84708  24849031.10007
 -29409809.45008 -22916716.71908  20077559.53708  20077560.60408
 93 06 20 01 07 30.0000000  0  7 22 16 18 20 17 25 03
 -18882972.56908 -14713996.03208  21664639.16308  21664639.50608
 -15289801.95808 -11914120.11308  22448905.01508  22448906.39508
   3543772.80307   2761380.55606  25315856.97707  25315859.11306
  -3032071.90908  -2362651.36708  24604747.19808  24604750.76608
 -23954409.48408 -18665756.15308  20826966.38108  20826967.00808
  -2121734.53408  -1653304.04807  24868938.79308  24868941.93007
 -29406962.04608 -22914497.96408  20078101.38308  20078102.45008
 93 06 20 01 08 00.0000000  0  7 22 16 18 20 17 25 03
 -18920628.76008 -14743338.50708  21657473.40608  21657473.74908
 -15252305.13108 -11884901.81008  22456040.43108  22456041.76908
   3609668.07707   2812727.49906  25328396.27507  25328398.64806
  -2911527.59308  -2268720.81008  24627686.02208  24627689.63708
 -24016997.73108 -18714526.19208  20815056.25508  20815056.82508
  -2017003.48908  -1571695.55207  24888868.56408  24888871.62607
 -29403612.10008 -22911887.61908  20078738.84108  20078739.93808
 93 06 20 01 08 30.0000000  0  7 22 16 18 20 17 25 03
 -18957769.12508 -14772279.03908  21650405.84708  21650406.19908
 -15214250.97408 -11855249.22908  22463281.92208  22463283.30908
   3675990.45807   2864407.28106  25341017.17807  25341019.23606
  -2790918.20608  -2174739.55708  24650637.34908  24650640.95308
 -24079112.34708 -18762927.16508  20803236.20108  20803236.77208
  -1912165.14408  -1490003.44007  24908818.69608  24908821.92007
 -29399755.82208 -22908882.72708  20079472.67308  20079473.75008
 93 06 20 01 09 00.0000000  0  7 22 16 18 20 17 25 03
 -18994356.34208 -14800788.54908  21643443.43608  21643443.80508
 -15175625.95008 -11825151.81408  22470632.07408  22470633.35408
   3742765.77507   2916439.96406  25353724.03407  25353726.52306
  -2670229.25608  -2080696.30308  24673603.71508  24673607.37508
 -24140737.80608 -18810946.98308  20791509.22208  20791509.80708
  -1807192.29208  -1408206.51107  24928794.42908  24928797.71307
 -29395376.49708 -22905470.26608  20080306.08308  20080307.09208
 93 06 20 01 09 30.0000000  0  7 22 16 18 20 17 25 03
 -19030386.64208 -14828864.09808  21636587.14008  21636587.49608
 -15136443.28408 -11794619.87208  22478088.36308  22478089.65508
   3809982.04507   2968816.21406  25366514.82907  25366517.50506
  -2549476.71908  -1986603.50208  24696582.22108  24696585.86608
 -24201887.97908 -18858596.44708  20779872.70408  20779873.34108
  -1702103.32908  -1326319.12007  24948792.16308  24948795.43907
 -29390487.74508 -22901660.85108  20081236.41108  20081237.39508
 93 06 20 01 10 00.0000000  0  7 22 16 18 20 17 25 03
 -19065847.46008 -14856495.89408  21629839.25108  21629839.54708
 -15096678.80508 -11763634.57008  22485655.27908  22485656.53408
   3877638.85907   3021535.78406  25379389.41607  25379392.31306
  -2428656.68308  -1892458.10808  24719573.55608  24719577.26408
 -24262557.86708 -18905871.65708  20768327.59408  20768328.22808
  -1596915.75808  -1244354.88407  24968808.95108  24968812.06307
 -29385082.89408 -22897449.28008  20082264.90708  20082265.90108
 93 06 20 01 10 30.0000000  0  6 22 16 20 17 25 03
 -19100740.52008 -14883685.28108  21623199.29108  21623199.57308
 -15056330.22508 -11732194.12408  22493333.35208  22493334.64708
  -2307784.62908  -1798272.17208  24742574.89808  24742578.54008
 -24322740.81908 -18952767.43808  20756875.05908  20756875.70608
  -1491653.70807  -1162332.61507  24988839.72507  24988843.09607
 -29379175.73408 -22892846.30108  20083388.99408  20083389.97808
 93 06 20 01 11 00.0000000  0  7 22 16 20 17 25 28 03
 -19135094.51108 -14910454.61208  21616661.97408  21616662.24708
 -15015430.64008 -11700324.32708  22501116.36608  22501117.65008
  -2186895.43608  -1704072.88408  24765579.31308  24765583.03408
 -24382458.76308 -18999300.87208  20745511.16508  20745511.74208
  -1386358.97407  -1080284.87407  25008876.62007  25008879.98807
        -0.92016        -0.11216  25441503.45316  25441505.96316
 -29372798.66708 -22887877.15808  20084602.50508  20084603.50208
 93 06 20 01 11 30.0000000  0  7 22 16 20 17 25 28 03
 -19168856.76208 -14936762.84808  21610237.26208  21610237.60608
 -14973917.06008 -11667976.09108  22509016.08608  22509017.46008
  -2065929.27708  -1609813.62608  24788598.53608  24788602.23508
 -24441646.83708 -19045421.41708  20734247.96708  20734248.55508
  -1280980.20507   -998171.63207  25028929.66707  25028933.16807
   -111222.52506    -86666.21106  25420338.48706  25420341.15406
 -29365889.12308 -22882493.10008  20085917.35208  20085918.35808
 93 06 20 01 12 00.0000000  0  6 22 16 20 17 25 03
 -19202032.42608 -14962614.00208  21603924.06408  21603924.41108
 -14931793.23808 -11635152.34608  22517031.93508  22517033.28308
  -1944890.58008  -1515497.84008  24811631.46608  24811635.25408
 -24500310.32608 -19091133.19808  20723084.72208  20723085.27108
  -1175510.95607   -915987.91207  25048999.73207  25049003.36007
 -29358449.74508 -22876696.18208  20087332.99908  20087334.01908
 93 06 20 01 12 30.0000000  0  7 22 16 23 20 17 25 03
 -19234641.88608 -14988023.95908  21597718.64208  21597719.02608
 -14889090.70108 -11601877.65108  22525157.90008  22525159.34008
        -0.49117        -0.74317  25356167.72417  25356171.58317
  -1823801.81208  -1421143.04008  24834673.93508  24834677.64208
 -24558470.54408 -19136452.82108  20712017.21508  20712017.69408
  -1069963.56807   -833743.28307  25069084.83907  25069088.45007
 -29350500.30208 -22870501.81008  20088845.73508  20088846.73208
 93 06 20 01 13 00.0000000  0  7 22 16 23 20 17 25 03
 -19266711.70808 -15013013.42008  21591615.98208  21591616.38908
 -14845845.61908 -11568180.19108  22533387.26308  22533388.69608
   -113145.16907    -88165.36307  25334636.87107  25334640.95507
  -1702681.94008  -1326764.00508  24857722.31008  24857726.14608
 -24616150.22608 -19181398.00208  20701041.10908  20701041.55908
   -964350.88107   -751447.79407  25089182.16107  25089186.02307
 -29342057.64508 -22863923.11608  20090452.35008  20090453.30808
 93 06 20 01 13 30.0000000  0  7 22 16 23 20 17 25 03
 -19298227.83208 -15037571.42908  21585618.64308  21585619.08708
 -14802053.57608 -11534056.52708  22541720.57908  22541721.98908
   -226326.48007   -176358.53607  25313099.14807  25313103.20807
  -1581521.99908  -1232353.74208  24880778.39008  24880782.31408
 -24673341.45708 -19225962.57308  20690158.06808  20690158.51808
   -858658.01707   -669089.82907  25109295.02507  25109298.79407
 -29333110.71308 -22856951.48008  20092154.87608  20092155.88008
 93 06 20 01 14 00.0000000  0  7 22 16 23 20 17 25 03
 -19329178.21308 -15061688.59908  21579728.90108  21579729.38408
 -14757721.38608 -11499511.97208  22550156.62208  22550158.06808
   -339554.02407   -264587.73907  25291552.62307  25291556.53307
  -1460330.45508  -1137918.85508  24903840.38008  24903844.24808
 -24730042.58408 -19270145.24408  20679368.17308  20679368.60708
   -752891.68807   -586674.59507  25129421.62107  25129425.50707
 -29323665.76708 -22849591.78808  20093952.19408  20093953.17208
 93 06 20 01 14 30.0000000  0  8 22 16 23 20 17 25 28 03
 -19359565.53308 -15085367.02008  21573946.37608  21573946.85208
 -14712846.67608 -11464544.67908  22558696.01608  22558697.45308
   -452797.26707   -352829.15407  25270003.16207  25270007.03007
  -1339105.14808  -1043457.65807  24926908.87308  24926912.77307
 -24786234.25708 -19313930.93208  20668675.16908  20668675.62108
   -647055.49407   -504204.93107  25149561.65407  25149565.56407
         0.27416         0.14016  25293367.28516  25293369.78816
 -29313717.95008 -22841840.24408  20095845.20408  20095846.15208
 93 06 20 01 15 00.0000000  0  8 22 16 23 20 17 25 28 03
 -19389397.02308 -15108612.32708  21568269.63108  21568270.12308
 -14667428.11208 -11429153.60408  22567338.90608  22567340.32808
   -566031.18307   -441063.31607  25248455.38007  25248459.34207
  -1217846.44708   -948970.43107  24949983.66008  24949987.58107
 -24841908.32608 -19357313.29808  20658080.63808  20658081.08708
   -541156.91907   -421686.64307  25169713.60307  25169717.43707
   -111172.66006    -86628.02906  25272211.48606  25272213.72806
 -29303265.64008 -22833695.58908  20097834.18608  20097835.17008
 93 06 20 01 15 30.0000000  0  8 22 16 23 20 17 25 28 03
 -19418676.43108 -15131427.43708  21562697.92708  21562698.38308
 -14621445.58608 -11393323.08008  22576089.08508  22576090.55708
   -679245.73707   -529282.37807  25226911.42107  25226915.39507
  -1096549.53008   -854453.43607  24973065.85208  24973069.68807
 -24897066.54508 -19400293.70108  20647584.33908  20647584.81908
   -435196.59407   -339120.26507  25189877.23407  25189881.05107
   -222333.71206   -173246.94406  25251058.28806  25251060.79706
 -29292302.13508 -22825152.60008  20099920.48508  20099921.47508
 93 06 20 01 16 00.0000000  0  8 22 16 23 20 17 25 28 03
 -19447416.58508 -15153822.35008  21557228.82308  21557229.24408
 -14574894.32508 -11357049.38508  22584947.49108  22584948.97008
   -792428.29207   -617476.50707  25205373.42607  25205377.36907
   -975214.80507   -759906.98507  24996155.11307  24996159.16307
 -24951707.23208 -19442870.83208  20637186.55608  20637187.10308
   -329188.09407   -256516.30907  25210050.14307  25210053.86207
   -333486.33106   -259859.29506  25229906.69606  25229908.95006
 -29280825.54208 -22816209.80408  20102104.43208  20102105.40508
 93 06 20 01 16 30.0000000  0  8 22 16 23 20 17 25 28 03
 -19475645.32108 -15175818.75708  21551857.13708  21551857.48808
 -14527786.83508 -11320342.26508  22593911.74108  22593913.25808
   -905585.85107   -705651.15907  25183840.23407  25183843.88707
   -853851.49107   -665338.24607  25019249.78207  25019253.84807
 -25005852.10708 -19485061.61808  20626883.12708  20626883.67108
   -223143.01507   -173883.87207  25230230.07507  25230233.41707
   -444631.37006   -346465.74206  25208756.87506  25208758.65406
 -29268842.82408 -22806872.63008  20104384.69608  20104385.64108
 93 06 20 01 17 00.0000000  0  8 22 16 23 20 17 25 28 03
 -19503341.42008 -15197400.12208  21546586.78008  21546587.14408
 -14480110.98008 -11283192.26008  22602984.27208  22602985.71808
  -1018728.76807   -793814.38507  25162309.74007  25162313.55607
   -732453.79607   -570742.72507  25042351.06007  25042355.12507
 -25059512.47008 -19526874.87008  20616671.81508  20616672.35308
   -117059.16507    -91221.25407  25250417.18907  25250420.92407
   -555752.49406   -433053.56307  25187611.22006  25187613.06707
 -29256346.40608 -22797135.16708  20106762.67408  20106763.64908
 93 06 20 01 17 30.0000000  0  8 22 16 23 20 17 25 28 03
 -19530475.79508 -15218543.78208  21541423.28808  21541423.60308
 -14431846.17908 -11245583.33808  22612168.69808  22612170.24908
  -1131855.70807   -881965.17707  25140782.18007  25140785.92307
   -611021.81007   -476120.48007  25065458.77707  25065462.90707
 -25112677.22208 -19568301.93408  20606554.93208  20606555.47708
    -10929.36807     -8522.78806  25270613.07807  25270616.45306
   -666830.20107   -519607.53807  25166473.44807  25166475.72607
 -29243333.50608 -22786995.24808  20109238.94208  20109239.92608
 93 06 20 01 18 00.0000000  0  8 22 16 23 20 17 25 28 03
 -19557030.52208 -15239235.76808  21536370.09008  21536370.39308
 -14383001.14508 -11207522.28608  22621463.55608  22621465.06408
  -1244966.83507   -970103.64007  25119257.96007  25119261.64107
   -489565.92507   -381479.62007  25088571.17307  25088575.42707
 -25165338.65508 -19609336.79408  20596533.82108  20596534.37708
     95231.26107     74199.71407  25290815.05407  25290818.69907
   -777856.24607   -606121.25407  25145345.80907  25145348.09307
 -29229812.73708 -22776459.58208  20111811.82508  20111812.83608
 93 06 20 01 18 30.0000000  0  8 22 16 23 20 17 25 28 03
 -19582984.09208 -15259459.32208  21531431.30508  21531431.59208
 -14333562.27808 -11168998.50908  22630871.50508  22630872.99508
  -1358057.71907  -1058226.32807  25097737.39007  25097741.13607
   -368077.92507   -286813.73807  25111689.67307  25111693.88507
 -25217480.28908 -19649966.60708  20586611.51508  20586612.05508
    201438.50707    156958.51407  25311025.55907  25311029.31307
   -888829.02707   -692593.45607  25124228.36807  25124230.56207
 -29215774.05608 -22765520.34908  20114483.31308  20114484.27508
 93 06 20 01 19 00.0000000  0  8 22 16 23 20 17 25 28 03
 -19608333.86408 -15279212.38508  21526607.36208  21526607.60108
 -14283546.75308 -11130025.38908  22640389.14508  22640390.62008
  -1471138.59307  -1146341.19307  25076218.85907  25076222.39307
   -246575.35207   -192136.50407  25134810.82307  25134814.97707
 -25269105.74708 -19690194.20808  20576787.50808  20576788.03408
    307674.75107    239739.92106  25331241.69507  25331245.15906
   -999782.18407   -779050.37907  25103114.78707  25103116.87907
 -29201233.03908 -22754189.68608  20117250.36608  20117251.34508
 93 06 20 01 19 30.0000000  0  7 22 16 23 20 17 25 03
 -19633086.88808 -15298500.44608  21521897.08408  21521897.31208
 -14232974.06508 -11090618.11708  22650012.80408  22650014.26608
  -1584199.94107  -1234440.84808  25054703.83307  25054707.48108
   -125059.20807    -97448.68307  25157934.78707  25157938.64607
 -25320203.76008 -19730010.80708  20567063.85408  20567064.39108
    413942.87107    322546.19707  25351463.73507  25351467.90007
 -29186188.12408 -22742466.37508  20120113.31808  20120114.29208
 93 06 20 01 20 00.0000000  0  7 22 16 23 20 17 28 03
 -19657269.51408 -15317344.04408  21517295.32308  21517295.49608
 -14181880.12008 -11050804.66608  22659735.60108  22659737.26608
  -1697255.83007  -1322536.23707  25033189.78807  25033193.45007
     -3537.50007     -2756.52607  25181059.52207  25181063.74707
 -25370793.80708 -19769431.60408  20557436.88708  20557437.41608
         0.02317         0.04517  25060884.78317  25060886.97217
 -29170645.27008 -22730355.05808  20123071.03208  20123072.00808
 93 06 20 01 20 30.0000000  0  7 22 16 23 20 17 28 03
 -19680904.54508 -15335760.94308  21512797.61308  21512797.87908
 -14130300.83008 -11010613.02608  22669550.83708  22669552.41808
  -1810324.90907  -1410641.90208  25011673.52507  25011677.23008
    117975.07407     91928.51307  25204182.62907  25204186.97107
 -25420891.36208 -19808468.64108  20547903.56908  20547904.04308
   -110996.87207    -86490.95107  25039762.45907  25039764.71507
 -29154617.55208 -22717865.92608  20126121.04008  20126121.99608
 93 06 20 01 21 00.0000000  0  7 22 16 23 20 17 28 03
 -19703966.18108 -15353731.04208  21508409.11208  21508409.39208
 -14078227.36708 -10970036.31908  22679460.11908  22679461.68508
  -1923374.48107  -1498732.36808  24990160.87107  24990164.44008
    239503.94407    186626.24107  25227309.01507  25227313.12707
 -25470472.14608 -19847102.99408  20538468.70208  20538469.19808
   -221969.90507   -172963.35807  25018644.93607  25018647.19807
 -29138076.80708 -22704977.03808  20129268.64008  20129269.59708
 93 06 20 01 21 30.0000000  0  7 22 16 23 20 17 28 03
 -19726449.92408 -15371250.83508  21504130.60108  21504130.89108
 -14025647.57508 -10929065.06608  22689465.79808  22689467.31108
  -2036392.93807  -1586798.57408  24968654.01007  24968657.62508
    361057.69607    281343.34507  25250439.83907  25250444.15007
 -25519521.94608 -19885323.59408  20529134.74208  20529135.19408
   -332883.33707   -259389.31507  24997538.75007  24997541.04507
 -29121012.98608 -22691680.55408  20132515.76208  20132516.71508
 93 06 20 01 22 00.0000000  0  7 22 16 23 20 17 28 03
 -19748350.82208 -15388316.46108  21499963.05308  21499963.40408
 -13972551.60908 -10887691.60308  22699569.64208  22699571.12508
  -2149387.71307  -1674846.34108  24947151.63307  24947155.22508
    482631.24207    376075.90507  25273574.49307  25273578.84907
 -25568042.24408 -19923131.60008  20519901.66108  20519902.12108
   -443715.76907   -345752.16307  24976447.93907  24976450.34107
 -29103429.05908 -22677978.79408  20135861.86108  20135862.81508
 93 06 20 01 22 30.0000000  0  7 22 16 23 20 17 28 03
 -19769669.89708 -15404928.72008  21495906.13608  21495906.47708
 -13918942.73008 -10845918.46808  22709771.18308  22709772.58908
  -2262357.35807  -1762874.51508  24925654.15007  24925657.72808
    604208.26507    470811.14707  25296710.08907  25296714.25307
 -25616040.34408 -19960532.70608  20510767.90508  20510768.37708
   -554483.58707   -432064.66307  24955369.54207  24955371.78007
 -29085339.45808 -22663883.00308  20139304.20008  20139305.17208
 93 06 20 01 23 00.0000000  0  7 22 16 23 20 17 28 03
 -19790397.41808 -15421080.02708  21491961.80808  21491962.15208
 -13864789.64408 -10803721.27408  22720076.12808  22720077.56808
  -2375279.86007  -1850865.94908  24904165.66007  24904169.09708
    725789.92507    565550.02607  25319846.25907  25319850.67307
 -25663513.15308 -19997524.49308  20501734.12108  20501734.60108
   -665191.08907   -518330.16707  24934302.82007  24934304.85207
 -29066740.54808 -22649390.34408  20142843.46008  20142844.40108
 93 06 20 01 23 30.0000000  0  7 22 16 23 20 17 28 03
 -19810532.40708 -15436769.62208  21488130.19608  21488130.59308
 -13810080.66908 -10761090.92308  22730486.98808  22730488.40808
  -2488150.75107  -1938817.14808  24882686.89707  24882690.44608
    847369.02606    660286.89507  25342982.04106  25342986.58707
 -25710463.57008 -20034109.22908  20492799.78708  20492800.24908
   -775860.57407   -604566.05007  24913242.65807  24913244.90607
 -29047637.90108 -22634505.16808  20146478.57208  20146479.54708
 93 06 20 01 24 00.0000000  0  7 22 16 23 20 17 28 03
 -19830098.65808 -15452016.04408  21484406.87408  21484407.24908
 -13754828.90708 -10718037.61408  22741001.05308  22741002.47708
  -2600984.61107  -2026739.51508  24861215.22007  24861218.62308
    968918.00406    755000.30007  25366111.99606  25366116.65007
 -25756922.22708 -20070310.77308  20483958.99608  20483959.45608
   -886531.33807   -690802.91507  24892182.60107  24892184.57507
 -29028057.37209 -22619247.61808  20150204.64209  20150205.56808
 93 06 20 01 24 30.0000000  0  7 22 16 23 20 17 28 03
 -19849077.56808 -15466804.80008  21480795.31508  21480795.67508
 -13699017.10608 -10674547.91708  22751621.71308  22751623.15408
  -2713744.41808  -2114604.16908  24839757.69608  24839761.00108
   1090457.07306    849705.97707  25389240.35506  25389244.91507
 -25802867.70908 -20106112.44108  20475215.83908  20475216.36608
   -997188.15307   -777028.92107  24871125.24107  24871127.21807
 -29007976.68609 -22603600.33308  20154025.86609  20154026.82908
 93 06 20 01 25 00.0000000  0  7 22 16 23 20 17 28 03
 -19867471.84408 -15481137.99708  21477294.99808  21477295.28908
 -13642644.89908 -10630621.53308  22762348.92908  22762350.41208
  -2826430.64708  -2202411.52408  24818314.10008  24818317.38208
   1211988.53106    944405.71407  25412367.02106  25412371.17907
 -25848304.05308 -20141517.36708  20466569.53408  20466570.08508
  -1107817.91307   -863233.86707  24850073.42207  24850075.12107
 -28987391.61908 -22587560.02608  20157943.10008  20157943.98408
 93 06 20 01 25 30.0000000  0  7 22 16 23 20 17 28 03
 -19885291.24908 -15495023.24208  21473904.04708  21473904.36608
 -13585743.82708 -10586283.05208  22773176.86508  22773178.37908
  -2939068.58308  -2290181.22808  24796879.70108  24796883.02708
   1333501.16806   1039090.80107  25435490.22406  25435494.73107
 -25893240.20108 -20176532.53108  20458018.41508  20458018.97708
  -1218422.22007   -949418.94507  24829026.06407  24829027.71907
 -28966311.33508 -22571133.84208  20161954.50108  20161955.47808
 93 06 20 01 26 00.0000000  0  7 22 16 23 20 17 28 03
 -19902518.39608 -15508446.98708  21470625.83008  21470626.14108
 -13528314.87408 -10541533.23408  22784105.20708  22784106.79808
  -3051652.46508  -2377908.81908  24775455.59308  24775458.89808
   1455007.81306   1133771.18606  25458612.13706  25458616.53606
 -25937662.02408 -20211146.93108  20449565.22708  20449565.77108
  -1328981.26207  -1035568.78407  24807987.33507  24807989.23907
 -28944721.10808 -22554310.29708  20166062.97808  20166063.94808
 93 06 20 01 26 30.0000000  0  7 22 16 23 20 17 28 03
 -19919150.89408 -15521407.36908  21467460.77308  21467461.10808
 -13470376.18908 -10496386.22008  22795130.55008  22795132.04708
  -3164183.71008  -2465595.39008  24754041.56908  24754044.73308
   1576510.03306   1228448.19306  25481733.45506  25481737.78606
 -25981560.63808 -20245353.63408  20441211.63308  20441212.13508
  -1439482.18307  -1121673.30607  24786959.48107  24786961.26707
 -28922617.99808 -22537087.10608  20170269.05408  20170270.04808
 93 06 20 01 27 00.0000000  0  7 22 16 23 20 17 28 03
 -19935200.00208 -15533913.16208  21464406.67008  21464407.07008
 -13411940.72808 -10450852.10508  22806250.44308  22806251.98208
  -3276677.89008  -2553253.09107  24732634.48708  24732637.66707
   1697991.59406   1323109.06606  25504850.62406  25504855.10006
 -26024941.90308 -20279157.20108  20432956.44108  20432956.95408
  -1549938.54507  -1207743.10807  24765940.27607  24765942.19507
 -28900016.09308 -22519475.24208  20174570.05308  20174571.05908
 93 06 20 01 27 30.0000000  0  7 22 16 23 20 17 28 03
 -19950658.75008 -15545958.93508  21461464.89908  21461465.34008
 -13353004.10708 -10404927.48108  22817465.81008  22817467.23208
  -3389125.51108  -2640874.49207  24711236.19008  24711239.42507
   1819462.16806   1417761.37806  25527965.87806  25527970.30906
 -26067771.04108 -20312530.54108  20424806.31108  20424806.77708
  -1660335.63707  -1293766.73407  24744932.00807  24744933.91807
 -28876903.82808 -22501465.69408  20178968.22108  20178969.16908
 93 06 20 01 28 00.0000000  0  6 22 16 23 28 17 03
 -19965526.59408 -15557544.26408  21458635.65308  21458636.06208
 -13293548.40008 -10358598.37208  22828779.80308  22828781.27008
  -3501506.26208  -2728443.78508  24689850.86108  24689854.03608
  -1770659.03807  -1379732.94607  24723938.44907  24723940.41907
 -26110030.87508 -20345460.25708  20416764.51208  20416764.96508
 -28853269.97308 -22483049.70908  20183465.60908  20183466.54808
 93 06 20 01 28 30.0000000  0  6 22 16 23 28 17 03
 -19979820.28208 -15568682.19908  21455915.65808  21455915.99408
 -13233590.03108 -10311877.58008  22840189.43708  22840190.94608
  -3613828.93808  -2815967.82508  24668476.42808  24668479.54908
  -1880914.97207  -1465646.57407  24702957.32507  24702959.15907
 -26151726.32308 -20377950.19308  20408830.13408  20408830.62008
 -28829126.50909 -22464236.62208  20188059.99509  20188060.89508
 93 06 20 01 29 00.0000000  0  6 22 16 23 28 17 03
 -19993554.34908 -15579384.06608  21453302.18508  21453302.45308
 -13173146.54808 -10264778.78008  22851691.56308  22851693.02508
  -3726104.67708  -2903455.28908  24647110.89808  24647114.17108
  -1991124.55407  -1551524.09007  24681985.13407  24681987.19307
 -26192878.98108 -20410017.18609  20400999.02408  20400999.48309
 -28804492.79709 -22445041.51708  20192747.63309  20192748.54808
 93 06 20 01 29 30.0000000  0  6 22 16 23 28 17 03
 -20006723.78808 -15589645.96308  21450796.21308  21450796.45008
 -13112211.50608 -10217296.94408  22863287.27808  22863288.69808
  -3838328.26608  -2990902.11908  24625755.30608  24625758.52408
  -2101278.56407  -1637358.30207  24661023.43507  24661025.52907
 -26233497.03709 -20441667.63009  20393269.73409  20393270.17009
 -28779370.76708 -22425465.91108  20197528.17508  20197529.11308
 93 06 20 01 30 00.0000000  0  6 22 16 23 28 17 03
 -20019322.32608 -15599463.00308  21448398.72908  21448398.97908
 -13050783.35808 -10169430.87408  22874976.65408  22874978.08908
  -3950488.08808  -3078299.26708  24604411.87608  24604415.05708
  -2211386.74007  -1723156.78907  24640070.42107  24640072.49307
 -26273605.59409 -20472921.06209  20385637.30609  20385637.74509
 -28753770.66608 -22405517.78008  20202399.69708  20202400.65208
 93 06 20 01 30 30.0000000  0  6 22 16 23 28 17 03
 -20031303.83408 -15608799.24008  21446118.68408  21446118.95108
 -12988837.47408 -10121161.37108  22886764.59808  22886766.01308
  -4062537.62008  -3165610.47108  24583089.47408  24583092.62908
  -2321419.34007  -1808896.39208  24619131.80507  24619133.72608
 -26313184.68609 -20503761.91009  20378105.59909  20378106.05509
 -28727663.66108 -22385174.66508  20207367.69508  20207368.64808
 93 06 20 01 31 00.0000000  0  6 22 16 23 28 17 03
 -20042674.57708 -15617659.55608  21443954.88608  21443955.16408
 -12926365.25208 -10072481.73808  22898652.64108  22898654.10408
  -4174470.76308  -3252830.99108  24561789.29708  24561792.36208
  -2431379.63207  -1894579.65508  24598207.02207  24598209.03208
 -26352241.95908 -20534196.13509  20370673.28408  20370673.77209
 -28701050.38408 -22364437.05008  20212432.00508  20212432.99808
 93 06 20 01 31 30.0000000  0  6 22 16 23 28 17 03
 -20053444.01708 -15626051.32708  21441905.52908  21441905.83208
 -12863363.36308 -10023389.38608  22910641.44408  22910643.00508
  -4286296.29908  -3339967.65108  24540509.47108  24540512.52908
  -2541268.60007  -1980207.33208  24577295.82007  24577297.88208
 -26390771.43608 -20564219.09009  20363341.35008  20363341.84109
 -28673931.52708 -22343305.47408  20217592.56908  20217593.56408
 93 06 20 01 32 00.0000000  0  6 22 16 23 28 17 03
 -20063643.85808 -15633999.25208  21439964.56808  21439964.88908
 -12799884.73908  -9973925.54808  22922721.08208  22922722.63008
  -4398044.16108  -3427043.78608  24519244.43808  24519247.47508
  -2651120.15908  -2065805.85908  24556391.78208  24556393.77108
 -26428789.39808 -20593843.46109  20356106.74208  20356107.22409
 -28646331.15608 -22321798.69408  20222844.73108  20222845.77108
 93 06 20 01 32 30.0000000  0  6 22 16 23 28 17 03
 -20073310.92608 -15641532.02908  21438124.95308  21438125.29108
 -12735962.34508  -9924115.91508  22934885.04708  22934886.58908
  -4509763.31908  -3514097.55708  24497984.91308  24497987.98908
  -2760954.08308  -2151390.65008  24535490.92808  24535492.94508
 -26466317.65409 -20623086.24209  20348965.39509  20348965.82109
 -28618272.28108 -22299934.63808  20228184.14808  20228185.20308
 93 06 20 01 33 00.0000000  0  6 22 16 23 28 17 03
 -20082382.41008 -15648600.71508  21436398.68308  21436399.03908
 -12671524.44608  -9873904.59108  22947147.30608  22947148.77308
  -4621410.03508  -3601094.89308  24476739.09608  24476742.07908
  -2870697.56208  -2236904.97308  24514607.35508  24514609.25008
 -26503278.92209 -20651887.21709  20341931.89609  20341932.30209
 -28589691.31608 -22277663.75808  20233622.93408  20233624.01008
 93 06 20 01 33 30.0000000  0  6 22 16 23 17 28 03
 -20090845.19108 -15655195.08508  21434788.30608  21434788.68308
 -12606577.45508  -9823296.57708  22959506.31408  22959507.76208
  -4732987.60508  -3688038.35508  24455506.57608  24455509.43108
 -26539673.08709 -20680246.30209  20335006.30809  20335006.70409
  -2980346.61108  -2322345.70908  24493741.73408  24493743.72108
 -28560593.43408 -22254990.08908  20239160.07808  20239161.15908
 93 06 20 01 34 00.0000000  0  6 22 16 23 28 17 03
 -20098690.48208 -15661308.29408  21433295.44008  21433295.83408
 -12541122.73608  -9772292.92508  22971961.96208  22971963.39708
  -4844491.91208  -3774924.72708  24434287.90908  24434290.88308
  -3089905.70708  -2407716.35208  24472893.19608  24472895.12608
 -26575502.27109 -20708165.14609  20328188.23609  20328188.63009
 -28530977.31808 -22231912.60108  20244795.82208  20244796.94208
 93 06 20 01 34 30.0000000  0  6 22 16 23 28 17 03
 -20105930.72808 -15666950.04108  21431917.62408  21431918.04608
 -12475160.92408  -9720894.13808  22984514.17408  22984515.57008
  -4955936.25908  -3861764.37608  24413080.79908  24413083.54008
  -3199392.85408  -2493030.93708  24452058.63808  24452060.49208
 -26610795.95808 -20735666.71709  20321472.00208  20321472.40609
 -28500867.45408 -22208450.37808  20250525.56108  20250526.62708
 93 06 20 01 35 00.0000000  0  7 22 16 23 26 17 28 03
 -20112581.86808 -15672132.74608  21430651.98108  21430652.36608
 -12408726.61108  -9669127.16708  22997156.28908  22997157.61608
  -5067320.67908  -3948557.32808  24391884.92708  24391887.82308
        -0.73417        -0.48217  25295230.18417  25295232.72317
 -26645581.22708 -20762772.11909  20314852.53808  20314852.95709
  -3308845.92608  -2578318.97108  24431230.36108  24431232.21608
 -28470290.06708 -22184623.85208  20256344.27408  20256345.33208
 93 06 20 01 35 30.0000000  0  7 22 16 23 26 17 28 03
 -20118617.78508 -15676836.05608  21429503.37208  21429503.75708
 -12341806.80608  -9616981.88908  23009890.66908  23009892.07608
  -5178590.35008  -4035260.86808  24370710.82908  24370713.76608
    -91482.36507    -71284.83307  25277821.81507  25277824.26507
 -26679826.18108 -20789456.49309  20308335.94808  20308336.35509
  -3418241.15208  -2663561.92908  24410413.07808  24410414.98308
 -28439209.32308 -22160405.09908  20262258.74108  20262259.76808
 93 06 20 01 36 00.0000000  0  7 22 16 23 26 17 28 03
 -20124027.10708 -15681051.11108  21428474.05308  21428474.42408
 -12274404.31808  -9564460.49308  23022716.97008  23022718.40608
  -5289721.63508  -4121856.57608  24349563.19408  24349566.12708
   -182796.77807   -142438.88607  25260445.27407  25260447.76107
 -26713521.33909 -20815712.45509  20301924.01109  20301924.37209
  -3527562.41708  -2748747.25908  24389609.73408  24389611.55008
 -28407609.24108 -22135781.66708  20268272.05008  20268273.08208
 93 06 20 01 36 30.0000000  0  7 22 16 23 26 17 28 03
 -20128847.53808 -15684807.29008  21427556.63808  21427557.00908
 -12206562.60808  -9511596.84608  23035626.80908  23035628.22908
  -5400737.11308  -4208362.04608  24328437.66508  24328440.49408
   -273963.36007   -213477.76407  25243096.80007  25243098.98007
 -26746707.70109 -20841571.95209  20295608.88109  20295609.21409
  -3636817.43208  -2833880.96108  24368819.33208  24368821.07808
 -28375524.48508 -22110780.56708  20274377.59608  20274378.57008
 93 06 20 01 37 00.0000000  0  7 22 16 23 26 17 28 03
 -20133083.71908 -15688108.21008  21426750.60008  21426750.95808
 -12138286.98908  -9458395.09208  23048619.11908  23048620.61608
  -5511627.21308  -4294769.81208  24307335.95008  24307338.77908
   -364964.18807   -284387.43607  25225779.81207  25225782.30507
 -26779368.78109 -20867022.13409  20289393.70109  20289394.04509
  -3745998.32508  -2918956.90208  24348042.88608  24348044.65708
 -28342946.81908 -22085395.38008  20280576.94008  20280577.87008
 93 06 20 01 37 30.0000000  0  7 22 16 23 26 17 28 03
 -20136721.58108 -15690942.90908  21426058.18808  21426058.63008
 -12069554.95708  -9404837.69608  23061698.46008  23061699.92808
  -5622373.31708  -4381065.36608  24286261.51708  24286264.27508
   -455761.02807   -355138.16207  25208501.77507  25208504.07307
 -26811475.18809 -20892040.10809  20283284.05809  20283284.40409
  -3855062.62008  -3003941.99408  24327288.47808  24327290.23608
 -28309851.54009 -22059606.86008  20286874.78409  20286875.65908
 93 06 20 01 38 00.0000000  0  7 22 16 23 26 17 28 03
 -20139769.94908 -15693318.26108  21425478.18408  21425478.60408
 -12000368.66908  -9350926.33008  23074864.12908  23074865.66308
  -5732995.98308  -4467264.73808  24265210.69908  24265213.40508
   -546366.95707   -425740.14607  25191259.66307  25191262.36507
 -26843046.73309 -20916641.31409  20277276.15409  20277276.50009
  -3964015.69208  -3088840.41108  24306555.33708  24306557.00508
 -28276256.74609 -22033429.10508  20293267.68209  20293268.55108
 93 06 20 01 38 30.0000000  0  6 22 16 23 28 17 03
 -20142235.71608 -15695239.63708  21425008.94908  21425009.30908
 -11930712.79808  -9296649.05608  23088119.19308  23088120.69808
  -5843496.38008  -4553368.83008  24244183.11608  24244185.80708
  -4072867.27108  -3173659.75008  24285841.57708  24285843.23408
 -26874070.62609 -20940815.77409  20271372.54809  20271372.88909
 -28242165.83609 -22006864.77008  20299754.95809  20299755.83908
 93 06 20 01 39 00.0000000  0  6 22 16 23 28 17 03
 -20144111.50008 -15696701.28608  21424651.92508  21424652.29908
 -11860585.00508  -9242004.04608  23101464.10408  23101465.73908
  -5953874.15808  -4639377.38808  24223178.95708  24223181.43508
  -4181632.50708  -3258411.80408  24265144.13608  24265145.81408
 -26904545.15709 -20964562.15509  20265573.40309  20265573.78409
 -28207582.97408 -21979917.09408  20306335.83808  20306336.78508
 93 06 20 01 39 30.0000000  0  6 22 16 23 28 17 03
 -20145409.18408 -15697712.46708  21424405.04308  21424405.36508
 -11790005.69308  -9187007.20408  23114894.88608  23114896.45708
  -6064155.61308  -4725310.88808  24202192.98508  24202195.46608
  -4290332.36708  -3343112.90608  24244459.32808  24244460.96308
 -26934500.03009 -20987903.60509  20259873.19209  20259873.58309
 -28172536.90108 -21952608.47508  20313004.90308  20313005.83608
 93 06 20 01 40 00.0000000  0  6 22 16 23 28 17 03
 -20146078.62808 -15698234.11008  21424277.65108  21424277.93508
 -11718927.73608  -9131621.80908  23128420.56408  23128422.17508
  -6174300.66508  -4811138.09708  24181233.09308  24181235.56008
  -4398942.58108  -3427744.16508  24223791.26108  24223792.92808
 -26963896.57009 -21010809.98809  20254279.25009  20254279.58509
 -28136994.37908 -21924913.01008  20319768.45808  20319769.37808
 93 06 20 01 40 30.0000000  0  6 22 16 23 28 17 03
 -20146127.56208 -15698272.23908  21424268.37208  21424268.70408
 -11647372.46108  -9075864.47908  23142037.11008  23142038.76408
  -6284312.23208  -4896861.28608  24160298.45108  24160300.92508
  -4507473.79508  -3512313.86908  24203138.37008  24203139.91008
 -26992740.38509 -21033285.67909  20248790.42009  20248790.76209
 -28100967.73508 -21896840.30908  20326624.08808  20326625.01808
 93 06 20 01 41 00.0000000  0  6 22 16 23 17 28 03
 -20145575.11408 -15697841.75908  21424373.51408  21424373.84608
 -11575377.46408  -9019764.50508  23155737.31208  23155738.94208
  -6394221.07008  -4982504.42708  24139383.43408  24139385.84708
 -27021056.95809 -21055350.53409  20243401.94609  20243402.28809
  -4615939.38708  -3596832.44108  24182498.10708  24182499.62008
 -28064481.63508 -21868409.59108  20333567.15108  20333568.09708
 93 06 20 01 41 30.0000000  0  7 22 16 23 26 28 17 03
 -20144422.52008 -15696943.63508  21424592.87208  21424593.30008
 -11502938.96808  -8963318.95008  23169521.98508  23169523.59608
  -6504032.37608  -5068071.57308  24118487.04808  24118489.42608
         0.40317        -0.13117  25071467.15117  25071470.01317
  -4724331.43008  -3681293.69208  24161871.80808  24161873.28108
 -27048826.65109 -21076989.24809  20238117.53009  20238117.88309
 -28027524.10608 -21839611.52308  20340599.92508  20340600.86308
 93 06 20 01 42 00.0000000  0  7 22 16 23 26 17 28 03
 -20142670.39308 -15695578.34208  21424926.23108  21424926.66508
 -11430056.81108  -8906527.69108  23183390.96108  23183392.63308
  -6613735.03808  -5153554.05708  24097611.15908  24097613.50708
    -89228.25707    -69528.91307  25054487.60207  25054490.46307
 -27076034.45509 -21098190.12109  20232940.02109  20232940.39509
  -4832640.84108  -3765690.55908  24141261.19608  24141262.60308
 -27990086.49508 -21810439.37008  20347724.03808  20347724.97708
 93 06 20 01 42 30.0000000  0  7 22 16 23 26 17 28 03
 -20140318.84908 -15693745.97308  21425373.76108  21425374.21008
 -11356729.20008  -8849389.32008  23197344.77108  23197346.45908
  -6723319.43508  -5238944.38808  24076757.89508  24076760.10908
   -178261.08807   -138905.08007  25037545.16307  25037548.18507
 -27102668.61009 -21118943.99709  20227871.72809  20227872.11109
  -4940839.80308  -3850001.35308  24120671.54008  24120672.86708
 -27952153.56808 -21780881.25008  20354942.46208  20354943.39808
 93 06 20 01 43 00.0000000  0  7 22 16 23 26 28 17 03
 -20137383.16008 -15691458.42508  21425932.37808  21425932.83908
 -11282956.09308  -8791903.81008  23211383.29008  23211385.01208
  -6832799.04108  -5324253.07908  24055924.60708  24055926.84508
   -267100.72407   -208130.70107  25020639.50507  25020642.59907
  -5048936.92508  -3934232.79808  24100101.15108  24100102.49408
 -27128745.57609 -21139263.69809  20222909.40809  20222909.77709
 -27913733.59108 -21750943.61208  20362253.54308  20362254.47908
 93 06 20 01 43 30.0000000  0  7 22 16 23 26 17 28 03
 -20133863.96508 -15688716.19908  21426602.07708  21426602.50808
 -11208719.21108  -8734056.91708  23225510.05808  23225511.94108
  -6942153.92908  -5409464.59808  24035114.89608  24035117.15208
   -355728.78407   -277191.44707  25003774.00307  25003777.20307
 -27154264.84809 -21159148.83809  20218053.25109  20218053.59409
  -5156928.67608  -4018382.13508  24079550.88008  24079552.21808
 -27874820.44108 -21720621.68908  20369658.47008  20369659.44008
 93 06 20 01 44 00.0000000  0  8 22 16 23 26 17 19 28 03
 -20129763.78308 -15685521.25508  21427382.37308  21427382.80708
 -11134022.11908  -8675851.42208  23239724.51008  23239726.25708
  -7051374.26608  -5494571.27208  24014330.91608  24014333.11208
   -444148.75407   -346090.06208  24986948.29907  24986951.51708
 -27179244.58609 -21178613.56809  20213299.79509  20213300.13609
        -0.48317        -0.23117  25035845.65017  25035848.38517
  -5264817.55908  -4102451.31508  24059020.23808  24059021.60208
 -27835422.99308 -21689922.38408  20377155.58208  20377156.55408
 93 06 20 01 44 30.0000000  0  8 22 16 23 26 17 19 28 03
 -20125062.49408 -15681857.91508  21428276.99508  21428277.41808
 -11058849.93608  -8617275.72808  23254029.32508  23254031.16808
  -7160444.16708  -5579560.72908  23993575.53508  23993577.69708
   -532337.64607   -414808.61008  24970166.49407  24970169.46108
 -27203680.37209 -21197654.44809  20208649.87809  20208650.22009
    -56496.03407    -44022.72007  25025094.84207  25025097.77107
  -5372584.13808  -4186425.20108  24038512.92808  24038514.32708
 -27795524.89608 -21658832.96508  20384747.95408  20384748.91508
 93 06 20 01 45 00.0000000  0  8 22 16 23 26 17 19 28 03
 -20119774.82408 -15677737.65408  21429283.20108  21429283.58808
 -10983222.15208  -8558345.01908  23268420.80608  23268422.57008
  -7269384.49808  -5664449.22808  23972844.83908  23972846.97708
   -620302.39407   -483352.50508  24953427.20407  24953430.10708
 -27227591.65909 -21216286.61509  20204099.72209  20204100.11109
   -112521.16708    -87678.60807  25014433.60308  25014436.31007
  -5480254.55108  -4270324.13808  24018023.91408  24018025.15708
 -27755146.27608 -21627369.11308  20392431.76608  20392432.73408
 93 06 20 01 45 30.0000000  0  8 22 16 23 26 17 19 28 03
 -20113876.42608 -15673141.50408  21430405.63108  21430405.98908
 -10907135.70008  -8499056.91508  23282899.62208  23282901.31908
  -7378173.11208  -5749219.50408  23952142.98508  23952145.08308
   -708029.03107   -551710.86708  24936733.41607  24936736.29308
 -27250955.25109 -21234492.00709  20199653.68609  20199654.09809
   -168080.10608   -130971.25607  25003861.07808  25003863.69207
  -5587812.18308  -4354135.20108  23997556.26408  23997557.56308
 -27714268.24208 -21595516.10508  20400210.60908  20400211.55208
 93 06 20 01 46 00.0000000  0  8 22 16 23 26 17 19 28 03
 -20107380.43808 -15668079.69708  21431641.78308  21431642.10808
 -10830626.80008  -8439439.62708  23297458.80408  23297460.46108
  -7486821.20708  -5833880.28108  23931467.85708  23931469.97008
   -795540.71807   -619901.72908  24920080.65307  24920083.17608
 -27273784.83409 -21252281.28009  20195309.34209  20195309.74009
   -223204.71808   -173925.41907  24993371.01208  24993373.81407
  -5695267.92808  -4437866.87508  23977108.09508  23977109.28208
 -27672908.11508 -21563287.44308  20408081.16108  20408082.09408
 93 06 20 01 46 30.0000000  0  8 22 23 26 17 16 19 28 03
 -20100281.63108 -15662548.16208  21432992.61508  21432992.95008
  -7595312.02008  -5918418.50508  23910822.75308  23910824.89108
   -882820.14207   -687911.58708  24903471.73607  24903474.32308
 -27296063.39509 -21269641.18409  20191069.83909  20191070.22909
 -10753692.11508  -8379490.55908  23312099.05908  23312100.73608
   -277883.39908   -216532.11807  24982966.08708  24982968.71407
  -5802606.09708  -4521506.92808  23956682.37408  23956683.57008
 -27631055.07408 -21530674.69208  20416045.53908  20416046.51008
 93 06 20 01 47 00.0000000  0  8 22 23 26 17 16 19 28 03
 -20092577.61708 -15656545.04008  21434458.65208  21434458.97008
  -7703628.00808  -6002820.49008  23890210.82708  23890212.83808
   -969867.44407   -755740.57808  24886907.08007  24886909.54108
 -27317782.34209 -21286565.02609  20186936.86709  20186937.25609
 -10676334.89208  -8319212.23708  23326819.64608  23326821.35408
   -332100.46608   -258779.14907  24972648.82108  24972651.60507
  -5909832.46008  -4605059.87208  23936277.87708  23936279.13008
 -27588711.62708 -21497679.80508  20424103.18808  20424104.21808
 93 06 20 01 47 30.0000000  0  8 22 23 26 17 16 19 28 03
 -20084267.43308 -15650069.57908  21436040.02908  21436040.38908
  -7811748.24908  -6087069.95008  23869636.15508  23869638.16708
  -1056686.30708   -823391.58108  24870386.08708  24870388.44108
 -27338937.87709 -21303049.85309  20182911.08209  20182911.42209
 -10598557.13708  -8258606.23008  23341620.28308  23341622.03808
   -385827.99708   -300644.63607  24962424.65408  24962427.53607
  -6016940.50508  -4688520.62608  23915895.75908  23915896.93308
 -27545877.91308 -21464302.89308  20432254.12208  20432255.21308
 93 06 20 01 48 00.0000000  0  8 22 23 26 17 16 19 28 03
 -20075374.48308 -15643140.01608  21437732.31008  21437732.62208
  -7919692.57108  -6171182.33608  23849094.91808  23849097.00608
  -1143289.21808   -890874.30208  24853906.09708  24853908.35908
 -27359548.09209 -21319109.76009  20178989.13209  20178989.44209
 -10520378.51008  -8197687.85808  23356497.19408  23356499.00608
   -439053.93608   -342119.34607  24952296.08408  24952299.12807
  -6123937.14208  -4771894.57508  23895534.74408  23895535.92908
 -27502573.58808 -21430559.27108  20440494.67908  20440495.75408
 93 06 20 01 48 30.0000000  0  8 22 23 26 17 16 19 28 03
 -20065904.40708 -15635760.74508  21439534.50308  21439534.76608
  -8027484.15608  -6255175.69808  23828582.76208  23828584.77408
  -1229700.10108   -958207.36908  24837462.65508  24837464.69608
 -27379629.01109 -21334757.23309  20175167.88609  20175168.17709
 -10441815.06608  -8136469.62208  23371447.29708  23371449.20808
   -491772.55908   -383198.76407  24942264.10308  24942267.16607
  -6230843.92108  -4855198.49708  23875191.06808  23875192.32808
 -27458815.73508 -21396462.25308  20448821.52908  20448822.63008
 93 06 20 01 49 00.0000000  0  8 22 23 26 17 16 19 28 03
 -20055800.31208 -15627887.43208  21441457.21908  21441457.48308
  -8135081.77508  -6339017.91008  23808107.59808  23808109.52708
  -1315885.23908  -1025364.52808  24821062.05408  24821063.95608
 -27399130.46109 -21349953.17109  20171456.84209  20171457.16709
 -10362818.38608  -8074913.81508  23386479.95108  23386481.84208
   -543938.43708   -423847.45307  24932337.36708  24932340.01807
  -6337612.37208  -4938394.63408  23854873.76308  23854874.94608
 -27414559.16808 -21361976.62508  20457243.32208  20457244.41308
 93 06 20 01 49 30.0000000  0  8 22 23 26 17 16 19 28 03
 -20045095.19808 -15619545.79308  21443494.36308  21443494.62408
  -8242524.43908  -6422739.37608  23787662.01008  23787663.90208
  -1401865.44308  -1092362.01807  24804700.53908  24804702.47007
 -27418079.91709 -21364718.98409  20167850.93709  20167851.25309
 -10283411.75608  -8013038.55708  23401590.56008  23401592.47308
   -595592.20808   -464097.11107  24922507.85308  24922510.65607
  -6444254.45808  -5021492.29608  23834580.25708  23834581.41108
 -27369828.28908 -21327121.40208  20465755.37008  20465756.39808
 93 06 20 01 50 00.0000000  0  8 22 23 26 17 16 19 28 03
 -20033817.68408 -15610758.12708  21445640.40708  21445640.68008
  -8349854.30408  -6506372.94608  23767237.71808  23767239.65008
  -1487664.96008  -1159218.71007  24788373.41908  24788375.12507
 -27436508.66909 -21379079.04709  20164343.95509  20164344.26509
 -10203633.14508  -7950873.44808  23416772.03508  23416773.93908
   -646786.58508   -503988.79507  24912765.66408  24912768.77707
  -6550801.90208  -5104516.20308  23814304.88108  23814306.01508
 -27324657.67208 -21291923.52708  20474351.06608  20474352.03508
 93 06 20 01 50 30.0000000  0  8 22 23 26 17 16 19 28 03
 -20021927.10408 -15601492.75008  21447903.06008  21447903.36308
  -8457007.19008  -6589868.61908  23746847.15908  23746849.07208
  -1573222.22108  -1225886.63707  24772092.26708  24772093.98207
 -27454363.48609 -21392991.88609  20160946.43509  20160946.68009
 -10123427.23208  -7888375.38008  23432034.79108  23432036.56208
   -697484.48808   -543493.61907  24903118.00208  24903121.05607
  -6657202.52508  -5187425.71508  23794057.53608  23794058.71808
 -27278996.14208 -21256343.12208  20483040.16908  20483041.12808
 93 06 20 01 51 00.0000000  0  8 22 23 26 17 16 19 28 03
 -20009461.42008 -15591779.23708  21450275.19908  21450275.49208
  -8563994.20508  -6673235.04508  23726488.10508  23726489.98408
  -1658530.45808  -1292360.50407  24755858.75408  24755860.27607
 -27471662.64509 -21406471.74509  20157654.48009  20157654.75809
 -10042812.54508  -7825558.78608  23447375.31208  23447377.07608
   -747721.84608   -582639.58207  24893558.24408  24893561.38907
  -6763457.10208  -5270221.42508  23773837.91008  23773838.95308
 -27232861.29808 -21220393.90008  20491819.30308  20491820.27308
 93 06 20 01 51 30.0000000  0  8 22 23 26 17 16 19 28 03
 -19996423.08808 -15581619.50508  21452756.27108  21452756.62508
  -8670808.47708  -6756466.86908  23706161.91808  23706163.91408
  -1743572.03908  -1358626.60907  24739675.72708  24739677.41807
 -27488416.04809 -21419526.34409  20154466.36509  20154466.66209
  -9961800.37008  -7762432.46308  23462791.55608  23462793.27108
   -797495.99408   -621424.62907  24884086.72308  24884089.47907
  -6869564.09708  -5352902.13508  23753646.46108  23753647.46108
 -27186253.05608 -21184075.79908  20500688.56708  20500689.53008
 93 06 20 01 52 00.0000000  0  8 22 23 26 17 16 19 28 03
 -19982806.70408 -15571009.34308  21455347.35908  21455347.74008
  -8777437.82108  -6839554.59108  23685871.01108  23685872.91008
  -1828345.58508  -1424683.87807  24723543.85008  24723545.56907
 -27504615.27609 -21432149.12009  20151383.85209  20151384.10509
  -9880400.06708  -7699003.70208  23478281.45408  23478283.23108
   -846791.62508   -659836.75407  24874705.76908  24874708.73507
  -6975534.30508  -5435476.26808  23733480.84008  23733481.85708
 -27139171.16008 -21147388.62108  20509647.95708  20509648.99308
 93 06 20 01 52 30.0000000  0  8 22 23 26 17 16 19 28 03
 -19968614.91008 -15559950.81108  21458048.06608  21458048.41208
  -8883883.45008  -6922499.16208  23665615.06508  23665616.93708
  -1912858.00708  -1490537.67008  24707461.52708  24707463.31808
 -27520269.41209 -21444347.14509  20148404.93509  20148405.17209
  -9798615.49008  -7635275.51108  23493844.58908  23493846.42008
   -895595.72108   -697865.87707  24865419.00508  24865421.60707
  -7081371.51608  -5517946.77008  23713340.50708  23713341.44808
 -27091620.87308 -21110336.46108  20518696.48008  20518697.51808
 93 06 20 01 53 00.0000000  0  8 22 23 26 17 16 19 28 03
 -19953803.59208 -15548409.53208  21460866.58508  21460866.89208
  -8990123.90908  -7005283.86808  23645398.23108  23645399.99708
  -1997090.14108  -1556173.04008  24691432.49808  24691434.59508
 -27535357.36609 -21456103.99509  20145533.80109  20145534.08309
  -9716421.23408  -7571228.08708  23509485.67208  23509487.56208
   -943875.22308   -735486.24307  24856231.56908  24856234.06307
  -7187053.60608  -5600296.40208  23693230.05108  23693230.95208
 -27043579.32608 -21072901.50208  20527838.49308  20527839.53808
 93 06 20 01 53 30.0000000  0  8 22 23 26 17 16 19 28 03
 -19938361.10808 -15536376.43408  21463805.27808  21463805.50808
  -9096173.78508  -7087920.06808  23625217.50408  23625219.37008
  -2081057.14407  -1621601.80808  24675453.92807  24675456.29108
 -27549879.73409 -21467420.12309  20142770.29209  20142770.57109
  -9633825.87608  -7506868.11708  23525203.02108  23525204.99108
   -991619.89208   -772689.84007  24847146.02808  24847148.62307
  -7292607.42108  -5682546.06008  23673143.71808  23673144.65508
 -26995055.52208 -21035090.75508  20537072.29008  20537073.27908
 93 06 20 01 54 00.0000000  0  8 22 23 26 17 16 19 28 03
 -19922323.91808 -15523879.92808  21466857.01308  21466857.29308
  -9202060.92008  -7170429.45708  23605067.79808  23605069.71108
  -2164778.82207  -1686839.41808  24659522.10707  24659524.60408
 -27563850.07309 -21478306.09809  20140111.77409  20140112.10209
  -9550855.14408  -7442215.65008  23540991.90708  23540993.80208
  -1038852.16008   -809494.17407  24838158.08008  24838160.76307
  -7398072.58408  -5764726.63708  23653074.38208  23653075.32908
 -26946078.00008 -20996926.45808  20546392.41208  20546393.38408
 93 06 20 01 54 30.0000000  0  8 22 23 26 17 16 19 28 03
 -19905694.77808 -15510922.16208  21470021.45008  21470021.74608
  -9307774.91408  -7252803.92208  23584950.99708  23584952.89108
  -2248236.65107  -1751871.43608  24643640.55507  24643642.90608
 -27577277.83409 -21488769.28109  20137556.52609  20137556.88309
  -9467497.74008  -7377261.87908  23556854.38708  23556856.28608
  -1085575.43508   -845901.88407  24829267.01908  24829269.65507
  -7503430.40408  -5846823.58508  23633025.29108  23633026.21508
 -26896642.06208 -20958404.95908  20555799.74408  20555800.73608
 93 06 20 01 55 00.0000000  0  8 22 23 26 17 16 19 28 03
 -19888474.24108 -15497503.56608  21473298.38108  21473298.80608
  -9413300.40308  -7335031.50608  23564870.10308  23564872.00308
  -2331411.98207  -1816683.31908  24627812.63607  24627815.15808
 -27590140.10609 -21498791.82309  20135108.84909  20135109.17309
  -9383754.86308  -7312007.74208  23572790.07808  23572792.08208
  -1131800.80608   -881921.62007  24820470.67708  24820473.05607
  -7608674.19408  -5928831.67208  23612998.05408  23612999.05308
 -26846736.54708 -20919517.55508  20565296.42508  20565297.43708
 93 06 20 01 55 30.0000000  0  8 22 23 26 17 16 19 28 03
 -19870676.94708 -15483635.55208  21476685.09808  21476685.54708
  -9518632.96608  -7417108.76108  23544825.87708  23544827.77308
  -2414300.10207  -1881271.40108  24612039.48407  24612041.95308
 -27602440.14509 -21508376.26509  20132768.26009  20132768.56809
  -9299644.91908  -7246467.58008  23588795.78308  23588797.61308
  -1177540.98708   -917563.26507  24811766.38708  24811768.97607
  -7713807.41708  -6010753.60408  23592991.80808  23592992.82208
 -26796366.33208 -20880268.04808  20574881.59508  20574882.55608
 93 06 20 01 56 00.0000000  0  8 22 23 26 17 16 19 28 03
 -19852311.53608 -15469324.84908  21480179.88608  21480180.28608
  -9623749.81308  -7499017.92708  23524822.76908  23524824.64408
  -2496898.00807  -1945633.34408  24596321.85007  24596324.10808
 -27614186.03509 -21517528.90209  20130533.14109  20130533.39809
  -9215162.49808  -7180637.17208  23604872.14508  23604874.15108
  -1222799.28808   -952829.45307  24803154.02308  24803156.69907
  -7818798.69408  -6092564.93408  23573012.64308  23573013.63408
 -26745527.45908 -20840653.35208  20584555.91708  20584556.88508
 93 06 20 01 56 30.0000000  0  8 22 23 26 17 16 19 28 03
 -19833348.73308 -15454548.64308  21483788.42808  21483788.72108
  -9728638.71508  -7580749.47808  23504863.06508  23504864.92608
  -2579204.04207  -2009767.84408  24580659.43107  24580661.60408
 -27625369.92309 -21526243.62009  20128404.91009  20128405.15409
  -9130285.70708  -7114499.46108  23621023.71908  23621025.67908
  -1267560.59308   -987708.36507  24794636.00408  24794638.91607
  -7923603.20608  -6174230.73108  23553068.83708  23553069.89008
 -26694204.30908 -20800661.29708  20594322.40908  20594323.34408
 93 06 20 01 57 00.0000000  0  8 22 23 26 17 16 19 28 03
 -19813780.21808 -15439300.45508  21487512.15508  21487512.40508
  -9833315.81908  -7662315.99508  23484943.62708  23484945.51508
  -2661240.61907  -2073692.37808  24565048.36407  24565050.54508
 -27635981.82709 -21534512.63409  20126385.51909  20126385.78309
  -9045022.93108  -7048060.98308  23637248.73808  23637250.76008
  -1311816.15908  -1022193.14207  24786214.43808  24786217.13107
  -8028219.83608  -6255750.13508  23533160.97808  23533161.99108
 -26642400.37208 -20760294.60508  20604180.34508  20604181.36908
 93 06 20 01 57 30.0000000  0  8 22 23 26 17 16 19 28 03
 -19793606.80408 -15423580.92108  21491351.08408  21491351.31208
  -9937791.06508  -7743725.20908  23465062.61708  23465064.46408
  -2743019.46407  -2137416.06908  24549486.38307  24549488.50708
 -27646051.94709 -21542359.47909  20124469.16409  20124469.45709
  -8959371.24008  -6981319.45408  23653547.75208  23653549.74208
  -1355544.82908  -1056267.37707  24777893.14708  24777895.53007
  -8132645.94708  -6337121.07208  23513289.34908  23513290.41608
 -26590127.23208 -20719562.30008  20614127.55708  20614128.62308
 93 06 20 01 58 00.0000000  0  8 22 23 26 17 16 19 28 03
 -19772886.74908 -15407435.43308  21495294.01408  21495294.24708
 -10042118.38508  -7825019.15808  23445209.72008  23445211.57808
  -2824597.21208  -2200983.08508  24533962.48108  24533964.48808
 -27655630.20709 -21549823.05709  20122646.53209  20122646.83909
  -8873373.16108  -6914308.01008  23669912.46408  23669914.59808
  -1398789.05408  -1089964.15307  24769664.03308  24769666.41607
  -8236927.46808  -6418379.34708  23493445.03808  23493446.16308
 -26537439.85608 -20678507.21108  20624153.61308  20624154.68108
 93 06 20 01 58 30.0000000  0  8 22 23 26 17 16 19 28 03
 -19751542.79508 -15390803.79208  21499355.67908  21499355.87208
 -10146234.27708  -7906148.36408  23425397.02608  23425398.87008
  -2905885.99508  -2264324.93708  24518493.87608  24518495.68908
 -27664642.91809 -21556845.94909  20120931.48509  20120931.79309
  -8786965.95408  -6846977.76808  23686355.15108  23686357.41108
  -1441477.54008  -1123227.85907  24761540.33408  24761543.20407
  -8341005.42808  -6499478.99608  23473639.53008  23473640.66008
 -26484269.07908 -20637075.44808  20634271.64308  20634272.76808
 93 06 20 01 59 00.0000000  0  8 22 23 26 17 16 19 28 03
 -19729597.36708 -15373703.46908  21503531.73108  21503531.95008
 -10250126.07808  -7987102.95608  23405627.06608  23405628.83408
  -2986875.93408  -2327433.91008  24503081.96408  24503083.70208
 -27673106.26109 -21563440.75809  20119320.93209  20119321.22709
  -8700172.03108  -6779346.19208  23702871.68808  23702873.96608
  -1483616.24808  -1156063.15707  24753521.65708  24753524.59307
  -8444913.95808  -6580446.62908  23453866.48008  23453867.55008
 -26430625.55908 -20595275.30808  20644479.69408  20644480.83308
 93 06 20 01 59 30.0000000  0  8 22 23 26 17 16 19 28 03
 -19707076.36308 -15356154.64208  21507817.35608  21507817.54208
 -10353794.04408  -8067883.13108  23385899.60408  23385901.48108
  -3067560.27508  -2390304.75308  24487728.12208  24487729.93508
 -27681050.18509 -21569630.82609  20117809.26709  20117809.52709
  -8613011.02808  -6711428.58108  23719457.88708  23719460.33208
  -1525226.30608  -1188486.52907  24745603.47008  24745606.35407
  -8548667.06208  -6661293.15308  23434122.67708  23434123.83608
 -26376532.17708 -20553124.62808  20654773.32108  20654774.47408
 93 06 20 02 00 00.0000000  0  8 22 23 26 17 16 19 28 03
 -19683992.50908 -15338167.23208  21512210.12608  21512210.28808
 -10457240.74008  -8148490.89408  23366214.28408  23366216.18208
  -3147939.45908  -2452937.82308  24472432.48708  24472434.30908
 -27688456.16209 -21575401.71809  20116399.96009  20116400.22409
  -8525505.20308  -6643242.27708  23736109.80008  23736112.17808
  -1566335.86508  -1220519.90307  24737780.38508  24737783.47807
  -8652271.87208  -6742024.12808  23414407.42308  23414408.48808
 -26321995.55108 -20510628.56608  20665151.29908  20665152.47408
 93 06 20 02 00 30.0000000  0  8 22 23 26 17 16 19 28 03
 -19660334.75508 -15319732.62808  21516711.94208  21516712.12608
 -10560464.16108  -8228924.69108  23346571.46308  23346573.37808
  -3228004.48308  -2515326.09008  24457196.45908  24457198.39508
 -27695309.70809 -21580742.13909  20115095.68809  20115096.00209
  -8437654.72308  -6574787.40908  23752827.28908  23752829.63808
  -1606932.89108  -1252153.92507  24730055.09608  24730057.93107
  -8755727.36708  -6822638.75408  23394720.46108  23394721.60308
 -26267005.24408 -20467778.98808  20675615.66908  20675616.79808
 93 06 20 02 01 00.0000000  0  8 22 23 26 17 16 19 28 03
 -19636111.77208 -15300857.58408  21521321.49808  21521321.72008
 -10663458.68908  -8309180.10208  23326972.17308  23326974.07908
  -3307772.37808  -2577482.85408  24442017.06208  24442018.97208
 -27701606.85309 -21585649.00409  20113897.41409  20113897.71409
  -8349456.54308  -6506061.59908  23769610.83908  23769613.25808
  -1647015.98708  -1283387.50007  24722427.62308  24722430.49807
  -8859030.47808  -6903134.63208  23375062.41808  23375063.36108
 -26211563.65808 -20424577.76308  20686165.90208  20686167.01108
 93 06 20 02 01 30.0000000  0  8 22 23 26 17 16 19 28 03
 -19611305.88808 -15281528.33208  21526041.87208  21526042.10408
 -10766225.79908  -8389258.30608  23307416.22708  23307418.04208
  -3387235.44708  -2639402.09208  24426895.65508  24426897.74808
 -27707320.88509 -21590101.49609  20112810.04409  20112810.35509
  -8260901.01808  -6437057.34008  23786462.42708  23786464.83508
  -1686569.42308  -1314208.32607  24714900.61808  24714903.73507
  -8962152.71508  -6983489.57308  23355439.09008  23355440.06708
 -26155658.19708 -20381015.07808  20696804.39508  20696805.48208
 93 06 20 02 02 00.0000000  0  8 22 23 26 17 16 19 28 03
 -19585931.38308 -15261756.00008  21530870.42008  21530870.67008
 -10868787.85508  -8469176.72308  23287899.22908  23287901.04608
  -3466412.55708  -2701098.51708  24411828.60208  24411830.78908
 -27712465.56209 -21594110.33309  20111831.05709  20111831.35909
  -8172012.36408  -6367793.50108  23803377.40408  23803379.82608
  -1725609.30608  -1344628.96108  24707471.65408  24707474.86908
  -9065129.08608  -7063730.86208  23335843.29008  23335844.21008
 -26099301.33608 -20337100.65308  20707528.78108  20707529.78208
 93 06 20 02 02 30.0000000  0  8 22 23 26 17 16 19 28 03
 -19559975.92508 -15241530.98008  21535809.63008  21535809.90208
 -10971135.59508  -8548928.14508  23268423.12508  23268424.95208
  -3545300.10407  -2762569.28808  24396816.73507  24396818.95108
 -27717060.98809 -21597691.18509  20110956.60409  20110956.91809
  -8082787.36008  -6298267.57808  23820356.42908  23820358.91708
  -1764116.67408  -1374634.66608  24700143.98308  24700147.20308
  -9167955.93208  -7143855.62808  23316275.89708  23316276.76208
 -26042488.53108 -20292830.94108  20718339.91808  20718340.93108
 93 06 20 02 03 00.0000000  0  8 22 23 26 17 16 19 28 03
 -19533417.70708 -15220836.27608  21540863.57808  21540863.83408
 -11073239.75108  -8628489.76108  23248993.22208  23248994.96908
  -3623878.60808  -2823799.24808  24381863.72108  24381865.91208
 -27721102.19209 -21600840.17009  20110187.59409  20110187.90009
  -7993214.89408  -6228470.90808  23837401.61808  23837404.03408
  -1802083.27308  -1404218.99407  24692919.14908  24692922.08807
  -9270612.65408  -7223847.83408  23296740.92508  23296741.75108
 -25985211.21108 -20248199.27308  20729239.44108  20729240.40808
 93 06 20 02 03 30.0000000  0  8 22 23 26 17 16 19 28 03
 -19506238.03708 -15199657.32408  21546035.63908  21546035.91008
 -11175091.67008  -8707854.82808  23229611.37708  23229613.14908
  -3702123.99108  -2884769.63508  24366974.25108  24366976.23808
 -27724579.76309 -21603549.96509  20109525.84509  20109526.12909
  -7903289.59608  -6158399.30708  23854513.89308  23854516.31708
  -1839500.93508  -1433375.56507  24685798.97808  24685801.67307
  -9373084.94008  -7303696.32308  23277241.08008  23277241.93808
 -25927457.22908 -20203196.18108  20740229.64008  20740230.64808
 93 06 20 02 04 00.0000000  0  8 22 23 26 17 16 19 28 03
 -19478458.73708 -15178011.12708  21551321.85108  21551322.15008
 -11276705.41208  -8787034.30708  23210274.96008  23210276.59408
  -3780066.35808  -2945503.89408  24352142.32208  24352144.27408
 -27727524.73109 -21605844.74609  20108965.43809  20108965.76009
  -7813024.01708  -6088062.55708  23871690.83108  23871693.23608
  -1876398.74708  -1462127.08808  24678777.49408  24678780.38508
  -9475396.71108  -7383419.72808  23257771.88408  23257772.66408
 -25869251.07908 -20157840.75208  20751305.89908  20751306.95208
 93 06 20 02 04 30.0000000  0  8 22 23 26 17 16 19 28 03
 -19450090.75308 -15155906.21608  21556720.15208  21556720.39408
 -11378079.88608  -8866027.35108  23190983.93108  23190985.69408
  -3857711.78708  -3006006.76608  24337367.01808  24337368.60308
 -27729943.06709 -21607729.16409  20108505.23009  20108505.53109
  -7722418.41708  -6017460.83108  23888932.64908  23888934.84608
  -1912781.62908  -1490477.32808  24671853.97608  24671856.85408
  -9577542.16708  -7463013.54308  23238334.38508  23238335.12908
 -25810608.07308 -20112144.91808  20762465.31708  20762466.37008
 93 06 20 02 05 00.0000000  0  8 22 23 26 17 16 19 28 03
 -19421113.84208 -15133326.81908  21562234.28208  21562234.51608
 -11479188.85608  -8944813.50608  23171743.57108  23171745.13308
  -3935012.14108  -3066240.75008  24322657.39608  24322658.91708
 -27731805.01609 -21609180.03309  20108150.94909  20108151.17409
  -7631442.58608  -5946570.63108  23906244.79508  23906247.07008
  -1948625.29808  -1518407.44507  24665032.93608  24665035.74707
  -9679489.57808  -7542453.04408  23218934.23608  23218934.94608
 -25751502.20208 -20066088.40708  20773712.84408  20773713.80908
 93 06 20 02 05 30.0000000  0  8 22 23 26 17 16 19 28 03
 -19391566.10108 -15110302.61508  21567857.01708  21567857.28508
 -11580066.25808  -9023419.22408  23152547.19308  23152548.82108
  -4011982.96108  -3126217.92208  24308010.09108  24308011.62108
 -27733145.89309 -21610224.87709  20107895.75109  20107896.01209
  -7540121.91008  -5875411.72208  23923622.66008  23923624.84408
  -1983943.34808  -1545927.98807  24658312.03808  24658314.77007
  -9781260.63508  -7621755.12708  23199567.80008  23199568.52008
 -25691958.74908 -20019690.92408  20785043.57208  20785044.57908
 93 06 20 02 06 00.0000000  0  8 22 23 26 17 16 19 28 03
 -19361441.95408 -15086829.26508  21573589.41208  21573589.67208
 -11680693.50608  -9101830.02408  23133398.44408  23133400.01908
  -4088590.34408  -3185911.91908  24293431.98608  24293433.42208
 -27733961.39309 -21610860.33309  20107740.52609  20107740.81009
  -7448451.26908  -5803980.12208  23941067.17608  23941069.37608
  -2018709.84308  -1573018.74307  24651696.07608  24651698.86307
  -9882843.31908  -7700910.42108  23180237.25608  23180237.84408
 -25631968.31408 -19972945.14108  20796459.37708  20796460.43908
 93 06 20 02 06 30.0000000  0  8 22 23 26 17 16 19 28 03
 -19330748.29308 -15062912.13608  21579430.25308  21579430.54108
 -11781072.04408  -9180047.02708  23114297.06708  23114298.59008
  -4164818.35408  -3245310.29108  24278926.43608  24278927.75408
 -27734246.78209 -21611082.71409  20107686.25009  20107686.55509
  -7356449.90108  -5732290.80308  23958574.49808  23958576.65508
  -2052917.74108  -1599674.20908  24645186.42408  24645189.31008
  -9984239.05708  -7779920.04108  23160942.20108  23160942.83208
 -25571531.97408 -19925851.90308  20807960.01908  20807961.09108
 93 06 20 02 07 00.0000000  0  8 22 23 26 17 16 19 28 03
 -19299513.43108 -15038573.29408  21585374.10508  21585374.40508
 -11881233.06908  -9258094.54008  23095237.05608  23095238.53508
  -4240705.17508  -3304442.81408  24264485.61308  24264486.94908
 -27734011.95609 -21610899.73309  20107730.89209  20107731.20809
  -7264152.81108  -5660371.04708  23976137.94508  23976140.20508
  -2086597.67608  -1625918.28108  24638777.54508  24638779.99708
 -10085467.34108  -7858799.17608  23141679.04108  23141679.70908
 -25510671.56008 -19878428.21608  20819541.35108  20819542.43608
 93 06 20 02 07 30.0000000  0  8 22 23 26 17 16 19 28 03
 -19267728.30608 -15013805.67808  21591422.61708  21591422.88208
 -11981160.82708  -9335960.28308  23076221.32308  23076222.82508
  -4316259.77008  -3363316.44608  24250107.81208  24250109.29508
 -27733228.78708 -21610289.47309  20107879.96808  20107880.32109
  -7171563.02008  -5588223.21508  23993757.19008  23993759.51208
  -2119733.12808  -1651738.10907  24632472.06008  24632474.45507
 -10186521.47608  -7937542.60908  23122449.04408  23122449.73808
 -25449381.29408 -19830669.58008  20831204.48808  20831205.57908
 93 06 20 02 08 00.0000000  0  8 22 23 26 17 16 19 28 03
 -19235360.84508 -14988584.29508  21597581.88608  21597582.16508
 -12080813.35508  -9413611.55008  23057258.06808  23057259.58908
  -4391461.65108  -3421915.24108  24235797.44008  24235798.83608
 -27731844.57909 -21609210.86909  20108143.42209  20108143.75009
  -7078655.21508  -5515827.57408  24011437.03908  24011439.28708
  -2152298.68008  -1677113.84407  24626275.21408  24626277.45207
 -10287368.89808  -8016124.97908  23103258.36408  23103259.02908
 -25387626.71908 -19782549.14308  20842956.00108  20842957.13208
 93 06 20 02 08 30.0000000  0  8 22 23 26 17 16 19 28 03
 -19202434.93008 -14962927.75008  21603847.62508  21603847.86208
 -12180207.57708  -9491061.53508  23038343.98408  23038345.47708
  -4466365.56208  -3480281.84208  24221543.72808  24221545.10108
 -27729866.48309 -21607669.49609  20108519.78509  20108520.15309
  -6985450.09408  -5443200.26708  24029173.36108  24029175.68308
  -2184325.78008  -1702069.98507  24620180.53908  24620182.88307
 -10388034.91408  -8094565.99508  23084102.31608  23084102.96108
 -25325431.88808 -19734085.65208  20854791.28208  20854792.47908
 93 06 20 02 09 00.0000000  0  8 22 23 26 17 16 19 28 03
 -19168936.11308 -14936824.78508  21610222.17108  21610222.46808
 -12279325.24808  -9568296.02708  23019482.40208  23019483.92208
  -4540955.73908  -3538403.97908  24207349.74408  24207350.91108
 -27727288.56509 -21605660.72709  20109010.34109  20109010.71409
  -6891930.10608  -5370327.60008  24046969.70608  24046971.92908
  -2215800.23708  -1726595.51707  24614191.06208  24614193.48807
 -10488496.31308  -8172847.56808  23064984.86908  23064985.50908
 -25262786.15508 -19685270.80808  20866712.38508  20866713.52708
 93 06 20 02 09 30.0000000  0  8 22 23 26 17 16 19 28 03
 -19134868.18208 -14910278.35808  21616705.04408  21616705.42708
 -12378157.98408  -9645308.49508  23000675.08108  23000676.62608
  -4615207.74208  -3596262.59408  24193219.88208  24193221.11308
 -27724140.06909 -21603207.35709  20109609.48909  20109609.84009
  -6798101.16908  -5297214.19308  24064824.78908  24064827.11508
  -2246717.98408  -1750687.21007  24608307.47508  24608309.98707
 -10588755.22108  -8250971.35508  23045906.33608  23045907.01308
 -25199692.19508 -19636106.69608  20878718.78408  20878719.96808
 93 06 20 02 10 00.0000000  0  8 22 23 26 17 16 19 28 03
 -19100235.65108 -14883291.98708  21623295.32608  21623295.73008
 -12476703.03508  -9722096.80508  22981922.58208  22981924.15608
  -4689108.43908  -3653847.47708  24179157.00008  24179158.34208
 -27720433.54208 -21600319.15309  20110314.78908  20110315.19709
  -6703946.77308  -5223847.18208  24082741.94008  24082744.15308
  -2277090.30808  -1774353.92708  24602527.78908  24602530.41808
 -10688802.78808  -8328930.45508  23026867.92008  23026868.60408
 -25136147.26508 -19586591.18208  20890811.01908  20890812.16608
 93 06 20 02 10 30.0000000  0  8 22 23 26 16 17 19 28 03
 -19065053.08408 -14855877.01308  21629990.35108  21629990.79208
 -12574986.83008  -9798681.53208  22963219.73308  22963221.21808
  -4762663.85108  -3711163.33108  24165159.66808  24165161.14108
  -6609476.84108  -5150234.30608  24100718.98708  24100721.17608
 -27716204.19908 -21597023.56309  20111119.61208  20111120.00109
  -2306934.81608  -1797609.37408  24596848.50608  24596851.41308
 -10788652.21508  -8406735.16608  23007867.23808  23007867.92008
 -25072175.34008 -19536742.94308  20902984.47308  20902985.66108
 93 06 20 02 11 00.0000000  0  8 22 23 26 16 17 19 28 03
 -19029309.83208 -14828025.14208  21636792.15508  21636792.59408
 -12673003.07808  -9875057.79008  22944567.88208  22944569.30708
  -4835839.19408  -3768183.01008  24151234.68308  24151236.28208
  -6514687.88708  -5076372.83808  24118756.82508  24118758.94808
 -27711462.85609 -21593329.00909  20112021.87209  20112022.27309
  -2336240.50908  -1820444.96908  24591271.94708  24591274.80108
 -10888288.57008  -8484373.84708  22988907.01408  22988907.57708
 -25007768.60308 -19486555.89208  20915240.62808  20915241.94008
 93 06 20 02 11 30.0000000  0  7 22 23 26 16 17 28 03
 -18992999.46808 -14799731.36508  21643701.73108  21643702.16708
 -12770752.71608  -9951226.29608  22925966.62608  22925968.02608
  -4908633.68208  -3824905.92308  24137382.34308  24137383.91308
  -6419584.83108  -5002266.62308  24136854.19808  24136856.40308
 -27706207.31209 -21589233.78109  20113022.01809  20113022.37109
 -10987712.27008  -8561846.82408  22969987.31608  22969987.89208
 -24942923.80808 -19436027.49608  20927580.18908  20927581.53408
 93 06 20 02 12 00.0000000  0  8 22 23 26 16 17 21 28 03
 -18956113.26108 -14770988.88008  21650720.99508  21650721.39208
 -12868241.38308 -10027191.44008  22907415.10108  22907416.47008
  -4981060.43208  -3881342.29208  24123599.77508  24123601.45908
  -6324174.93008  -4927921.31208  24155010.12308  24155012.31708
 -27700425.73109 -21584728.65609  20114122.21709  20114122.59709
        -0.87917        -0.02416  25575755.71417  25575759.68716
 -11086932.90308  -8639161.57008  22951106.25508  22951106.85008
 -24877646.99708 -19385162.46608  20940001.97108  20940003.31708
 93 06 20 02 12 30.0000000  0  8 22 23 26 16 17 21 28 03
 -18918632.95808 -14741783.46408  21657853.25408  21657853.64308
 -12965467.84808 -10102952.25408  22888913.52308  22888914.83708
  -5053113.49308  -3937487.48308  24109888.52308  24109890.28308
  -6228475.72508  -4853350.55508  24173221.19008  24173223.49808
 -27694110.51209 -21579807.71109  20115323.92409  20115324.30609
   -117861.02207    -91838.98406  25553327.69507  25553331.60206
 -11185947.57108  -8716315.82208  22932264.39908  22932264.93808
 -24811936.84408 -19333959.76708  20952506.26508  20952507.48108
 93 06 20 02 13 00.0000000  0  8 22 23 26 16 17 21 28 03
 -18880567.59208 -14712122.15508  21665096.83008  21665097.21208
 -13062417.52608 -10178497.38108  22870464.66408  22870465.82408
  -5124793.46208  -3993341.96408  24096248.33408  24096249.93408
  -6132510.68308  -4778572.64708  24191482.66308  24191485.12508
 -27687257.66009 -21574467.83009  20116628.02509  20116628.39609
   -235748.37607   -183699.16606  25530894.29007  25530898.19606
 -11284763.86108  -8793315.48308  22913460.39508  22913460.91208
 -24745795.23908 -19282420.87008  20965092.66508  20965093.81608
 93 06 20 02 13 30.0000000  0  8 22 23 26 16 17 21 28 03
 -18841930.35708 -14682015.23208  21672449.35608  21672449.67408
 -13159081.11508 -10253819.59508  22852070.14208  22852071.32708
  -5196103.44908  -4048908.14108  24082678.30708  24082679.87308
  -6036281.29308  -4703588.74608  24209794.53808  24209796.94708
 -27679851.32809 -21568696.66509  20118037.33809  20118037.69509
   -353652.48107   -275572.39306  25508458.09507  25508461.80906
 -11383375.01108  -8870155.30008  22894695.12308  22894695.64308
 -24679221.91408 -19230545.57008  20977761.15108  20977762.28108
 93 06 20 02 14 00.0000000  0  8 03 22 23 26 16 17 21 28
 -24612209.22608 -19178327.90908  20990513.29608  20990514.35708
 -18802717.61808 -14651459.86708  21679911.28708  21679911.64308
 -13255442.12808 -10328906.02708  22833733.10608  22833734.30208
  -5267023.69508  -4104170.62308  24069182.82008  24069184.08908
  -5939769.26708  -4628384.61708  24228160.21208  24228162.63708
 -27671881.61609 -21562486.50309  20119553.97209  20119554.34609
   -471553.90507   -367443.54006  25486022.04407  25486025.98306
 -11481770.20708  -8946826.84308  22875970.98208  22875971.49908
 93 06 20 02 14 30.0000000  0  8 03 22 23 26 16 17 21 28
 -24544765.59208 -19125774.44808  21003347.40308  21003348.48508
 -18762956.65208 -14620477.30908  21687477.49308  21687477.84608
 -13351504.54308 -10403759.78208  22815453.06308  22815454.22408
  -5337557.57308  -4159132.04608  24055760.76508  24055761.84708
  -5842979.04608  -4552963.73708  24246578.86008  24246581.33008
 -27663359.19209 -21555845.65809  20121175.76209  20121176.11009
   -589459.90907   -459318.22107  25463584.94207  25463589.04307
 -11579943.46708  -9023325.44408  22857289.27508  22857289.76008
 93 06 20 02 15 00.0000000  0  8 03 22 23 26 16 17 21 28
 -24476905.51008 -19072896.48008  21016260.78608  21016261.84908
 -18722677.43408 -14589090.92208  21695142.38308  21695142.79108
 -13447281.88308 -10478391.39208  22797227.23708  22797228.37208
  -5407723.48508  -4213806.74108  24042408.47008  24042409.59108
  -5745914.33808  -4477328.96108  24265049.69408  24265052.15608
 -27654305.57309 -21548790.89509  20122898.58509  20122898.92109
   -707385.69907   -551208.35107  25441144.41807  25441148.43807
 -11677909.39008  -9099662.49208  22838647.11308  22838647.62308
 93 06 20 02 15 30.0000000  0  8 03 22 23 26 16 17 21 28
 -24408621.87308 -19019688.46808  21029254.70808  21029255.81308
 -18681860.63008 -14557285.63608  21702909.50008  21702909.96408
 -13542781.65908 -10552806.71508  22779054.11108  22779055.36408
  -5477513.92808  -4268188.85208  24029127.82308  24029128.85408
  -5648552.84308  -4401462.91508  24283576.92608  24283579.34908
 -27644714.03309 -21541316.97209  20124723.78809  20124724.12409
   -825322.72507   -643107.22207  25418701.60507  25418705.56907
 -11775651.42208  -9175825.07908  22820047.28308  22820047.79108
 93 06 20 02 16 00.0000000  0  8 03 22 23 26 16 17 21 28
 -24339911.18508 -18966147.68908  21042329.89108  21042331.01208
 -18640488.16708 -14525047.37108  21710782.49408  21710782.95708
 -13638005.67908 -10627007.16708  22760933.55108  22760934.70308
  -5546917.81608  -4322269.74608  24015920.82808  24015921.87508
  -5550887.79808  -4325360.34408  24302162.06208  24302164.55108
 -27634580.62709 -21533420.81609  20126652.15909  20126652.48909
   -943276.90107   -735019.46607  25396255.65007  25396259.79107
 -11873161.76608  -9251807.13308  22801491.63308  22801492.16508
 93 06 20 02 16 30.0000000  0  8 03 22 23 26 16 17 21 28
 -24270784.66708 -18912282.88708  21055484.27108  21055485.38008
 -18598573.87808 -14492386.90508  21718758.65008  21718759.10008
 -13732964.52008 -10701000.97708  22742863.36308  22742864.51008
  -5615957.49708  -4376066.84608  24002782.88008  24002783.94108
  -5452943.24508  -4249039.99208  24320800.36508  24320802.78508
 -27623915.44009 -21525110.28509  20128681.70209  20128682.07009
  -1061259.17807   -826953.62007  25373804.22707  25373808.41307
 -11970437.62408  -9327606.46608  22782980.62508  22782981.17808
 93 06 20 02 17 00.0000000  0  8 03 22 23 26 16 17 21 28
 -24201232.45108 -18858086.37408  21068719.63308  21068720.75208
 -18556101.95908 -14459291.92208  21726840.76808  21726841.21508
 -13827638.31108 -10774772.68708  22724847.51408  22724848.61408
  -5684615.60208  -4429566.61108  23989717.66908  23989718.62008
  -5354716.53608  -4172499.78408  24339492.43008  24339494.84408
 -27612714.09609 -21516381.97209  20130813.28009  20130813.63309
  -1179246.45407   -918891.65507  25351352.03507  25351356.16007
 -12067471.04408  -9403216.88908  22764515.76008  22764516.24208
 93 06 20 02 17 30.0000000  0  8 22 03 23 26 16 17 21 28
 -18513067.00708 -14425758.21308  21735030.01208  21735030.48408
 -24131247.57208 -18803552.72008  21082037.27508  21082038.46208
 -13921999.55308 -10848300.86408  22706891.12908  22706892.24208
  -5752874.70008  -4482755.46208  23976728.39808  23976729.36108
  -5256210.57108  -4095741.93708  24358237.53008  24358239.97308
 -27600966.90109 -21507228.31909  20133048.62709  20133048.98409
  -1297221.77107  -1010820.38107  25328901.93807  25328906.05807
 -12164238.86408  -9478620.34908  22746101.36708  22746101.90308
 93 06 20 02 18 00.0000000  0  8 03 22 23 26 16 17 21 28
 -24060838.50408 -18748688.52708  21095435.69708  21095436.86708
 -18469490.88408 -14391802.80908  21743322.29408  21743322.75508
 -14016042.09708 -10921580.70108  22688995.32908  22688996.50308
  -5820740.73808  -4535638.04308  23963813.80308  23963814.94008
  -5157433.18808  -4018772.60808  24377034.28308  24377036.74108
 -27588686.38409 -21497659.09009  20135385.51809  20135385.86209
  -1415184.33607  -1102739.15407  25306454.39707  25306458.29907
 -12260744.04808  -9553819.15208  22727737.07408  22727737.52808
 93 06 20 02 18 30.0000000  0  8 03 22 23 26 16 17 21 28
 -23990015.34108 -18693501.66808  21108912.91908  21108914.10408
 -18425388.35308 -14357437.21808  21751714.69008  21751715.13208
 -14109770.40408 -10994615.68708  22671159.36408  22671160.51008
  -5888226.52408  -4588224.33308  23950971.44108  23950972.84608
  -5058394.52608  -3941599.67608  24395880.75908  24395883.10908
 -27575886.09409 -21487684.84209  20137821.43409  20137821.74109
  -1533140.62607  -1194653.05407  25284007.89607  25284011.89707
 -12357000.55708  -9628824.18908  22709419.95308  22709420.42808
 93 06 20 02 19 00.0000000  0  8 22 23 26 16 17 21 28 03
 -18380761.65208 -14322663.18208  21760206.89508  21760207.40308
 -14203194.56908 -11067413.69208  22653381.25108  22653382.43308
  -5955336.18308  -4640517.52608  23938200.94408  23938202.27608
  -4959108.95908  -3864234.36308  24414774.22208  24414776.65508
 -27562577.52509 -21477314.53209  20140353.92009  20140354.24909
  -1651115.76107  -1286581.61707  25261558.05607  25261561.87807
 -12453035.24508  -9703656.38108  22691145.22308  22691145.71208
 -23918791.88108 -18638002.88808  21122466.30608  21122467.48608
 93 06 20 02 19 30.0000000  0  8 22 23 26 16 21 17 28 03
 -18335592.13408 -14287466.17808  21768802.44808  21768802.88008
 -14296319.48908 -11139978.52808  22635659.99208  22635661.30508
  -6022061.02108  -4692510.85908  23925503.57708  23925505.00208
  -4859568.38708  -3786670.35408  24433716.12008  24433718.73508
  -1769110.28507  -1378525.28807  25239104.20007  25239108.24607
 -27548730.93309 -21466524.98509  20142988.86009  20142989.18309
 -12548839.56808  -9778309.06808  22672914.13508  22672914.57308
 -23847159.80908 -18582185.70908  21136097.43508  21136098.61808
 93 06 20 02 20 00.0000000  0  8 22 23 26 16 21 17 28 03
 -18289856.79508 -14251828.27208  21777505.50408  21777505.97508
 -14389138.03308 -11212304.61508  22617997.24608  22617998.55208
  -6088378.92108  -4744187.09508  23912883.51708  23912885.01308
  -4759754.21308  -3708893.14908  24452710.23008  24452712.64608
  -1887099.79107  -1470465.05407  25216651.51007  25216655.42907
 -27534319.11109 -21455294.99909  20145731.34509  20145731.63709
 -12644405.47608  -9852775.98108  22654728.64908  22654729.07308
 -23775102.50708 -18526037.18008  21149809.50408  21149810.68408
 93 06 20 02 20 30.0000000  0  8 22 23 26 16 21 17 28 03
 -18243548.60008 -14215743.98408  21786317.80408  21786318.18408
 -14481641.62908 -11284385.28608  22600394.39208  22600395.65108
  -6154291.06908  -4795547.16708  23900340.97908  23900342.50808
  -4659699.88208  -3630928.81608  24471750.12008  24471752.53908
  -2005074.60207  -1562393.36207  25194201.49707  25194205.25607
 -27519339.22809 -21443622.37009  20148581.88909  20148582.17309
 -12739750.93608  -9927071.11508  22636584.89708  22636585.33408
 -23702621.66008 -18469558.61808  21163602.12208  21163603.32708
 93 06 20 02 21 00.0000000  0  8 22 23 26 16 21 17 28 03
 -18196675.24508 -14179219.31008  21795237.45308  21795237.84308
 -14573818.89108 -11356211.65508  22582853.60208  22582854.92008
  -6219782.48708  -4846579.39008  23887878.41008  23887879.88508
  -4559419.24708  -3552788.13108  24490832.81208  24490835.43508
  -2123025.96407  -1654303.39807  25171755.92807  25171759.83407
 -27503793.01109 -21431508.44109  20151540.25209  20151540.50709
 -12834866.69808 -10001187.26208  22618484.91708  22618485.37708
 -23629717.62308 -18412750.30008  21177475.30208  21177476.51308
 93 06 20 02 21 30.0000000  0  8 22 23 26 16 21 17 28 03
 -18149273.07008 -14142282.57008  21804257.83908  21804258.19608
 -14665674.38908 -11427787.29908  22565374.03908  22565375.26208
  -6284862.59008  -4897291.11008  23875493.93808  23875495.45908
  -4458926.40608  -3474482.08008  24509956.00808  24509958.50008
  -2240950.36207  -1746192.42507  25149315.71807  25149319.45607
 -27487707.24009 -21418974.08009  20154601.25009  20154601.51809
 -12929758.98808 -10075129.27008  22600427.66808  22600428.15108
 -23556410.40308 -18355627.81808  21191425.19808  21191426.45408
 93 06 20 02 22 00.0000000  0  8 22 23 26 16 21 17 28 03
 -18101338.62408 -14104931.07408  21813379.53308  21813379.85808
 -14757181.72208 -11499091.65608  22547960.77808  22547961.99908
  -6349516.33208  -4947670.60208  23863190.71408  23863192.23508
  -4358202.39608  -3395995.90408  24529123.21508  24529125.91108
  -2358826.37207  -1838043.74707  25126884.48607  25126888.32007
 -27471095.75909 -21406030.07309  20157762.35409  20157762.65709
 -13024411.60308 -10148884.52208  22582415.67708  22582416.18808
 -23482687.24308 -18298181.22308  21205454.28908  21205455.52808
 93 06 20 02 22 30.0000000  0  8 22 23 26 16 21 17 28 03
 -18052875.77208 -14067167.83208  21822601.69208  21822602.04308
 -14848346.50808 -11570129.08208  22530612.69508  22530613.89108
  -6413739.40808  -4997714.50808  23850969.38108  23850970.91608
  -4257252.10108  -3317333.39508  24548333.40708  24548336.01608
  -2476679.26407  -1929877.04907  25104457.78707  25104461.58607
 -27453971.48409 -21392686.48509  20161021.03009  20161021.31909
 -13118821.59508 -10222450.72008  22564450.05208  22564450.46508
 -23408552.62908 -18240414.01308  21219561.65908  21219562.91108
 93 06 20 02 23 00.0000000  0  8 22 23 26 16 21 17 28 03
 -18003899.48508 -14029004.51408  21831921.55008  21831921.93908
 -14939176.45708 -11640905.57808  22513328.20508  22513329.38608
  -6477526.77008  -5047418.88808  23838831.01308  23838832.53408
  -4156040.81408  -3238467.51708  24567593.30408  24567595.95108
  -2594526.03607  -2021705.59107  25082032.34607  25082035.96007
 -27436342.09909 -21378949.30809  20164375.73109  20164376.02309
 -13212970.65408 -10295813.59208  22546533.97708  22546534.50308
 -23334013.29208 -18182331.43208  21233746.03908  21233747.30608
 93 06 20 02 23 30.0000000  0  8 23 22 26 16 17 21 28 03
 -15029680.50108 -11711428.14208  22496105.83908  22496107.01608
 -17954394.34108 -13990429.09708  21841342.06708  21841342.50308
  -6540886.71408  -5096790.23108  23826774.05008  23826775.31008
  -4054554.78808  -3159387.56408  24586905.53708  24586908.35208
 -27418205.95809 -21364817.25509  20167827.00909  20167827.28009
  -2712365.70307  -2113528.59807  25059608.09807  25059611.69707
 -13306859.58308 -10368973.77108  22528667.59908  22528668.08608
 -23259069.29408 -18123933.53508  21248007.45908  21248008.70008
 93 06 20 02 24 00.0000000  0  8 23 22 26 16 17 21 28 03
 -15119863.08008 -11781700.23308  22478944.57208  22478945.75308
 -17904349.50508 -13951433.14008  21850865.25108  21850865.73208
  -6603822.44308  -5145831.01208  23814797.88508  23814799.16308
  -3952799.54808  -3080097.82308  24606269.01008  24606271.63608
 -27399556.47909 -21350285.19609  20171375.85409  20171376.13309
  -2830204.86307  -2205351.21807  25037183.98507  25037187.59107
 -13400477.39608 -10441922.68608  22510852.69708  22510853.16808
 -23183718.30608 -18065218.50108  21262346.29508  21262347.55108
 93 06 20 02 24 30.0000000  0  8 23 22 26 16 17 21 28 03
 -15209722.53208 -11851720.51508  22461844.79508  22461845.94708
 -17853782.74308 -13912030.48908  21860487.83408  21860488.33908
  -6666337.09808  -5194543.68408  23802901.88408  23802902.86908
  -3850796.32508  -3000614.84408  24625679.55308  24625682.38008
 -27380384.64609 -21335346.10809  20175024.15809  20175024.45009
  -2948043.05807  -2297173.07407  25014759.99907  25014763.55907
 -13493822.07408 -10514658.76708  22493089.82508  22493090.31208
 -23107969.35708 -18006193.36708  21276760.87508  21276762.09008
 93 06 20 02 25 00.0000000  0  8 23 22 26 16 21 17 28 03
 -15299236.70308 -11921471.73508  22444810.69608  22444811.88208
 -17802680.51708 -13872210.59708  21870212.36508  21870212.80408
  -6728428.76308  -5242926.75708  23791086.20108  23791087.21008
  -3748523.52808  -2920921.81008  24645141.42108  24645144.14608
  -3065836.05707  -2388959.72307  24992344.69407  24992348.19907
 -27360669.23109 -21319983.44809  20178775.78409  20178776.10509
 -13586877.04108 -10587169.10308  22475382.00308  22475382.36608
 -23031805.41108 -17946844.85908  21291254.40908  21291255.65708
 93 06 20 02 25 30.0000000  0  8 23 22 26 16 17 21 28 03
 -15388416.64208 -11990962.54008  22427840.24908  22427841.40108
 -17751042.66608 -13831973.33708  21880038.73208  21880039.22608
  -6790101.10608  -5290983.08808  23779350.31808  23779351.29608
  -3646010.97308  -2841041.93508  24664648.96908  24664651.75708
 -27340411.26909 -21304198.02909  20182630.78709  20182631.14909
  -3183579.22807  -2480707.53907  24969938.82007  24969942.25807
 -13679651.69408 -10659461.01208  22457727.50808  22457727.79808
 -22955229.21108 -17887175.11408  21305826.40508  21305827.58608
 93 06 20 02 26 00.0000000  0  8 23 22 26 16 21 17 28 03
 -15477290.35508 -12060214.73008  22410928.13708  22410929.30308
 -17698921.97808 -13791359.83908  21889957.00708  21889957.46608
  -6851380.03908  -5338732.86408  23767689.24508  23767690.25908
  -3543307.03608  -2761012.95508  24684192.91508  24684195.70308
  -3301314.47508  -2572449.17207  24947534.49108  24947537.88107
 -27319646.34409 -21288017.57709  20186582.23109  20186582.57009
 -13772182.76608 -10731563.12008  22440119.59008  22440119.91308
 -22878282.64808 -17827216.77308  21320468.82708  21320470.04108
 93 06 20 02 26 30.0000000  0  8 23 22 26 16 17 21 28 03
 -15565832.29708 -12129208.39608  22394079.13408  22394080.26008
 -17646291.04408 -13750348.74508  21899972.34308  21899972.81908
  -6912229.27208  -5386147.81808  23756109.92208  23756110.93208
  -3440385.91108  -2680814.74408  24703778.10508  24703781.06408
 -27298349.86909 -21271422.92709  20190634.80709  20190635.15109
  -3419017.63008  -2664165.80007  24925136.28708  24925139.57307
 -13864460.26708 -10803467.63908  22422559.72208  22422560.04508
 -22800944.36208 -17766953.19608  21335185.80808  21335187.07208
 93 06 20 02 27 00.0000000  0  8 23 22 26 16 21 17 28 03
 -15654032.37608 -12197935.69208  22377295.17408  22377296.28208
 -17593124.63908 -13708920.40308  21910089.61508  21910090.10608
  -6972624.80208  -5433209.23808  23744616.96308  23744618.02708
  -3337225.05808  -2600429.72608  24723409.24508  24723412.06008
  -3536680.14108  -2755850.76207  24902745.80808  24902749.19107
 -27276526.49109 -21254417.70209  20194787.64609  20194787.99109
 -13956469.94808 -10875163.46708  22405050.87908  22405051.10308
 -22723199.59908 -17706372.88608  21349980.15708  21349981.38808
 93 06 20 02 27 30.0000000  0  8 23 22 26 16 21 17 28 03
 -15741885.28108 -12266392.45508  22360577.29008  22360578.40208
 -17539439.90608 -13667088.16808  21920305.50908  21920306.01408
  -7032548.32908  -5479902.86008  23733213.84708  23733214.91808
  -3233853.57508  -2519880.60907  24743080.14108  24743082.96107
  -3654317.19008  -2847515.88207  24880360.09508  24880363.34507
 -27254184.00609 -21237007.97709  20199039.27009  20199039.63509
 -14048218.55908 -10946655.86308  22387591.67008  22387591.88408
 -22645060.31908 -17645485.15808  21364849.62908  21364850.84808
 93 06 20 02 28 00.0000000  0  8 23 22 26 16 21 17 28 03
 -15829373.09808 -12334564.74408  22343928.91408  22343929.99408
 -17485243.02108 -13624856.85008  21930618.86908  21930619.33208
  -7092005.27108  -5526232.91708  23721899.58708  23721900.74008
  -3130276.52208  -2439171.30107  24762790.21408  24762793.06907
  -3771922.63508  -2939156.37807  24857980.54408  24857983.78207
 -27231325.92809 -21219196.48909  20203388.98209  20203389.37709
 -14139702.35008 -11017941.90908  22370182.82008  22370183.10408
 -22566530.41308 -17584293.04508  21379793.38508  21379794.56608
 93 06 20 02 28 30.0000000  0  8 23 22 26 16 21 17 28 03
 -15916491.70908 -12402449.32408  22327350.74808  22327351.78508
 -17430528.98608 -13582222.55708  21941030.57908  21941031.05608
  -7150995.56608  -5572199.34008  23710673.97508  23710675.03908
  -3026484.89808  -2358294.75407  24782541.31408  24782544.16007
  -3889479.05408  -3030758.66407  24835610.21108  24835613.40207
 -27207955.67309 -21200985.90409  20207836.21609  20207836.60509
 -14230911.58808 -11089014.01808  22352826.22908  22352826.55908
 -22487602.34008 -17522790.67408  21394812.86908  21394814.11508
 93 06 20 02 29 00.0000000  0  8 23 22 26 16 21 17 28 03
 -16003245.48708 -12470049.62108  22310841.99608  22310843.06208
 -17375305.67308 -13539191.42308  21951539.18508  21951539.69708
  -7209530.08608  -5617810.60908  23699535.33608  23699536.42108
  -2922485.70308  -2277256.45307  24802331.71608  24802334.47907
  -4006977.11108  -3122315.47907  24813250.99108  24813254.13107
 -27184070.60209 -21182374.16609  20212381.38309  20212381.82109
 -14321830.73808 -11159860.08508  22335524.85608  22335525.18208
 -22408275.35908 -17460977.46408  21409908.29908  21409909.58708
 93 06 20 02 29 30.0000000  0  8 23 22 26 16 17 21 28 03
 -16089620.72608 -12537354.96708  22294405.37808  22294406.35208
 -17319564.74708 -13495756.95508  21962146.30908  21962146.91708
  -7267613.34208  -5663070.25308  23688482.39208  23688483.48208
  -2818275.61408  -2196053.83507  24822162.08008  24822165.05807
 -27159643.60709 -21163340.14709  20217029.68309  20217030.12709
  -4124414.04608  -3213824.67007  24790903.50808  24790906.49007
 -14412444.98708 -11230468.56508  22318281.49908  22318281.81108
 -22328544.75208 -17398849.74208  21425080.59608  21425081.84008
 93 06 20 02 30 00.0000000  0  8 23 22 26 16 17 21 28 03
 -16175657.68108 -12604396.69208  22278033.06808  22278034.01808
 -17263321.69408 -13451931.22208  21972849.01908  21972849.59308
  -7325286.88908  -5708010.63508  23677507.37508  23677508.37408
  -2713873.22308  -2114701.36707  24842029.33308  24842032.24507
 -27134713.40609 -21143914.02109  20221773.74709  20221774.19609
  -4241813.66808  -3305304.78607  24768562.97608  24768565.91507
 -14502773.61608 -11300854.49008  22301092.52708  22301092.80508
 -22248435.83008 -17336427.23208  21440324.77808  21440326.12608
 93 06 20 02 30 30.0000000  0  8 23 22 26 16 17 21 28 03
 -16261361.07808 -12671178.50308  22261724.17408  22261725.18408
 -17206566.95008 -13407706.77208  21983649.11208  21983649.68208
  -7382523.85608  -5752610.82908  23666615.43608  23666616.47708
  -2609272.71408  -2033194.54707  24861934.21008  24861937.04507
 -27109276.09709 -21124092.74709  20226614.33609  20226614.78109
  -4359166.02008  -3396748.06407  24746231.53208  24746234.49707
 -14592809.85908 -11371012.57708  22283959.30408  22283959.53708
 -22167937.86908 -17273701.57408  21455643.04108  21455644.38508
 93 06 20 02 31 00.0000000  0  8 23 22 26 16 17 21 28 03
 -16346726.64308 -12737697.08408  22245479.59408  22245480.63708
 -17149295.25108 -13363079.50108  21994547.61708  21994548.18108
  -7439319.96808  -5796867.49608  23655807.50608  23655808.52708
  -2504493.99008  -1951548.84807  24881872.98808  24881875.95507
 -27083332.30409 -21103876.80909  20231551.30509  20231551.73409
  -4476480.73908  -3488162.02707  24723907.09008  24723910.06907
 -14682552.43608 -11440941.83508  22266881.72508  22266881.98308
 -22087056.85708 -17210677.44108  21471034.21508  21471035.56208
 93 06 20 02 31 30.0000000  0  8 23 22 26 16 21 17 28 03
 -16431717.36508 -12803923.58608  22229306.32708  22229307.31708
 -17091496.03808 -13318041.18108  22005546.52908  22005547.07808
  -7495639.56108  -5840752.85408  23645090.21308  23645091.19208
  -2399526.31308  -1869755.93507  24901847.70908  24901850.74307
  -4593731.76308  -3579526.35707  24701594.92208  24701597.92207
 -27056867.12109 -21083254.59409  20236587.41609  20236587.81909
 -14771992.05208 -11510635.01808  22249861.80708  22249862.12008
 -22005776.16108 -17147341.86308  21486501.38508  21486502.80708
 93 06 20 02 32 00.0000000  0  8 23 22 26 16 17 21 28 03
 -16516360.66008 -12869879.34508  22213199.18908  22213200.23008
 -17033198.47808 -13272614.53508  22016640.11408  22016640.73908
  -7551492.68108  -5884274.72708  23634461.70808  23634462.64608
  -2294402.38508  -1787841.27607  24921852.21208  24921855.02407
 -27029916.15409 -21062253.84709  20241716.06409  20241716.45309
  -4710930.01208  -3670849.56507  24679292.78708  24679295.65807
 -14861156.80808 -11580114.02308  22232894.26408  22232894.61008
 -21924120.58508 -17083714.17008  21502039.92608  21502041.36108
 93 06 20 02 32 30.0000000  0  8 23 22 26 16 17 21 28 03
 -16600630.31008 -12935543.94608  22197163.17208  22197164.19608
 -16974402.81608 -13226799.75608  22027828.57108  22027829.19008
  -7606862.79608  -5927420.23008  23623925.30208  23623926.17608
  -2189108.97108  -1705794.54307  24941888.88508  24941892.03207
 -27002450.74709 -21040852.23809  20246942.57609  20246942.92309
  -4828066.10308  -3762124.33707  24657002.45508  24657005.33407
 -14950034.18308 -11649369.09408  22215981.35308  22215981.67508
 -21842082.94708 -17019788.77008  21517651.21308  21517652.69008
 93 06 20 02 33 00.0000000  0  8 23 22 26 16 17 21 28 03
 -16684491.20808 -13000890.05008  22181204.92208  22181205.92908
 -16915093.92808 -13180585.06608  22039114.66808  22039115.38308
  -7661743.18208  -5970184.13108  23613481.94208  23613482.79608
  -2083613.70908  -1623590.55607  24961964.10808  24961967.17407
 -26974443.12909 -21019028.12709  20252272.23409  20252272.59709
  -4945116.88008  -3853332.63407  24634728.32708  24634731.04607
 -15038594.84108 -11718377.37308  22199128.76408  22199129.07708
 -21759647.38908 -16955553.30208  21533338.21008  21533339.67908
 93 06 20 02 33 30.0000000  0  8 23 22 26 16 17 21 28 03
 -16767954.02008 -13065925.95808  22165322.41908  22165323.35908
 -16855297.95208 -13133990.82708  22050493.48308  22050494.27608
  -7716155.13508  -6012583.02508  23603127.65908  23603128.44008
  -1977924.23108  -1541235.24307  24982076.27908  24982079.23507
 -26945906.27109 -20996791.62009  20257702.62509  20257702.94209
  -5062095.30408  -3944484.54807  24612467.85608  24612470.75907
 -15126850.61508 -11787148.08108  22182334.49708  22182334.73708
 -21676830.09008 -16891020.37108  21549097.85208  21549099.29308
 93 06 20 02 34 00.0000000  0  8 23 22 26 16 17 21 28 03
 -16851046.50008 -13130673.30808  22149510.39808  22149511.29708
 -16795023.88808 -13087024.05208  22061963.28908  22061964.06108
  -7770127.94908  -6054639.72608  23592856.82808  23592857.55308
  -1872050.90407  -1458736.63607  25002223.26707  25002226.41207
 -26916855.56009 -20974154.70809  20263230.78209  20263231.10109
  -5179019.99008  -4035594.59307  24590217.79808  24590220.69207
 -15214808.45508 -11855686.63008  22165596.71008  22165596.94508
 -21593647.79308 -16826203.01908  21564926.99008  21564928.42708
 93 06 20 02 34 30.0000000  0  8 23 22 26 16 17 21 28 03
 -16933751.82608 -13195118.98808  22133772.13308  22133773.06608
 -16734272.04208 -13039684.97908  22073524.09008  22073524.78708
  -7823654.70808  -6096348.84508  23582670.89108  23582671.65408
  -1765976.33207  -1376081.19607  25022408.65407  25022411.97607
 -26887274.67309 -20951104.67409  20268859.85409  20268860.17109
  -5295878.79708  -4126653.30607  24567980.17008  24567983.05707
 -15302464.21308 -11923989.79308  22148916.33508  22148916.54108
 -21510089.76908 -16761092.89708  21580827.54108  21580829.00708
 93 06 20 02 35 00.0000000  0  8 23 22 26 16 17 21 28 03
 -17016065.83908 -13259259.74508  22118108.31808  22118109.18708
 -16673026.80608 -12991961.44808  22085178.70308  22085179.39108
  -7876723.98608  -6137701.49808  23572572.19408  23572572.85708
  -1659709.82107  -1293276.22707  25042630.54207  25042633.77107
 -26857167.67709 -20927644.68509  20274589.03809  20274589.35509
  -5412675.41308  -4217663.55708  24545754.45608  24545757.41308
 -15389818.38408 -11992057.95708  22132293.57308  22132293.71108
 -21426148.94808 -16695684.48808  21596801.02008  21596802.43008
 93 06 20 02 35 30.0000000  0  8 23 22 26 16 17 21 28 03
 -17098011.90208 -13323113.76608  22102514.45408  22102515.25008
 -16611305.79908 -12943867.18508  22096923.85308  22096924.48208
  -7929336.66408  -6178698.35108  23562560.28308  23562561.09408
  -1553279.09807  -1210343.21707  25062883.57007  25062886.83807
 -26826551.06409 -20903787.59109  20280415.15909  20280415.48409
  -5529425.53608  -4308637.58708  24523537.63208  24523540.45608
 -15476891.02408 -12059906.74508  22115724.01608  22115724.18208
 -21341838.09108 -16629987.74608  21612844.80408  21612846.22108
 93 06 20 02 36 00.0000000  0  8 23 22 26 16 17 21 28 03
 -17179618.78308 -13386703.48608  22086985.08408  22086985.83408
 -16549129.02708 -12895417.78208  22108755.81308  22108756.36308
  -7981498.87408  -6219344.18608  23552634.06208  23552634.83408
  -1446701.93107  -1127296.17707  25083164.59107  25083167.96407
 -26795439.12309 -20879544.52809  20286335.60009  20286335.93009
  -5646138.26808  -4399582.47308  24501327.84508  24501330.65908
 -15563707.33708 -12127555.80008  22099203.39308  22099203.54708
 -21257179.60208 -16564020.12708  21628954.76908  21628956.25008
 93 06 20 02 36 30.0000000  0  8 23 22 26 16 17 21 28 03
 -17260818.38108 -13449975.85708  22071533.41308  22071534.10508
 -16486449.18808 -12846576.37908  22120683.35408  22120683.90308
  -8033140.39108  -6259584.30208  23542806.99708  23542807.80308
  -1339924.18807  -1044092.75707  25103483.71207  25103487.08207
 -26763782.20209 -20854876.80409  20292359.67809  20292360.01809
  -5762756.42508  -4490453.66608  24479136.05208  24479138.81308
 -15650204.69508 -12194956.31808  22082743.54908  22082743.73108
 -21172120.20508 -16497740.10908  21645141.04308  21645142.56508
 93 06 20 02 37 00.0000000  0  8 23 22 26 16 17 21 28 03
 -17341614.88808 -13512934.14608  22056158.30908  22056159.00508
 -16423256.43008 -12797335.30008  22132708.50508  22132709.07608
  -8084255.59208  -6299414.30008  23533079.99908  23533080.90508
  -1232949.18007   -960735.66807  25123840.37507  25123843.73807
 -26731586.36609 -20829789.14909  20298486.37209  20298486.70109
  -5879260.63008  -4581236.05908  24456965.94008  24456968.71108
 -15736355.52408 -12262086.81408  22066349.59008  22066349.76608
 -21086656.94608 -16431145.38508  21661404.18608  21661405.66608
 93 06 20 02 37 30.0000000  0  7 23 22 21 16 28 03 17
 -17422056.92508 -13575616.21308  22040850.60908  22040851.32108
 -16359602.58608 -12747734.92908  22144821.47108  22144822.04808
  -5995672.27408  -4671946.34208  24434813.54508  24434816.23908
  -1125810.26607   -877250.89707  25144228.44007  25144231.88407
 -15822189.71208 -12328970.57608  22050015.73108  22050015.84308
 -21000841.15008 -16364275.96708  21677734.42808  21677735.87808
 -26698908.89609 -20804326.19409  20304704.72909  20304705.06409
 93 06 20 02 38 00.0000000  0  7 23 22 21 17 16 28 03
 -17502136.79108 -13638016.06908  22025611.89108  22025612.59408
 -16295485.39908 -12697773.51208  22157022.54808  22157023.14008
  -6111984.43408  -4762579.10108  24412679.93108  24412682.68108
 -26665761.27509 -20778496.88909  20311012.45009  20311012.82109
  -1018505.92507   -793637.20007  25164647.72307  25164651.24307
 -15907705.92508 -12395606.56808  22033742.64308  22033742.75208
 -20914677.00508 -16297135.10608  21694130.88208  21694132.54308
 93 06 20 02 38 30.0000000  0  8 23 22 21 31 17 16 28 03
 -17581829.27408 -13700114.09408  22010446.94308  22010447.67308
 -16230884.70608 -12647435.33508  22169315.68208  22169316.25708
  -6228183.12308  -4853123.44308  24390567.95408  24390570.67208
        -0.08016         0.39816  25198819.57916  25198821.99516
 -26632141.91909 -20752299.99609  20317409.96509  20317410.36509
   -911032.19307   -709891.47207  25185099.11107  25185102.70207
 -15992885.60608 -12461980.32908  22017533.57708  22017533.74208
 -20828146.86408 -16229709.05608  21710597.05908  21710598.65308
 93 06 20 02 39 00.0000000  0  8 23 22 21 31 17 16 28 03
 -17661130.53108 -13761907.25808  21995356.34808  21995357.14408
 -16165783.31508 -12596707.00808  22181704.09408  22181704.68508
  -6344267.01408  -4943578.33808  24368477.84208  24368480.52908
   -112458.38406    -87629.40106  25177419.47706  25177421.74806
 -26598037.36108 -20725725.02509  20323899.88508  20323900.31509
   -803389.91207   -626014.40907  25205582.91607  25205586.53307
 -16077725.62108 -12528089.41308  22001388.93808  22001389.10608
 -20741245.51508 -16161993.74708  21727133.86208  21727135.50808
 93 06 20 02 39 30.0000000  0  8 23 22 21 31 17 16 28 03
 -17740655.52508 -13823874.75708  21980223.18108  21980223.96708
 -16100813.57808 -12546081.27108  22194067.45008  22194068.07508
  -6460874.87108  -5034441.51208  24346288.17708  24346290.78608
   -225486.35006   -175703.07206  25155911.13006  25155913.29206
 -26564071.81408 -20699258.37309  20330363.31708  20330363.78409
   -696215.58407   -542501.99907  25225977.50607  25225981.14607
 -16162862.23208 -12594429.61308  21985187.96308  21985188.08208
 -20654605.12708 -16094481.78808  21743621.00208  21743622.66208
 93 06 20 02 40 00.0000000  0  8 23 22 21 31 17 16 28 03
 -17820897.18108 -13886400.69108  21964953.65808  21964954.52808
 -16036494.74508 -12495962.73308  22206306.83508  22206307.49608
  -6578521.35508  -5126114.01408  24323900.64808  24323903.23908
   -339586.43807   -264612.17006  25134198.63507  25134200.68506
 -26530741.38008 -20673286.61409  20336705.93408  20336706.36309
   -590027.06807   -459757.79007  25246184.63907  25246188.24207
 -16248803.58808 -12661396.88608  21968833.81708  21968833.96508
 -20568730.81408 -16027566.76308  21759962.37808  21759964.01108
 93 06 20 02 40 30.0000000  0  8 23 22 21 31 17 16 28 03
 -17899084.24808 -13947325.64808  21950075.18108  21950075.97608
 -15970062.69508 -12444197.53008  22218948.56108  22218949.24408
  -6694448.44208  -5216446.72008  24301840.46508  24301843.03208
   -451988.95407   -352198.47206  25112809.04807  25112810.71406
 -26495276.29208 -20645651.48909  20343454.72008  20343455.16109
   -482051.29807   -375620.93607  25266731.46107  25266735.40707
 -16332758.92008 -12726816.61008  21952857.69208  21952857.80708
 -20480856.63208 -15959093.40208  21776684.31708  21776685.87708
 93 06 20 02 41 00.0000000  0  8 23 22 21 31 17 16 28 03
 -17975708.67908 -14007032.97108  21935494.03008  21935494.80508
 -15902028.52208 -12391183.92008  22231894.98608  22231895.73608
  -6809145.09208  -5305820.64208  24280014.26808  24280016.84908
   -563185.40707   -438845.00406  25091649.09007  25091650.97706
 -26458169.99308 -20616737.49909  20350515.77708  20350516.24409
   -372772.30707   -290468.63307  25287526.79107  25287530.77907
 -16415204.54108 -12791059.93208  21937168.80308  21937168.89208
 -20391477.01308 -15889446.97108  21793692.73108  21793694.27008
 93 06 20 02 41 30.0000000  0  7 23 22 21 16 17 28 03
 -18052349.39708 -14066752.99008  21920909.73008  21920910.48508
 -15834005.88108 -12338179.29408  22244839.27508  22244839.99608
  -6924193.68908  -5395468.80908  24258121.05408  24258123.60108
   -263777.22707   -205537.51407  25308267.81107  25308271.56807
 -26421022.54908 -20587791.44809  20357584.68508  20357585.18909
 -16497735.79908 -12855369.98508  21921463.59908  21921463.67808
 -20302183.90108 -15819867.95208  21810684.67408  21810686.19708
 93 06 20 02 42 00.0000000  0  7 23 22 16 21 17 28 03
 -18128818.87408 -14126339.56708  21906358.05308  21906358.80208
 -15765810.30608 -12285039.91308  22257816.52208  22257817.23508
   -154865.40307   -120671.25907  25328993.06907  25328997.29007
  -7039412.27408  -5485249.43508  24236195.73808  24236198.18808
 -26383643.46508 -20558664.89709  20364697.65708  20364698.20409
 -16580176.27408 -12919609.30008  21905775.59908  21905775.63608
 -20212788.97608 -15750209.60408  21827695.99908  21827697.51308
 93 06 20 02 42 30.0000000  0  7 23 22 16 17 21 28 03
 -18205030.43508 -14185725.16508  21891855.40508  21891856.10808
 -15697328.94808 -12231677.84808  22270848.13708  22270848.82108
    -45935.11707    -35790.66107  25349722.01307  25349725.95307
 -26345918.39708 -20529268.74809  20371876.50208  20371877.05609
  -7154689.36308  -5575075.65208  24214259.24808  24214261.58608
 -16662435.31308 -12983707.23308  21890122.32808  21890122.36508
 -20123189.18008 -15680391.61308  21844746.28308  21844747.76808
 93 06 20 02 43 00.0000000  0  7 23 22 16 17 21 28 03
 -18280915.23608 -14244856.15008  21877415.07208  21877415.72308
 -15628493.85808 -12178040.14808  22283946.97308  22283947.74208
     63063.27107     49143.16407  25370463.87007  25370467.76507
 -26307775.51608 -20499547.03009  20379134.88208  20379135.42509
  -7269946.07608  -5664885.99508  24192326.59708  24192328.99208
 -16744471.85908 -13047631.79608  21874511.23408  21874511.31608
 -20033319.54708 -15610363.36408  21861847.91708  21861849.46508
 93 06 20 02 43 30.0000000  0  8 23 22 31 17 16 21 28 03
 -18356443.89808 -14303709.62308  21863042.43308  21863043.10708
 -15559258.43508 -12124090.50708  22297122.03508  22297122.84508
        -0.62517        -0.19917  24985288.36017  24985289.89517
 -26269174.77908 -20469468.54209  20386480.38108  20386480.91309
    172145.37607    134142.12607  25391221.38807  25391225.58607
  -7385149.17708  -5754654.55608  24170404.06308  24170406.29508
 -16826270.40508 -13111370.90308  21858945.34708  21858945.50908
 -19943152.14908 -15540103.09008  21879006.28308  21879007.80408
 93 06 20 02 44 00.0000000  0  8 23 22 31 16 17 21 28 03
 -18431603.68608 -14362275.67108  21848739.99508  21848740.65308
 -15489575.36208 -12069792.03808  22310382.29508  22310383.13208
   -111809.34407    -87123.80007  24964011.82107  24964013.41607
    281330.77007    219221.58307  25411998.87207  25412002.62307
 -26230076.77908 -20439002.57709  20393920.44508  20393921.02009
  -7500267.06708  -5844356.71908  24148497.78208  24148500.09008
 -16907780.18608 -13174885.00008  21843434.64108  21843434.76108
 -19852658.80208 -15469588.82808  21896226.66908  21896228.21108
 93 06 20 02 44 30.0000000  0  8 23 22 31 16 17 21 28 03
 -18506341.01708 -14420512.53108  21834517.90508  21834518.56708
 -15419393.28508 -12015104.73608  22323737.55608  22323738.39708
   -223520.00207   -174171.00607  24942753.89007  24942755.62007
    390649.97007    304405.37807  25432801.55207  25432805.43907
 -26190445.74808 -20408121.26209  20401462.00308  20401462.52609
  -7615236.67308  -5933943.34008  24126619.75608  24126622.11608
 -16988920.84408 -13238111.47008  21827993.96208  21827994.09608
 -19761791.24108 -15398782.97708  21913518.23408  21913519.71808
 93 06 20 02 45 00.0000000  0  8 23 22 31 16 17 21 28 03
 -18580647.92608 -14478413.99908  21820377.74908  21820378.36208
 -15348731.64308 -11960043.74708  22337183.94308  22337184.86308
   -335135.75307   -261144.26607  24921514.23207  24921515.90607
    500100.86607    389691.73607  25453629.25407  25453633.44107
 -26150307.17408 -20376844.46109  20409100.08708  20409100.62909
  -7730066.96708  -6023421.41008  24104768.21308  24104770.60008
 -17069668.90008 -13301032.01608  21812628.28308  21812628.39108
 -19670556.35408 -15327690.89208  21930879.71208  21930881.17808
 93 06 20 02 45 30.0000000  0  8 23 22 31 16 17 21 28 03
 -18654636.11008 -14536067.11308  21806298.23008  21806298.92508
 -15277706.88008 -11904699.80808  22350699.57308  22350700.47708
   -446765.33007   -348128.28507  24900271.68807  24900273.52107
    609584.49707    475003.58007  25474463.46207  25474467.53007
 -26109777.68108 -20345263.04709  20416812.65208  20416813.17709
  -7844868.11708  -6112876.77308  24082922.24608  24082924.48408
 -17150108.29808 -13363712.05008  21797321.14208  21797321.24908
 -19579065.67108 -15256399.48608  21948289.84808  21948291.29408
 93 06 20 02 46 00.0000000  0  8 23 22 31 16 17 21 28 03
 -18728248.17908 -14593427.15208  21792290.35208  21792291.07208
 -15206282.42408 -11849044.42008  22364291.18708  22364292.13508
   -558359.76007   -435084.91407  24879035.92307  24879037.62907
    719148.85806    560378.36807  25495313.06606  25495316.76707
 -26068821.96108 -20313349.51009  20424606.30908  20424606.81109
  -7959590.11208  -6202270.45708  24061091.32908  24061093.59108
 -17230172.18108 -13426099.47308  21782085.42708  21782085.49508
 -19487273.40408 -15184873.08208  21965757.26908  21965758.77808
 93 06 20 02 46 30.0000000  0  8 23 22 31 16 17 21 28 03
 -18801380.50508 -14650413.35908  21778373.77308  21778374.51008
 -15134385.58408 -11793020.94408  22377972.76208  22377973.68208
   -669824.66107   -521940.61307  24857824.81207  24857826.62707
    828881.78507    645884.45707  25516194.67907  25516198.27407
 -26027358.60208 -20281040.41009  20432496.47208  20432496.99109
  -8074138.50908  -6291528.86808  24039293.37508  24039295.67508
 -17309779.62308 -13488131.22908  21766936.60108  21766936.65508
 -19395089.26208 -15113041.32308  21983299.31908  21983300.83408
 93 06 20 02 47 00.0000000  0  8 23 22 31 16 17 21 28 03
 -18874073.91108 -14707057.55208  21764540.58108  21764541.35108
 -15062059.25208 -11736662.79908  22391735.99708  22391736.92808
   -781205.83807   -608731.08307  24836629.58807  24836631.31307
    938735.59907    731484.86506  25537098.97007  25537102.80906
 -25985418.39008 -20248359.73409  20440477.38108  20440477.93109
  -8188559.82408  -6380688.25308  24017519.68708  24017521.94108
 -17388999.38008 -13549860.89208  21751861.53908  21751861.56908
 -19302562.10508 -15040942.27708  22000906.68808  22000908.22608
 93 06 20 02 47 30.0000000  0  8 23 22 31 16 17 21 28 03
 -18946322.52708 -14763355.15608  21750792.19208  21750792.91608
 -14989293.39508 -11679962.16808  22405582.93808  22405583.88708
   -892501.02607   -695454.54207  24815450.77107  24815452.46707
   1048690.82906    817164.21207  25558022.92306  25558026.91407
 -25942998.95208 -20215305.63709  20448549.55408  20448550.08609
  -8302851.13808  -6469746.33608  23995770.67408  23995772.98608
 -17467858.91708 -13611309.86608  21736855.11308  21736855.08408
 -19209693.38808 -14968577.08308  22018579.09308  22018580.59508
 93 06 20 02 48 00.0000000  0  7 23 22 31 21 17 28 03
 -19018117.42208 -14819299.19508  21737130.03308  21737130.76208
 -14916094.05108 -11622923.75408  22419512.29708  22419513.31008
  -1003700.37807   -782103.31907  24794290.12607  24794291.79607
  -8417008.77508  -6558700.25108  23974047.14108  23974049.50808
 -25900085.09308 -20181866.27409  20456715.87908  20456716.42009
 -17546369.07808 -13672486.59908  21721915.12608  21721915.11608
 -19116475.82708 -14895940.05808  22036317.80208  22036319.41308
 93 06 20 02 48 30.0000000  0  8 23 22 31 26 21 17 28 03
 -19089481.40008 -14874907.45608  21723549.88308  21723550.60408
 -14842487.08708 -11565567.71508  22433519.32608  22433520.33608
  -1114825.69707   -868694.41507  24773143.61507  24773145.47807
         0.23618        -0.29318  23335440.33418  23335441.00018
  -8531060.59308  -6647571.70908  23952343.70408  23952345.93108
 -25856695.30608 -20148056.06009  20464972.65908  20464973.23409
 -17624571.98508 -13733423.91408  21707033.75308  21707033.77808
 -19022936.02108 -14823051.92608  22054117.80208  22054119.43608
 93 06 20 02 49 00.0000000  0  8 23 22 31 26 21 17 28 03
 -19160392.23608 -14930162.63108  21710056.04108  21710056.68608
 -14768452.36708 -11507878.36108  22447607.63308  22447608.65608
  -1225860.55307   -955215.01207  24752014.47307  24752016.18607
    -39021.84408    -30407.09008  23328014.77508  23328015.36108
  -8644982.86508  -6736342.22308  23930664.95508  23930667.30808
 -25812816.96608 -20113865.15409  20473322.43608  20473323.03209
 -17702445.82408 -13794104.81308  21692214.81708  21692214.83608
 -18929059.79208 -14749901.65508  22071981.89908  22071983.54308
 93 06 20 02 49 30.0000000  0  8 23 22 31 26 21 17 28 03
 -19230847.70208 -14985062.97908  21696648.74908  21696649.39508
 -14693997.44008 -11449861.57308  22461775.91108  22461776.91808
  -1336790.77707  -1041654.06907  24730905.08507  24730906.84107
    -77481.96708    -60375.99908  23320696.00708  23320696.71008
  -8758755.82308  -6824996.39208  23909014.59008  23909016.93008
 -25768457.08508 -20079299.02109  20481763.86908  20481764.46509
 -17779962.34808 -13854507.28308  21677463.74708  21677463.76408
 -18834837.19008 -14676481.48508  22089911.86908  22089913.58008
 93 06 20 02 50 00.0000000  0  8 23 22 31 26 21 17 28 03
 -19300863.16208 -15039620.46908  21683325.24108  21683325.83008
 -14619134.92208 -11391527.18408  22476021.86208  22476022.86508
  -1447628.64508  -1128021.16607  24709813.28408  24709814.97807
   -115401.95008    -89924.02008  23313480.05608  23313480.74108
  -8872387.05808  -6913540.13508  23887391.19608  23887393.55008
 -25723629.74208 -20044368.63209  20490294.21808  20490294.81709
 -17857113.90908 -13914625.36708  21662782.10608  21662782.16108
 -18740283.43308 -14602803.26708  22107904.88108  22107906.62108
 93 06 20 02 50 30.0000000  0  8 23 22 31 26 21 17 28 03
 -19370443.66508 -15093839.03008  21670084.51408  21670085.03408
 -14543843.13408 -11332858.29708  22490349.47308  22490350.45308
  -1558379.12608  -1214320.16907  24688738.07008  24688739.72307
   -152798.72608   -119064.35108  23306363.72408  23306364.46508
  -8985869.52308  -7001967.95608  23865796.19508  23865798.61908
 -25678360.16808 -20009093.65008  20498908.72208  20498909.30908
 -17933896.89308 -13974456.24808  21648170.93508  21648170.91708
 -18645407.04608 -14528873.65708  22125959.30708  22125961.03908
 93 06 20 02 51 00.0000000  0  8 23 22 31 26 21 17 28 03
 -19439588.70708 -15147718.27208  21656926.67008  21656927.16008
 -14468110.49908 -11273845.89508  22504760.97808  22504761.89408
  -1669026.85208  -1300539.11207  24667682.46908  24667684.07107
   -189647.58908   -147777.73308  23299351.63408  23299352.39108
  -9099192.27208  -7090271.33008  23844231.38108  23844233.82008
 -25632641.89008 -19973469.02708  20507608.69908  20507609.27108
 -18010285.24208 -14033979.62108  21633634.80608  21633634.78708
 -18550196.32808 -14454683.52108  22144077.39308  22144078.99508
 93 06 20 02 51 30.0000000  0  8 23 22 31 26 21 17 28 03
 -19508307.36608 -15201265.26308  21643849.94008  21643850.48308
 -14391940.16308 -11214492.42408  22519255.71608  22519256.68508
  -1779578.32808  -1386683.05207  24646645.25108  24646646.87807
   -225964.05608   -176076.26208  23292440.82708  23292441.57108
  -9212370.69608  -7178462.25008  23822694.25408  23822696.68908
 -25586478.78108 -19937497.78308  20516393.23008  20516393.81308
 -18086294.90508 -14093207.91608  21619170.54708  21619170.51008
 -18454660.85708 -14380240.33708  22162257.23108  22162258.87008
 93 06 20 02 52 00.0000000  0  8 23 22 31 26 21 17 28 03
 -19576601.21808 -15254481.23408  21630854.08608  21630854.63908
 -14315334.95308 -11154800.09508  22533833.28008  22533834.24408
  -1890041.01808  -1472757.80507  24625624.81508  24625626.39707
   -261756.52008   -203966.47908  23285629.70608  23285630.47308
  -9325418.55008  -7266551.42608  23801181.89908  23801184.32508
 -25539871.99708 -19901180.82108  20525262.13608  20525262.69808
 -18161935.83208 -14152148.88408  21604776.44008  21604776.41508
 -18358812.67608 -14305553.48008  22180496.58408  22180498.23908
 93 06 20 02 52 30.0000000  0  8 23 22 31 26 21 17 28 03
 -19644458.35308 -15307356.91108  21617941.24708  21617941.81908
 -14238293.22708 -11094767.62008  22548493.76608  22548494.80608
  -2000394.63708  -1558747.56207  24604625.07608  24604626.85807
   -297005.56208   -231433.24808  23278921.93608  23278922.76108
  -9438313.46708  -7354521.41008  23779698.66108  23779701.10208
 -25492800.64008 -19864501.85508  20534219.51708  20534220.10608
 -18237184.47808 -14210784.17708  21590457.06408  21590457.07208
 -18262634.49008 -14230609.47308  22198798.69808  22198800.38708
 93 06 20 02 53 00.0000000  0  8 23 22 31 26 21 28 17 03
 -19711877.59708 -15359891.37808  21605111.73608  21605112.31008
 -14160847.70208 -11034420.49608  22563231.19008  22563232.23608
  -2110638.18708  -1644651.56307  24583646.38508  24583648.07407
   -331710.62008   -258476.13008  23272317.77508  23272318.59108
  -9551052.07208  -7442369.59008  23758245.16708  23758247.52008
 -18312039.44208 -14269112.70808  21576212.74708  21576212.73208
 -25445246.96908 -19827447.05908  20543268.68208  20543269.24208
 -18166128.43508 -14155409.99508  22217163.21308  22217164.93108
 93 06 20 02 53 30.0000000  0  8 23 22 31 26 21 28 17 03
 -19778869.77408 -15412093.06308  21592363.49908  21592364.08508
 -14083024.04008 -10973778.72008  22578040.57608  22578041.56608
  -2220787.70608  -1730482.29208  24562685.58308  24562687.24308
   -365896.21608   -285114.24208  23265812.53208  23265813.25608
  -9663630.01208  -7530092.57908  23736822.15608  23736824.52308
 -18386512.13108 -14327143.35908  21562041.20508  21562041.19708
 -25397229.79308 -19790031.09108  20552406.02908  20552406.58308
 -18069314.68708 -14079970.75308  22235586.25208  22235588.08108
 93 06 20 02 54 00.0000000  0  8 23 22 31 26 21 28 17 03
 -19845396.75908 -15463932.25908  21579703.86408  21579704.42008
 -14004788.63108 -10912816.10408  22592928.37108  22592929.36408
  -2330798.38308  -1816204.83508  24541751.22508  24541752.80208
   -399511.75608   -311308.15608  23259415.70908  23259416.42408
  -9776000.96708  -7617654.28708  23715438.62408  23715441.07708
 -18460543.63208 -14384830.22708  21547953.32808  21547953.34508
 -25348710.04708 -19752223.51008  20561639.06908  20561639.59608
 -17972151.13708 -14004258.93408  22254075.83508  22254077.75108
 93 06 20 02 54 30.0000000  0  8 23 22 31 26 21 28 17 03
 -19911487.08608 -15515431.20108  21567127.29108  21567127.87808
 -13926180.78408 -10851563.27908  22607887.01208  22607888.00508
  -2440698.72908  -1901841.40308  24520837.80108  24520839.39208
   -432590.65408   -337083.90808  23253121.06108  23253121.80508
  -9888200.13108  -7705082.13608  23694087.73408  23694090.22308
 -18534170.88708 -14442202.10008  21533942.56708  21533942.59008
 -25299714.86408 -19714045.45808  20570962.56608  20570963.05908
 -17874670.04308 -13928299.68308  22272625.88408  22272627.84608
 93 06 20 02 55 00.0000000  0  8 23 22 31 26 21 28 17 03
 -19977149.06508 -15566596.36808  21554632.13808  21554632.73208
 -13847227.73408 -10790041.46408  22622911.29908  22622912.29808
  -2550522.47308  -1987418.29008  24499939.04808  24499940.51908
   -465168.42508   -362469.16808  23246921.53308  23246922.29108
 -10000273.85008  -7792412.23708  23672760.71708  23672763.08008
 -18607431.72708 -14499288.45608  21520001.50108  21520001.52908
 -25250289.80908 -19675532.44008  20580367.89808  20580368.32508
 -17776909.37208 -13852122.57908  22291229.12108  22291231.04808
 93 06 20 02 55 30.0000000  0  8 23 22 31 26 21 28 17 03
 -20042328.57008 -15617385.57608  21542228.94808  21542229.52508
 -13767874.42308 -10728207.75708  22638011.86808  22638012.75508
  -2660228.02108  -2072903.07308  24479062.69308  24479064.15908
   -497200.88108   -387429.50808  23240825.87608  23240826.68108
 -10112193.28308  -7879622.11808  23651463.12608  23651465.52608
 -18680281.96908 -14556054.86608  21506138.36508  21506138.44008
 -25200415.34308 -19636669.23208  20589858.71408  20589859.17108
 -17678830.37808 -13775697.43308  22309892.98308  22309894.91208
 93 06 20 02 56 00.0000000  0  8 23 22 31 26 21 28 17 03
 -20107013.61608 -15667789.49608  21529919.81808  21529920.33808
 -13688124.20808 -10666064.77408  22653187.78908  22653188.74708
  -2769815.05008  -2158295.50708  24458208.91508  24458210.46508
   -528696.09008   -411971.21708  23234832.47008  23234833.20708
 -10223978.62108  -7966727.51308  23630191.03808  23630193.38508
 -18752730.63608 -14612508.35708  21492351.80408  21492351.84308
 -25150089.57108 -19597454.35608  20599435.39708  20599435.84808
 -17580436.87208 -13699027.20608  22328616.70708  22328618.58208
 93 06 20 02 56 30.0000000  0  8 23 22 31 26 21 28 17 03
 -20171196.28508 -15717801.94808  21517706.26908  21517706.77108
 -13607974.05508 -10603610.15208  22668439.90608  22668440.83808
  -2879284.83608  -2243596.58208  24437377.38608  24437379.00308
   -559655.26308   -436095.23108  23228941.17608  23228942.00508
 -10335624.34308  -8053724.10008  23608945.55608  23608947.92508
 -18824781.86608 -14668652.15908  21478640.81908  21478640.87008
 -25099304.65408 -19557881.70508  20609099.45408  20609099.93108
 -17481733.89408 -13622115.83308  22347399.32008  22347401.12008
 93 06 20 02 57 00.0000000  0  8 23 22 31 26 21 28 17 03
 -20234876.56108 -15767422.92708  21505588.33908  21505588.83608
 -13527411.49008 -10540834.17008  22683770.48108  22683771.46008
  -2988628.81508  -2328799.62808  24416570.04408  24416571.50208
   -590059.93708   -459787.16708  23223155.32108  23223156.12808
 -10447104.82908  -8140591.93408  23587731.46908  23587733.83708
 -18896421.65108 -14724475.35208  21465008.21408  21465008.24308
 -25048064.31108 -19517954.17708  20618850.20208  20618850.64708
 -17382715.81108 -13544958.92308  22366241.91008  22366243.67708
 93 06 20 02 57 30.0000000  0  8 23 22 31 26 21 28 17 03
 -20298088.10608 -15816678.66208  21493559.50108  21493560.02108
 -13446451.58308 -10477748.57308  22699176.63508  22699177.65908
  -3097853.42808  -2413909.65908  24395785.19708  24395786.62708
   -619909.12308   -483046.25808  23217475.18708  23217475.89508
 -10558414.37608  -8227326.58708  23566549.92708  23566552.23308
 -18967661.71508 -14779987.07508  21451451.60608  21451451.64308
 -24996363.51308 -19477667.85208  20628688.54108  20628689.03408
 -17283393.34008 -13467564.82308  22385142.44108  22385144.12608
 93 06 20 02 58 00.0000000  0  8 23 22 31 26 21 28 17 03
 -20360854.85108 -15865587.79908  21481615.37708  21481615.97708
 -13365110.98708 -10414366.33408  22714655.29808  22714656.33008
  -3206970.77008  -2498936.10508  24375020.77708  24375022.18308
   -649207.20308   -505875.91908  23211899.69908  23211900.46208
 -10669555.44608  -8313929.94808  23545400.41708  23545402.68908
 -19038515.73608 -14835197.98308  21437968.50108  21437968.50408
 -24944197.06308 -19437018.68108  20638615.50408  20638615.97208
 -17183781.91308 -13389945.56308  22404097.90608  22404099.59908
 93 06 20 02 58 30.0000000  0  8 23 22 31 26 21 28 17 03
 -20423162.42108 -15914139.13408  21469758.53508  21469759.17208
 -13283360.53908 -10350664.73208  22730211.96808  22730212.92208
  -3315947.39008  -2583852.89308  24354283.19208  24354284.57608
   -677911.84108   -528243.16108  23206437.40208  23206438.14608
 -10780488.28508  -8400371.05608  23524290.62608  23524292.85508
 -19108947.73208 -14890080.04508  21424565.74908  21424565.79908
 -24891553.82408 -19395997.98508  20648633.22208  20648633.66908
 -17083852.03108 -13312078.16108  22423113.91308  22423115.71008
 93 06 20 02 59 00.0000000  0  8 23 22 31 26 21 28 03 17
 -20485034.63708 -15962351.23308  21457984.66008  21457985.29708
 -13201229.52308 -10286666.58808  22745841.04508  22745842.12408
  -3424803.60308  -2668675.85908  24333568.52308  24333569.88308
   -706036.84508   -550158.73608  23201085.49008  23201086.29408
 -10891237.94408  -8486669.42408  23503215.51208  23503217.77208
 -19178974.25608 -14944646.15208  21411240.20108  21411240.25308
 -16983626.69108 -13233980.54408  22442186.12908  22442188.02508
 -24838477.60408 -19354639.90408  20658733.22308  20658733.73508
 93 06 20 02 59 30.0000000  0  8 23 22 31 26 21 28 03 17
 -20546467.87708 -16010221.27608  21446294.29908  21446294.87308
 -13118726.04408 -10222378.21408  22761540.89208  22761541.99008
  -3533541.69208  -2753406.77908  24312876.29008  24312877.72708
   -733595.03508   -571632.63708  23195841.32808  23195842.22408
 -11001826.57508  -8572842.31708  23482171.08608  23482173.33508
 -19248595.00808 -14998896.07508  21397991.79008  21397991.85008
 -16883112.77308 -13155658.05208  22461313.25708  22461315.25708
 -24784977.83108 -19312951.78308  20668913.82908  20668914.38208
 93 06 20 03 00 00.0000000  0  8 23 22 31 26 21 28 03 17
 -20607451.87608 -16057741.26208  21434689.47008  21434690.01708
 -13035848.94708 -10157798.70408  22777311.99208  22777312.97308
  -3642157.20708  -2838042.18708  24292207.48908  24292208.67708
   -760592.87808   -592669.90008  23190703.75208  23190704.53508
 -11112257.19708  -8658892.08608  23461156.84608  23461159.09408
 -19317806.01708 -15052826.71908  21384821.35108  21384821.40208
 -16782308.93408 -13077109.65508  22480495.52008  22480497.61308
 -24731075.48708 -19270949.97008  20679171.04108  20679171.60608
 93 06 20 03 00 30.0000000  0  8 23 22 31 26 21 28 03 17
 -20667973.11108 -16104900.65408  21423172.65208  21423173.16508
 -12952596.41108 -10092926.64408  22793154.45908  22793155.48608
  -3750631.98408  -2922567.92908  24271565.38308  24271566.71308
   -787034.97208   -613274.11208  23185672.10508  23185672.89208
 -11222525.83308  -8744815.63308  23440173.37508  23440175.63708
 -19386591.52708 -15106425.80608  21371731.85308  21371731.94808
 -16681201.29408 -12998324.53208  22499735.73108  22499737.83108
 -24676768.72008 -19228633.02208  20689505.33508  20689505.91008
 93 06 20 03 01 00.0000000  0  8 23 22 31 26 21 28 03 17
 -20728016.70608 -16151687.85808  21411746.70008  21411747.21408
 -12868969.62008 -10027762.95308  22809068.05808  22809069.07108
  -3858959.42908  -3006978.86808  24250951.35308  24250952.55008
   -812927.00008   -633449.70508  23180745.10408  23180745.72508
 -11332630.38008  -8830611.32508  23419221.23108  23419223.40008
 -19454945.45408 -15159688.59208  21358724.58008  21358724.65008
 -16579786.79608 -12919300.29208  22519034.39608  22519036.38008
 -24622029.95108 -19185979.44708  20699921.79408  20699922.40708
 93 06 20 03 01 30.0000000  0  8 23 22 31 26 21 28 03 17
 -20787565.32408 -16198089.36508  21400414.92508  21400415.43508
 -12784959.95308  -9962300.92008  22825054.61408  22825055.64508
  -3967122.92108  -3091262.05108  24230368.44608  24230369.67408
   -838264.43808   -653193.15408  23175923.55708  23175924.15008
 -11442549.77208  -8916262.74008  23398304.15208  23398306.33008
 -19522859.77808 -15212608.83308  21345800.96808  21345800.96808
 -16478052.13608 -12840026.57208  22538393.95008  22538395.83308
 -24566833.07908 -19142968.90808  20710425.37708  20710426.02508
 93 06 20 03 02 00.0000000  0  8 23 22 31 26 21 28 03 17
 -20846623.26208 -16244108.52708  21389176.61308  21389177.07808
 -12700588.87108  -9896557.26308  22841109.90408  22841111.04208
  -4075125.91508  -3175420.16708  24209816.06208  24209817.38508
   -863052.84208   -672508.79008  23171206.50608  23171207.14408
 -11552267.29808  -9001756.85208  23377425.61608  23377427.75508
 -19590333.66608 -15265185.87708  21332961.12008  21332961.09508
 -16376005.12208 -12760509.46308  22557812.85208  22557814.88108
 -24511168.64508 -19099594.03708  20721017.98108  20721018.64708
 93 06 20 03 02 30.0000000  0  8 23 22 31 26 21 28 03 17
 -20905199.15508 -16289752.06508  21378030.01108  21378030.46408
 -12615881.00508  -9830551.18208  22857229.32108  22857230.47508
  -4182985.35808  -3259466.43208  24189291.08108  24189292.23808
   -887294.49208   -691398.38108  23166593.43008  23166593.98708
 -11661777.80008  -9087089.65808  23356586.37908  23356588.57408
 -19657370.40808 -15317422.28608  21320204.58708  21320204.54908
 -16273665.44308 -12680764.29808  22577287.54508  22577289.46908
 -24455033.09008 -19055852.05708  20731700.19308  20731700.83108
 93 06 20 03 03 00.0000000  0  8 23 22 31 26 21 28 03 17
 -20963292.42708 -16335019.54108  21366975.11708  21366975.64908
 -12530837.51308  -9764283.57508  22873412.56008  22873413.77208
  -4290711.47308  -3343408.80508  24168791.47208  24168792.67308
   -910981.54808   -709855.82608  23162085.65308  23162086.35908
 -11771066.97608  -9172250.00008  23335789.39008  23335791.42808
 -19723974.41408 -15369321.49808  21307530.20708  21307530.19108
 -16171048.12508 -12600802.80008  22596814.91508  22596816.91908
 -24398441.94008 -19011755.06808  20742469.27808  20742469.87508
 93 06 20 03 03 30.0000000  0  8 23 22 31 26 21 28 03 17
 -21020884.43708 -16379896.41608  21356015.76708  21356016.29908
 -12445446.17708  -9697744.92108  22889662.01608  22889663.23108
  -4398287.42908  -3427234.16908  24148320.41508  24148321.61508
   -934087.84808   -727860.72408  23157688.73008  23157689.58808
 -11880108.17508  -9257217.11908  23315039.42808  23315041.57908
 -19790122.59708 -15420865.52408  21294942.49208  21294942.43008
 -16068139.35408 -12520614.19608  22616397.84308  22616399.87108
 -24341396.48708 -18967304.07808  20753324.66708  20753325.25608
 93 06 20 03 04 00.0000000  0  8 23 22 31 26 21 28 03 17
 -21077978.86008 -16424385.56808  21345151.03308  21345151.63108
 -12359706.35208  -9630934.71808  22905977.83508  22905979.03108
  -4505712.44908  -3510941.91708  24127878.07908  24127879.26808
   -956607.41208   -745408.42408  23153403.46208  23153404.23408
 -11988901.56808  -9341991.14408  23294336.64008  23294338.80208
 -19855803.19308 -15472045.19708  21282443.92508  21282443.90908
 -15964942.30808 -12440200.96308  22636035.71208  22636037.60808
 -24283906.71908 -18922506.86908  20764264.65908  20764265.20908
 93 06 20 03 04 30.0000000  0  8 23 22 31 26 21 28 03 17
 -21134621.86808 -16468522.96408  21334372.17908  21334372.80008
 -12273653.28008  -9563880.42408  22922353.23408  22922354.35108
  -4613020.57408  -3594558.58108  24107458.04508  24107459.17708
   -978575.84108   -762526.66808  23149223.19208  23149223.76508
 -12097500.34208  -9426613.51108  23273670.96408  23273673.13308
 -19921062.24608 -15522896.39408  21270025.59708  21270025.60608
 -15861495.36808 -12359593.01008  22655720.98808  22655722.92008
 -24226033.88108 -18877411.16308  20775277.49208  20775278.04308
 93 06 20 03 05 00.0000000  0  8 23 22 31 26 21 28 03 17
 -21190812.42708 -16512307.80208  21323679.42308  21323680.03808
 -12187281.73908  -9496577.97508  22938789.19908  22938790.36308
  -4720200.93308  -3678075.69508  24087062.16308  24087063.29708
   -999994.89708   -779216.83608  23145147.28208  23145147.78608
 -12205918.87108  -9511095.43008  23253039.65908  23253041.68408
 -19985893.76908 -15573414.45608  21257688.48708  21257688.50008
 -15757790.24908 -12278783.88308  22675455.42408  22675457.37608
 -24167787.53708 -18832024.41208  20786361.34308  20786361.89008
 93 06 20 03 05 30.0000000  0  8 23 28 22 31 26 21 03 17
 -21246526.47608 -16555721.33408  21313077.40508  21313078.06508
 -20050269.58508 -15623577.41908  21245438.11108  21245438.13408
 -12100577.03408  -9429015.91808  22955288.67608  22955289.72608
  -4827221.86908  -3761468.58208  24066696.76008  24066697.95708
  -1020835.41708   -795456.19408  23141181.45108  23141181.89708
 -12314143.15508  -9595425.99408  23232445.19508  23232447.29608
 -15653799.59808 -12197752.25508  22695244.20608  22695246.22108
 -24109134.77008 -18786320.97208  20797522.64708  20797523.22508
 93 06 20 03 06 00.0000000  0  8 23 28 22 31 26 21 03 17
 -21301761.34508 -16598761.47808  21302566.65408  21302567.24108
 -20114203.99108 -15673396.42508  21233271.89108  21233271.90108
 -12013537.01708  -9361192.57708  22971851.84108  22971852.92208
  -4934076.40608  -3844731.79908  24046362.94408  24046364.13108
  -1041089.90308   -811238.90408  23137327.39308  23137327.73208
 -12422172.17308  -9679604.40708  23211887.84608  23211889.95608
 -15549520.52908 -12116495.89008  22715087.86508  22715089.81708
 -24050058.83608 -18740287.79008  20808764.40508  20808765.01508
 93 06 20 03 06 30.0000000  0  8 23 28 22 31 26 21 03 17
 -21356502.54208 -16641416.94408  21292149.75708  21292150.35408
 -20177712.22108 -15722883.34708  21221186.56508  21221186.64308
 -11926164.21808  -9293109.92608  22988478.31008  22988479.38108
  -5040762.53908  -3927863.79608  24026061.21408  24026062.31608
  -1060755.56308   -826562.78808  23133585.07808  23133585.46108
 -12530003.80908  -9763629.02308  23191368.24308  23191370.23908
 -15444954.81108 -12035016.15408  22734986.13508  22734988.05908
 -23990559.17108 -18693924.42708  20820086.77608  20820087.39208
 93 06 20 03 07 00.0000000  0  8 23 28 22 31 26 21 03 17
 -21410716.84908 -16683661.84508  21281833.02208  21281833.61308
 -20240776.65308 -15772024.45108  21209185.75708  21209185.85908
 -11838425.47108  -9224742.12208  23005174.53808  23005175.65908
  -5147264.55508  -4010852.32308  24005794.52508  24005795.67708
  -1079815.17208   -841414.42508  23129958.12208  23129958.55908
 -12637614.82008  -9847481.70908  23170890.64708  23170892.52008
 -15340089.80508 -11953303.21108  22754941.27808  22754943.35708
 -23930611.60608 -18647212.05208  20831494.45608  20831495.08008
 93 06 20 03 07 30.0000000  0  8 23 28 22 31 26 21 03 17
 -21464435.77108 -16725520.73808  21271610.64708  21271611.26008
 -20303447.30008 -15820858.71108  21197259.94908  21197260.03308
 -11750345.21708  -9156108.21208  23021935.65108  23021936.77208
  -5253618.09408  -4093725.15008  23985556.08208  23985557.16108
  -1098308.66208   -855824.93208  23126438.74108  23126439.33608
 -12745034.77708  -9931185.52008  23150449.19008  23150451.13608
 -15234965.84708 -11871388.48708  22774945.70808  22774947.85708
 -23870244.13608 -18600172.47508  20842982.01308  20842982.60608
 93 06 20 03 08 00.0000000  0  8 23 28 22 31 26 21 03 17
 -21517659.45408 -16766993.72508  21261482.49208  21261483.12208
 -20365717.20508 -15869380.70508  21185410.49608  21185410.55608
 -11661912.43808  -9087199.60608  23038763.94808  23038765.03208
  -5359814.10508  -4176475.23308  23965347.60608  23965348.67008
  -1116249.87508   -869805.08808  23123024.57108  23123025.29008
 -12852253.40008 -10014732.44508  23130046.03408  23130047.95308
 -15129576.86808 -11789267.25008  22795000.59608  22795002.76508
 -23809456.99508 -18552805.88208  20854549.48808  20854550.06108
 93 06 20 03 08 30.0000000  0  8 23 28 22 31 26 21 03 17
 -21570369.44808 -16808066.44208  21251452.10008  21251452.67908
 -20427530.68508 -15917547.04108  21173647.64408  21173647.73408
 -11573093.89408  -9017990.40608  23055665.61508  23055666.71108
  -5465826.73108  -4259082.42108  23945173.98608  23945175.06808
  -1133627.64708   -883346.19908  23119717.67508  23119718.45608
 -12959250.31608 -10098106.61208  23109685.21508  23109687.09408
 -15023901.47908 -11706922.83708  22815109.96508  22815112.18808
 -23748238.75808 -18505103.37108  20866199.03708  20866199.62008
 93 06 20 03 09 00.0000000  0  8 23 28 22 31 26 21 03 17
 -21622588.85408 -16848756.88208  21241515.07108  21241515.66408
 -20488884.04608 -15965354.84608  21161972.63108  21161972.68108
 -11483902.59108  -8948490.74008  23072638.15108  23072639.29208
  -5571659.88608  -4341549.75808  23925034.58008  23925035.81308
  -1150449.97408   -896454.49308  23116516.44508  23116517.19408
 -13066031.13808 -10181312.39508  23089365.50308  23089367.39808
 -14917947.32308 -11624361.19908  22835272.33508  22835274.55208
 -23686584.45508 -18457061.07008  20877931.48308  20877932.05808
 93 06 20 03 09 30.0000000  0  8 23 28 22 31 26 21 03 17
 -21674347.72108 -16889088.46008  21231665.71808  21231666.22608
 -20549782.11508 -16012807.87708  21150384.00608  21150384.02608
 -11394390.57608  -8878741.16808  23089671.71008  23089673.00108
  -5677324.54708  -4423885.79808  23904927.24208  23904928.39308
  -1166733.47908   -909142.93408  23113417.81108  23113418.52508
 -13172601.39508 -10264354.08808  23069085.77508  23069087.65808
 -14811729.06708 -11541593.78508  22855485.08908  22855487.30908
 -23624502.51108 -18408685.54208  20889745.22308  20889745.77008
 93 06 20 03 10 00.0000000  0  8 23 28 22 31 26 21 03 17
 -21725609.14908 -16929032.42208  21221911.00908  21221911.52408
 -20610174.78908 -16059867.09208  21138891.75608  21138891.79908
 -11304556.32708  -8808740.50408  23106766.62208  23106767.99108
  -5782793.92008  -4506069.66708  23884856.99808  23884858.14608
  -1182446.58808   -921386.90808  23110427.72708  23110428.47808
 -13278927.30108 -10347205.38608  23048852.60108  23048854.50308
 -14705223.35108 -11458602.36808  22875752.45508  22875754.66808
 -23561980.87908 -18359967.40008  20901642.71608  20901643.27608
 93 06 20 03 10 30.0000000  0  8 23 28 22 31 26 21 03 17
 -21776365.91308 -16968583.13908  21212252.25408  21212252.74708
 -20670067.69408 -16106536.87608  21127494.68508  21127494.72508
 -11214419.10008  -8738503.75608  23123919.09608  23123920.54508
  -5888079.02208  -4588109.95308  23864821.90008  23864822.98808
  -1197575.26608   -933175.47708  23107548.79808  23107549.57108
 -13385016.90408 -10429872.55408  23028664.41708  23028666.28108
 -14598445.96108 -11375399.25808  22896071.74108  22896073.84508
 -23499036.54808 -18310919.88408  20913620.56808  20913621.18708
 93 06 20 03 11 00.0000000  0  8 23 28 22 31 26 21 03 17
 -21826609.40308 -17007733.90508  21202691.28708  21202691.75808
 -20729474.85908 -16152828.16408  21116189.81908  21116189.86108
 -11123999.87208  -8668047.26708  23141125.39308  23141126.88308
  -5993181.95508  -4670008.28608  23844821.36708  23844822.54108
  -1212109.66508   -944500.97008  23104782.96108  23104783.67308
 -13490871.14208 -10512356.31808  23008521.01708  23008522.75908
 -14491402.05308 -11291988.47508  22916441.62608  22916443.66808
 -23435681.82408 -18261552.58208  20925676.66408  20925677.27108
 93 06 20 03 11 30.0000000  0  8 23 28 22 31 26 21 03 17
 -21876326.07308 -17046474.15808  21193230.50108  21193230.97908
 -20788394.79208 -16198739.78908  21104977.59008  21104977.67608
 -11033293.96708  -8597367.39508  23158386.28908  23158387.81908
  -6098107.24308  -4751768.19608  23824854.63008  23824855.94808
  -1226047.77708   -955361.82508  23102130.76008  23102131.44408
 -13596491.43008 -10594657.78508  22988422.17908  22988423.83308
 -14384101.02208 -11208377.33908  22936860.43908  22936862.32908
 -23371941.72708 -18211884.98808  20937805.99708  20937806.61508
 93 06 20 03 12 00.0000000  0  8 23 28 22 31 26 21 03 17
 -21925512.59508 -17084801.30908  21183870.64808  21183871.12508
 -20846831.08508 -16244274.55408  21093857.37408  21093857.46708
 -10942273.79608  -8526442.64308  23175706.84008  23175708.39908
  -6202854.59008  -4833389.44408  23804921.88608  23804923.14308
  -1239377.98908   -965748.99308  23099594.09908  23099594.71008
 -13701875.59008 -10676775.25608  22968368.19908  22968369.91108
 -14276545.87908 -11124568.18608  22957327.51308  22957329.47008
 -23307829.14308 -18161927.14608  20950006.20308  20950006.79508
 93 06 20 03 12 30.0000000  0  8 23 28 22 31 26 21 03 17
 -21974195.25008 -17122735.83208  21174606.63508  21174607.12108
 -20904813.07708 -16289455.31708  21082823.66308  21082823.73808
 -10850939.04808  -8455272.76508  23193087.39908  23193088.94608
  -6307429.88508  -4914876.62708  23785021.75108  23785023.01608
  -1252103.40008   -975664.88508  23097172.44608  23097173.07108
 -13807030.00708 -10758713.70408  22948357.92708  22948359.60208
 -14168746.21308 -11040568.48908  22977841.06208  22977843.13708
 -23243348.47608 -18111682.48308  20962276.45308  20962277.07008
 93 06 20 03 13 00.0000000  0  8 23 28 22 31 26 21 03 17
 -22022374.82108 -17160278.34108  21165438.27908  21165438.82008
 -20962336.47608 -16334278.73708  21071877.49808  21071877.54608
 -10759282.34608  -8383852.01608  23210529.05508  23210530.64508
  -6411823.74408  -4996222.43308  23765156.25308  23765157.50808
  -1264236.10908   -985118.93008  23094863.71808  23094864.36908
 -13911936.68308 -10840459.10208  22928394.76708  22928396.40308
 -14060696.39108 -10956373.87608  22998402.35008  22998404.50808
 -23178478.28008 -18061134.29308  20974620.87208  20974621.53008
 93 06 20 03 13 30.0000000  0  8 23 22 31 17 26 21 28 03
 -22070043.38108 -17197422.66308  21156367.31508  21156367.83108
 -10667294.56208  -8312173.28508  23228033.83008  23228035.40408
  -6516019.64908  -5077413.99108  23745328.46508  23745329.54508
 -23113195.08408 -18010264.28408  20987043.84008  20987044.50808
  -1275776.16808   -994111.17508  23092667.77308  23092668.34708
 -14016565.92508 -10921988.31808  22908484.42208  22908486.10508
 -21019380.08708 -16378728.29508  21061022.43208  21061022.48608
 -13952384.03908 -10871974.69808  23019013.57708  23019015.67708
 93 06 20 03 14 00.0000000  0  8 23 22 31 17 26 21 28 03
 -22117199.57008 -17234167.73308  21147393.79008  21147394.28808
 -10574981.93908  -8240241.43608  23245600.49908  23245601.93108
  -6620000.82608  -5158438.22808  23725541.45508  23725542.57208
 -23047480.09008 -17959057.81108  20999548.99608  20999549.68308
  -1286732.40708  -1002648.49108  23090582.72608  23090583.33608
 -14120908.84708 -11003294.42608  22888628.56608  22888630.20208
 -21075935.57208 -16422797.49508  21050260.44508  21050260.46908
 -13843796.73208 -10787361.26608  23039677.05108  23039679.29908
 93 06 20 03 14 30.0000000  0  8 23 22 31 17 26 21 28 03
 -22163945.87308 -17270593.41208  21138498.21908  21138498.78408
 -10482482.42008  -8168163.95208  23263202.61608  23263204.18508
  -6723886.08908  -5239387.73508  23705772.64608  23705773.83808
 -22981448.07108 -17907604.30508  21012114.44508  21012115.13908
  -1297237.71808  -1010834.43908  23088583.54008  23088584.16208
 -14225100.19108 -11084482.42108  22868801.60008  22868803.17708
 -21132121.31808 -16466578.58308  21039568.66608  21039568.71708
 -13735056.16208 -10702628.40608  23060369.74708  23060371.91408
 93 06 20 03 15 00.0000000  0  8 23 22 31 17 26 21 28 03
 -22210162.84908 -17306606.63208  21129703.45808  21129703.97508
 -10389685.82908  -8095854.98308  23280861.29608  23280862.78808
  -6827559.04308  -5320171.80608  23686044.35408  23686045.42808
 -22914981.52608 -17855812.20808  21024762.63308  21024763.32308
  -1307179.55108  -1018581.31908  23086691.73508  23086692.42808
 -14329028.79008 -11165465.68708  22849024.55808  22849026.17608
 -21187804.78608 -16509968.29108  21028972.48308  21028972.53808
 -13626050.65408 -10617689.10108  23081112.80308  23081115.08008
 93 06 20 03 15 30.0000000  0  8 23 22 31 17 26 21 28 03
 -22255852.40208 -17342208.86908  21121008.99908  21121009.50408
 -10296587.34908  -8023310.78008  23298577.45208  23298578.85908
  -6931006.18408  -5400779.91808  23666358.98608  23666360.01408
 -22848082.49908 -17803683.11308  21037493.10608  21037493.83608
  -1316532.60508  -1025869.40108  23084911.85808  23084912.62608
 -14432693.85108 -11246243.59608  22829297.61108  22829299.24908
 -21242983.58508 -16552964.74808  21018472.23408  21018472.33608
 -13516770.89208 -10532536.10508  23101907.96108  23101910.33708
 93 06 20 03 16 00.0000000  0  8 23 22 31 17 26 21 28 03
 -22301024.51208 -17377407.90408  21112413.04308  21112413.53408
 -10203200.33708  -7950541.74808  23316348.43308  23316349.86408
  -7034240.05608  -5481221.85208  23646714.16208  23646715.22208
 -22780769.85408 -17751231.71508  21050302.29908  21050302.94408
  -1325289.78108  -1032693.16708  23083245.33408  23083246.12308
 -14536118.99308 -11326834.56308  22809616.50708  22809618.11508
 -21297683.97108 -16595588.41508  21008062.91808  21008062.98608
 -13407232.78408 -10447181.78908  23122752.42408  23122754.77208
 93 06 20 03 16 30.0000000  0  8 23 22 31 17 26 21 28 03
 -22345650.08508 -17412181.07008  21103920.98208  21103921.49008
 -10109506.66108  -7877533.75608  23334177.82308  23334179.25608
  -7137236.05708  -5561478.43508  23627114.63708  23627115.79608
 -22713017.08108 -17698437.36208  21063195.25408  21063195.95408
  -1333403.58308  -1039015.60508  23081701.34108  23081702.23708
 -14639266.70108 -11407209.35008  22789988.08108  22789989.66208
 -21351873.36608 -16637813.91008  20997751.02808  20997751.07608
 -13297415.53008 -10361609.95408  23143649.87508  23143652.29808
 93 06 20 03 17 00.0000000  0  8 23 17 22 31 26 21 03 28
 -22389759.04408 -17446551.68008  21095527.35808  21095527.90008
 -22644862.87408 -17645330.20508  21076164.56608  21076165.29608
 -10015543.13008  -7804315.47908  23352058.50108  23352059.99708
  -7240018.85808  -5641568.87808  23607555.66008  23607556.76608
  -1340892.67708  -1044851.25308  23080276.09508  23080277.08408
 -14742146.72308 -11487375.55308  22770410.70208  22770412.21608
 -13187348.34908 -10275843.37208  23164594.95408  23164597.45508
 -21405576.58408 -16679660.56608  20987531.47208  20987531.52908
 93 06 20 03 17 30.0000000  0  8 23 17 22 31 26 21 03 28
 -22433312.76108 -17480489.63108  21087239.38008  21087239.84908
 -22576296.87308 -17591902.16908  21089212.23608  21089212.93708
  -9921295.44408  -7730875.79008  23369993.33308  23369994.83308
  -7342565.52008  -5721475.32008  23588041.54608  23588042.74508
  -1347737.08408  -1050184.54608  23078973.65808  23078974.46008
 -14844735.41708 -11567314.73208  22750888.60208  22750890.09208
 -13077011.57208 -10189866.71008  23185591.38308  23185593.83408
 -21458770.44608 -16721110.31908  20977409.26308  20977409.26108
 93 06 20 03 18 00.0000000  0  8 23 17 22 31 26 21 03 28
 -22476348.57708 -17514024.02408  21079049.94608  21079050.39108
 -22507383.52608 -17538203.47508  21102326.05308  21102326.76408
  -9826821.81008  -7657260.03708  23387971.00508  23387972.51608
  -7444931.55608  -5801241.02008  23568561.88908  23568563.12408
  -1354009.49708  -1055072.13508  23077780.19308  23077780.88808
 -14947085.19908 -11647067.74608  22731412.14008  22731413.56608
 -12966465.51708 -10103726.97608  23206627.63308  23206630.08108
 -21511488.01008 -16762188.93208  20967377.37508  20967377.38008
 93 06 20 03 18 30.0000000  0  8 23 17 22 31 26 21 03 28
 -22518893.34308 -17547175.78308  21070953.96208  21070954.38908
 -22438160.31808 -17484263.33308  21115498.79208  21115499.53108
  -9732146.26608  -7583486.94908  23405987.27708  23405988.75808
  -7547142.66208  -5880885.98408  23549111.76908  23549112.94908
  -1359750.14508  -1059545.36408  23076687.75808  23076688.38508
 -15049215.11208 -11726649.43108  22711977.38308  22711978.78608
 -12855739.54308 -10017447.05308  23227698.16408  23227700.55808
 -21563749.03308 -16802911.79808  20957432.47308  20957432.47508
 93 06 20 03 19 00.0000000  0  8 23 17 22 31 26 21 03 28
 -22560878.33408 -17579891.35208  21062964.47408  21062964.90908
 -22368556.26608 -17430026.42608  21128743.96408  21128744.73808
  -9637174.86808  -7509483.32608  23424059.72008  23424061.17408
  -7649120.09208  -5960348.86708  23529706.06008  23529707.24208
  -1364899.62908  -1063557.93808  23075707.83808  23075708.41108
 -15151046.05008 -11805998.14508  22692599.47808  22692600.90108
 -12744758.25708  -9930968.18608  23248817.40108  23248819.78508
 -21615475.16908 -16843217.87308  20947589.33008  20947589.33308
 93 06 20 03 19 30.0000000  0  8 23 17 22 31 26 21 03 28
 -22602331.74508 -17612192.70408  21055076.07608  21055076.52508
 -22298563.21708 -17375486.40708  21142063.18908  21142063.96608
  -9541898.75408  -7435242.26308  23442190.24808  23442191.73908
  -7750865.65908  -6039631.08108  23510344.41308  23510345.65008
  -1369474.34108  -1067122.64108  23074837.47108  23074837.99108
 -15252577.80108 -11885113.72708  22673278.64308  22673280.02908
 -12633528.08708  -9844295.38908  23269983.96908  23269986.22808
 -21666665.74508 -16883106.62708  20937848.00008  20937848.03708
 93 06 20 03 20 00.0000000  0  8 23 17 22 31 26 21 03 28
 -22643289.59808 -17644107.90808  21047282.12308  21047282.54608
 -22228202.52808 -17320659.91208  21155452.43608  21155453.20908
  -9446348.48708  -7360787.57708  23460372.86008  23460374.42008
  -7852402.83808  -6118750.91308  23491022.60408  23491023.64608
  -1373500.42408  -1070259.83808  23074071.08808  23074071.67208
 -15353832.40108 -11964013.35208  22654010.45508  22654011.88308
 -12522076.72908  -9757450.24208  23291192.54708  23291194.80508
 -21717362.27008 -16922610.40308  20928200.92908  20928200.93308
 93 06 20 03 20 30.0000000  0  8 23 17 22 31 26 21 03 28
 -22683742.75708 -17675629.84308  21039584.10808  21039584.56908
 -22157454.56808 -17265531.64708  21168915.32408  21168916.06008
  -9350514.90108  -7286112.11608  23478609.40708  23478610.98108
  -7953714.57008  -6197695.07508  23471743.54708  23471744.72108
  -1376951.92508  -1072949.30908  23073414.35508  23073414.96608
 -15454792.50408 -12042683.49708  22634798.26808  22634799.72508
 -12410390.49908  -9670422.06708  23312445.84408  23312448.10508
 -21767569.17208 -16961732.65608  20918646.93508  20918646.89708
 93 06 20 03 21 00.0000000  0  8 23 17 22 31 26 21 03 28
 -22723693.37408 -17706760.18708  21031981.70808  21031982.17608
 -22086305.93008 -17210091.16608  21182454.47508  21182455.22408
  -9254402.37908  -7211219.30008  23496899.03508  23496900.64708
  -8054799.47908  -6276462.49408  23452507.66708  23452508.71708
  -1379829.44608  -1075191.52408  23072866.79708  23072867.41608
 -15555469.75808 -12121133.24308  22615640.03908  22615641.44808
 -12298472.21708  -9583213.08208  23333743.28908  23333745.58808
 -21817283.38808 -17000470.99908  20909186.51608  20909186.42208
 93 06 20 03 21 30.0000000  0  8 23 17 22 31 26 21 03 28
 -22763115.86608 -17737479.00708  21024479.94108  21024480.39708
 -22014751.09108 -17154334.16608  21196070.91808  21196071.70208
  -9158013.70108  -7136111.30308  23515241.22808  23515242.89208
  -8155644.71208  -6355043.15508  23433317.45908  23433318.58508
  -1382103.29908  -1076963.34708  23072434.02908  23072434.67308
 -15655864.97608 -12199363.21908  22596535.42408  22596536.80808
 -12186312.85608  -9495816.24408  23355086.53508  23355088.76708
 -21866496.48408 -17038818.86208  20899821.47008  20899821.34208
 93 06 20 03 22 00.0000000  0  8 23 17 22 31 26 21 03 28
 -22802000.05908 -17767778.37408  21017080.47508  21017080.92708
 -21942815.15408 -17098280.20608  21209759.84008  21209760.60508
  -9061373.98108  -7060807.69008  23533631.23008  23533632.82608
  -8256261.39308  -6433445.71908  23414170.71908  23414171.74408
  -1383781.43208  -1078270.97208  23072114.60608  23072115.22408
 -15756001.37908 -12277391.52708  22577480.02308  22577481.41208
 -12073928.01908  -9408243.71108  23376472.65308  23376475.00008
 -21915224.05608 -17076788.39508  20890548.75308  20890548.64908
 93 06 20 03 22 30.0000000  0  8 23 17 22 31 26 21 03 28
 -22840358.05808 -17797667.71708  21009781.14708  21009781.64208
 -21870503.06008 -17041933.13408  21223520.38608  21223521.20008
  -8964475.98208  -6985302.81908  23552070.37108  23552072.04108
  -8356651.53608  -6511671.76108  23395066.96608  23395068.12108
  -1384864.10708  -1079114.61008  23071908.74408  23071909.33108
 -15855886.82908 -12355224.28708  22558472.35308  22558473.82408
 -11961323.76408  -9320500.20608  23397900.63108  23397902.95008
 -21963444.25108 -17114362.56708  20881372.97508  20881372.89008
 93 06 20 03 23 00.0000000  0  8 23 17 22 31 26 21 03 28
 -22878189.18008 -17827146.50608  21002582.13908  21002582.68508
 -21797823.81308 -16985299.97308  21237350.79808  21237351.60208
  -8867327.03308  -6909602.40708  23570557.25408  23570558.91408
  -8456817.72508  -6589723.29208  23376006.04308  23376007.08708
  -1385360.47708  -1079501.38708  23071814.36508  23071814.82608
 -15955524.80008 -12432864.20908  22539511.87908  22539513.29308
 -11848506.58808  -9232590.79508  23419369.15208  23419371.44708
 -22011145.32108 -17151532.22408  20872295.68908  20872295.58808
 93 06 20 03 23 30.0000000  0  8 23 17 22 31 26 21 03 28
 -22915485.84608 -17856208.83308  20995484.78108  20995485.30508
 -21724789.50908 -16928390.14608  21251248.79508  21251249.62608
  -8769932.53208  -6833710.65408  23589090.97608  23589092.54808
  -8556749.19008  -6667591.92008  23356989.64808  23356990.74408
  -1385262.86508  -1079425.32308  23071833.02408  23071833.45308
 -16054897.28708 -12510297.26408  22520601.82208  22520603.23108
 -11735469.30508  -9144509.85308  23440879.39008  23440881.76808
 -22058317.86408 -17188290.04408  20863319.09808  20863318.98008
 93 06 20 03 24 00.0000000  0  8 17 22 31 26 21 03 23 28
 -21651387.38508 -16871193.71008  21265216.77108  21265217.61508
  -8672277.00408  -6757615.50108  23607674.14808  23607675.84508
  -8656425.20708  -6745261.50208  23338021.94108  23338022.94908
  -1384567.08808  -1078883.15208  23071965.30608  23071965.91608
 -16153974.84508 -12587500.49508  22501748.03208  22501749.44108
 -11622195.78008  -9056244.83108  23462434.74308  23462437.07808
 -22952239.13708 -17884847.75008  20988490.83208  20988491.37408
 -22104935.02508 -17224615.09708  20854448.14308  20854448.03708
 93 06 20 03 24 30.0000000  0  8 17 22 31 26 21 03 23 28
 -21577672.92208 -16813753.88708  21279244.24708  21279245.04008
  -8574411.39008  -6681356.64708  23626297.44408  23626299.04208
  -8755895.95008  -6822771.12308  23319093.21908  23319094.21308
  -1383318.85008  -1077910.49208  23072202.81308  23072203.34208
 -16252789.75908 -12664499.06908  22482944.08808  22482945.39308
 -11508740.13908  -8967837.89408  23484024.66808  23484026.96808
 -22988510.51008 -17913111.14708  20981588.66408  20981589.19108
 -22151047.69508 -17260547.04108  20845673.13008  20845673.08508
 93 06 20 03 25 00.0000000  0  8 17 22 31 26 21 03 23 28
 -21503617.72308 -16756048.55808  21293336.53608  21293337.24308
  -8476319.26708  -6604921.29508  23644963.73008  23644965.44508
  -8855128.39708  -6900095.06308  23300209.90208  23300210.81308
  -1381488.54208  -1076484.27308  23072551.08208  23072551.58708
 -16351288.79308 -12741251.50108  22464200.30508  22464201.64208
 -11395073.06408  -8879266.21408  23505654.85708  23505657.19508
 -23024258.45808 -17940966.68108  20974786.00908  20974786.57008
 -22196640.32708 -17296073.76008  20836997.27108  20836997.22408
 93 06 20 03 25 30.0000000  0  8 17 22 31 26 21 03 23 28
 -21429184.31408 -16698048.51908  21307500.80808  21307501.46208
  -8377971.23908  -6528286.53308  23663678.73708  23663680.42808
  -8954090.17808  -6977208.09908  23281378.06708  23281379.00308
  -1379035.74908  -1074573.00108  23073017.83308  23073018.13508
 -16449431.91708 -12817726.60708  22445524.27308  22445525.52808
 -11281166.28408  -8790507.75008  23527330.62808  23527333.02108
 -23059462.77608 -17968398.60808  20968086.87008  20968087.41908
 -22241685.17708 -17331173.63808  20828425.37408  20828425.32408
 93 06 20 03 26 00.0000000  0  8 17 22 31 26 21 03 23 28
 -21354347.19908 -16639733.90308  21321741.89808  21321742.49808
  -8279350.22408  -6451439.06408  23682445.65808  23682447.50508
  -9052771.83008  -7054102.85508  23262599.53608  23262600.38308
  -1375949.35508  -1072168.01608  23073605.20408  23073605.50908
 -16547204.73008 -12893913.16608  22426918.67008  22426919.89908
 -11167014.95708  -8701558.72408  23549052.90908  23549055.34308
 -23094108.92408 -17995395.59708  20961493.83708  20961494.39308
 -22286168.74908 -17365836.15508  20819960.32608  20819960.27808
 93 06 20 03 26 30.0000000  0  8 17 21 22 31 26 03 23 28
 -21279158.04508 -16581144.97408  21336049.93408  21336050.52408
 -16644678.01808 -12969866.31908  22408370.03408  22408371.28008
  -8180524.69908  -6374432.23608  23701251.67908  23701253.41008
  -9151236.37308  -7130828.42908  23243862.30908  23243863.24808
  -1372288.45508  -1069315.35708  23074301.74908  23074302.11408
 -11052685.35408  -8612470.78008  23570809.07508  23570811.61708
 -23128254.33808 -18022002.40408  20954996.25008  20954996.72308
 -22330156.49208 -17400112.31408  20811589.71808  20811589.66608
 93 06 20 03 27 00.0000000  0  8 17 21 22 31 26 03 23 28
 -21203618.14708 -16522282.73608  21350424.64208  21350425.27608
 -16741884.07508 -13045611.23908  22389872.25308  22389873.54508
  -8081512.49608  -6297279.94208  23720093.15308  23720094.96408
  -9249488.35208  -7207388.36908  23225165.53008  23225166.46108
  -1368061.94608  -1066021.96308  23075106.13808  23075106.54608
 -10938186.40508  -8523250.89208  23592597.49708  23592600.08208
 -23161896.06908 -18048216.73308  20948594.44908  20948594.89408
 -22373649.69708 -17434003.11708  20803313.37008  20803313.29508
 93 06 20 03 27 30.0000000  0  8 17 21 22 31 26 03 23 28
 -21127695.02508 -16463121.88108  21364872.35708  21364873.04008
 -16838804.52708 -13121133.63408  22371428.83608  22371430.11008
  -7982268.68908  -6219947.17808  23738978.64908  23738980.44908
  -9347485.16508  -7283749.48308  23206517.21808  23206518.22708
  -1363237.09108  -1062262.32908  23076024.23608  23076024.70808
 -10823479.80608  -8433869.19208  23614425.42008  23614428.11908
 -23194996.82108 -18074009.52008  20942295.57108  20942295.99408
 -22416602.26108 -17467472.64008  20795139.82308  20795139.72308
 93 06 20 03 28 00.0000000  0  8 17 21 22 31 26 03 23 28
 -21051403.85508 -16403674.23808  21379390.12608  21379390.78808
 -16935454.92108 -13196445.59508  22353036.86708  22353038.10408
  -7882803.22208  -6142441.69108  23757906.30208  23757908.18508
  -9445228.50808  -7359913.08808  23187917.31508  23187918.26708
  -1357836.60208  -1058054.15408  23077052.02908  23077052.50308
 -10708571.49308  -8344330.30608  23636291.81408  23636294.38708
 -23227558.89308 -18099382.55708  20936099.23408  20936099.62608
 -22459024.45008 -17500528.88508  20787066.96308  20787066.82108
 93 06 20 03 28 30.0000000  0  8 17 21 22 31 26 03 23 28
 -20974745.09308 -16343940.15908  21393977.81908  21393978.50608
 -17031819.95808 -13271535.21108  22334699.16208  22334700.44408
  -7783113.65808  -6064761.58508  23776876.59608  23776878.50208
  -9542701.10008  -7435865.71708  23169368.80608  23169369.86708
  -1351847.17308  -1053387.06608  23078191.73208  23078192.13008
 -10593447.74408  -8254623.54808  23658199.14208  23658201.78208
 -23259572.56408 -18124328.27008  20930007.14508  20930007.59808
 -22500918.50908 -17533173.60008  20779094.98208  20779094.82108
 93 06 20 03 29 00.0000000  0  8 17 21 22 31 26 03 23 28
 -20897725.21708 -16283924.69108  21408634.19908  21408634.93008
 -17127886.82808 -13346392.47908  22316418.23308  22316419.44608
  -7683205.04008  -5986910.79108  23795888.69908  23795890.58608
  -9639897.75508  -7511603.33208  23150872.82208  23150873.87508
  -1345263.22308  -1048256.71508  23079444.58408  23079444.96208
 -10478107.80908  -8164748.33308  23680147.61808  23680150.25908
 -23291047.59108 -18148854.26108  20924017.66508  20924018.14108
 -22542293.65108 -17565413.96308  20771221.54308  20771221.40508
 93 06 20 03 29 30.0000000  0  8 17 21 22 31 26 03 23 28
 -20820362.90508 -16223642.39208  21423355.73508  21423356.44408
 -17223644.54608 -13421008.85208  22298196.06708  22298197.27908
  -7583087.62608  -5908897.30508  23814940.43808  23814942.35108
  -9736827.62808  -7587133.06708  23132427.64208  23132428.69208
  -1338096.25608  -1042672.06708  23080808.42008  23080808.85608
 -10362564.74708  -8074714.84608  23702134.81308  23702137.36508
 -23322009.11008 -18172980.11308  20918125.90008  20918126.41508
 -22583159.19308 -17597257.23808  20763444.88308  20763444.77608
 93 06 20 03 30 00.0000000  0  8 17 21 22 31 26 03 23 28
 -20742645.99808 -16163083.78508  21438144.83908  21438145.57408
 -17319053.35108 -13495353.34408  22280040.33908  22280041.58008
  -7482761.61008  -5830721.26108  23834031.82208  23834033.74908
  -9833468.87608  -7662437.90108  23114037.37908  23114038.53808
  -1330313.99108  -1036607.96208  23082289.35708  23082289.87508
 -10246800.90408  -7984509.32208  23724163.98708  23724166.58508
 -23352436.37808 -18196689.66608  20912335.81808  20912336.33408
 -22623488.34008 -17628682.54008  20755770.58208  20755770.52308
 93 06 20 03 30 30.0000000  0  8 17 21 22 31 26 03 23 28
 -20664599.40908 -16102268.28308  21452996.59008  21452997.30408
 -17414122.13108 -13569432.86708  22261949.24308  22261950.52408
  -7382250.71208  -5752401.15608  23853158.43208  23853160.45608
  -9929835.01208  -7737528.36508  23095699.50808  23095700.51908
  -1321911.07808  -1030060.23708  23083888.21808  23083888.83208
 -10130834.04508  -7894145.59908  23746231.82408  23746234.40608
 -23382340.82108 -18219991.82508  20906645.12308  20906645.69408
 -22663284.70808 -17659692.69108  20748197.57708  20748197.55508
 93 06 20 03 31 00.0000000  0  8 17 21 22 31 26 03 23 28
 -20586223.51908 -16041196.18508  21467911.12108  21467911.78908
 -17508845.94408 -13643243.58608  22243923.91808  22243925.19408
  -7281551.79108  -5673934.54508  23872320.89808  23872322.90808
 -10025917.26408  -7812397.62408  23077415.59508  23077416.64108
  -1312881.94008  -1023024.54408  23085606.24008  23085606.98708
 -10014659.15908  -7803619.77608  23768339.17108  23768341.83408
 -23411713.24408 -18242879.42408  20901055.78208  20901056.33708
 -22702513.03108 -17690260.21008  20740732.50108  20740732.44608
 93 06 20 03 31 30.0000000  0  8 17 22 31 26 21 03 23 28
 -20507542.68808 -15979886.47008  21482883.55108  21482884.35008
  -7180659.92008  -5595317.58508  23891520.09208  23891522.10208
 -10121722.24808  -7887050.82408  23059184.55508  23059185.54608
  -1303242.58408  -1015513.34908  23087440.70808  23087441.36008
 -17603236.98608 -13716794.98908  22225961.86908  22225963.13808
  -9898287.52008  -7712940.64608  23790484.07408  23790486.79108
 -23440543.78508 -18265344.77608  20895569.54108  20895570.03808
 -22741166.97108 -17720380.15808  20733376.96108  20733376.92708
 93 06 20 03 32 00.0000000  0  8 17 22 31 26 21 03 23 28
 -20428579.54208 -15918356.76708  21497909.72008  21497910.55608
  -7079591.77708  -5516563.26808  23910752.78308  23910754.79408
 -10217268.65208  -7961502.53708  23041002.67308  23041003.63508
  -1293023.67808  -1007550.56408  23089385.22208  23089385.90508
 -17697335.18808 -13790118.21808  22208055.53408  22208056.81508
  -9781741.44608  -7622125.59408  23812662.01908  23812664.84308
 -23468837.42408 -18287391.76208  20890185.39308  20890185.91608
 -22779266.64708 -17750068.21108  20726126.90808  20726126.79608
 93 06 20 03 32 30.0000000  0  8 17 22 31 26 21 03 23 28
 -20349302.82208 -15856582.72208  21512995.63708  21512996.40408
  -6978301.42608  -5437635.79708  23930027.78208  23930029.83508
 -10312536.16808  -8035736.93108  23022873.87208  23022874.71708
  -1282217.82308   -999130.41608  23091441.69508  23091442.23308
 -17791139.88208 -13863212.73608  22190205.07108  22190206.33308
  -9665005.08008  -7531162.26108  23834876.26108  23834879.23208
 -23496563.32108 -18308996.35408  20884909.34108  20884909.83208
 -22816804.73308 -17779318.66208  20718983.62308  20718983.46308
 93 06 20 03 33 00.0000000  0  8 17 22 31 26 21 03 23 28
 -20269703.03708 -15794556.93808  21528142.99108  21528143.84308
  -6876773.02408  -5358522.83708  23949348.07108  23949350.04108
 -10407529.14808  -8109757.39608  23004797.25108  23004798.11108
  -1270852.19108   -990274.07608  23093604.51608  23093605.00508
 -17884649.44708 -13936077.29108  22172410.72708  22172412.00308
  -9548087.01208  -7440057.33708  23857125.14308  23857128.05508
 -23523720.92208 -18330158.11808  20879741.41408  20879741.91608
 -22853792.90508 -17808140.60908  20711945.02408  20711944.88708
 93 06 20 03 33 30.0000000  0  8 17 22 31 26 21 03 23 28
 -20189743.12408 -15732250.53308  21543358.86708  21543359.69508
  -6774977.94208  -5279202.07408  23968719.18008  23968721.11608
 -10502225.72608  -8183546.90408  22986777.15308  22986777.91308
  -1258909.03908   -980967.72208  23095877.03208  23095877.51008
 -17977833.39808 -14008688.11908  22154678.46408  22154679.69608
  -9430968.93208  -7348796.56508  23879411.90208  23879415.01708
 -23550282.19008 -18350855.20508  20874686.95308  20874687.51008
 -22890218.22108 -17836523.96508  20705013.64608  20705013.52908
 93 06 20 03 34 00.0000000  0  8 17 22 31 26 21 03 23 28
 -20109436.22308 -15669673.74208  21558640.76708  21558641.61208
  -6672961.84308  -5199709.09608  23988132.29908  23988134.26208
 -10596651.74808  -8257125.59008  22968808.43508  22968809.20108
  -1246419.91708   -971235.93308  23098253.50108  23098254.04508
 -18070706.55608 -14081056.75608  22137005.22908  22137006.48608
  -9313681.12508  -7257403.54008  23901731.08408  23901734.18708
 -23576284.22408 -18371116.52508  20869738.82108  20869739.40308
 -22926113.24008 -17864494.10508  20698183.00108  20698182.89108
 93 06 20 03 34 30.0000000  0  8 17 22 31 26 21 03 23 28
 -20028789.93708 -15606832.50208  21573987.25708  21573988.12308
  -6570754.98708  -5120067.47008  24007581.73108  24007583.58108
 -10690822.44508  -8330505.31808  22950888.33908  22950889.01908
  -1233398.70708   -961089.52808  23100731.48208  23100731.96408
 -18163250.72308 -14153169.04608  22119394.61408  22119395.83208
  -9196242.65008  -7165893.11908  23924078.93208  23924082.08208
 -23601752.95408 -18390962.28508  20864892.23708  20864892.81308
 -22961487.17708 -17892058.20608  20691451.63208  20691451.54508
 93 06 20 03 35 00.0000000  0  8 17 22 31 26 21 03 23 28
 -19947783.38208 -15543710.53208  21589402.32808  21589403.19608
  -6468360.97508  -5040279.99908  24027066.75808  24027068.60308
 -10784704.61408  -8403660.22208  22933023.12008  22933023.89508
  -1219815.87108   -950505.49808  23103316.29508  23103316.79608
 -18255414.91008 -14224985.25708  22101856.37608  22101857.56008
  -9078624.99908  -7074243.07608  23946460.87408  23946464.06408
 -23626676.14608 -18410382.95008  20860149.57308  20860150.11608
 -22996293.85408 -17919180.28808  20684828.07308  20684827.99208
 93 06 20 03 35 30.0000000  0  8 17 22 31 26 21 03 23 28
 -19866438.89808 -15480325.24208  21604881.68808  21604882.58708
  -6365824.58308  -4960381.57608  24046578.83708  24046580.57908
 -10878299.51708  -8476591.28408  22915212.62408  22915213.32008
  -1205661.72608   -939476.29208  23106009.70808  23106010.25308
 -18347206.51208 -14296511.14208  22084388.99908  22084390.16908
  -8960832.79608  -6982457.01808  23968876.09708  23968879.22608
 -23651067.93508 -18429389.53208  20855507.91108  20855508.51108
 -23030539.93008 -17945865.53708  20678311.11508  20678311.01408
 93 06 20 03 36 00.0000000  0  8 22 31 17 26 21 03 23 28
  -6263181.47808  -4880400.00808  24066111.22108  24066113.06808
 -10971623.42308  -8549311.18008  22897453.73108  22897454.28108
 -19784781.86808 -15416696.41108  21620420.42708  21620421.35708
  -1190944.81808   -928008.57408  23108810.15308  23108810.77808
 -18438648.01208 -14367764.21708  22066988.28808  22066989.40008
  -8842886.67108  -6890551.01508  23991320.62008  23991323.62308
 -23674959.89408 -18448006.63908  20850961.45908  20850961.97208
 -23064254.33208 -17972136.49408  20671895.58808  20671895.48608
 93 06 20 03 36 30.0000000  0  8 31 22 17 26 21 03 23 28
 -11064643.45308  -8621794.28808  22879752.60008  22879753.16408
  -6160409.10008  -4800317.73308  24085668.29208  24085670.11308
 -19702783.27808 -15352801.43008  21636024.27808  21636025.15908
  -1175623.62608   -916069.98508  23111725.79608  23111726.46408
 -18529728.35208 -14438735.85008  22049656.22308  22049657.30208
  -8724759.25808  -6798503.75108  24013799.59208  24013802.52108
 -23698329.40008 -18466216.63808  20846514.44008  20846514.93908
 -23097402.20208 -17997965.99908  20665587.82408  20665587.72708
 93 06 20 03 37 00.0000000  0  8 31 22 17 26 21 03 23 28
 -11157358.87408  -8694040.03608  22862109.40808  22862109.92808
  -6057509.52108  -4720136.34108  24105249.39508  24105251.30608
 -19620457.04608 -15288651.14408  21651690.38208  21651691.35508
  -1159684.87708   -903650.18808  23114758.99108  23114759.56708
 -18620476.18808 -14509448.41208  22032387.50908  22032388.55408
  -8606452.42808  -6706316.68008  24036312.64908  24036315.71708
 -23721176.23708 -18484019.36708  20842166.77608  20842167.30608
 -23129998.14108 -18023365.42608  20659385.02508  20659384.97708
 93 06 20 03 37 30.0000000  0  8 31 22 17 26 21 03 23 28
 -11249741.16208  -8766026.20208  22844529.60808  22844530.04808
  -5954442.49708  -4639824.46808  24124862.44908  24124864.47208
 -19537773.46808 -15224222.40608  21667424.50708  21667425.54908
  -1143094.14308   -890722.34608  23117916.10608  23117916.55008
 -18710874.13408 -14579888.32508  22015185.36408  22015186.31308
  -8487942.22308  -6613971.14008  24058864.54608  24058867.60208
 -23743462.04708 -18501384.92808  20837925.97808  20837926.50708
 -23162020.76908 -18048318.11708  20653291.26308  20653291.22308
 93 06 20 03 38 00.0000000  0  8 31 22 17 26 21 03 23 28
 -11341823.38108  -8837778.55208  22827006.90708  22827007.43008
  -5851221.14208  -4559392.33608  24144504.81608  24144506.83408
 -19454754.83608 -15159532.59208  21683222.46708  21683223.50308
  -1125900.76908   -877324.92008  23121187.74308  23121188.24708
 -18800962.29908 -14650086.83808  21998042.14308  21998043.04508
  -8369266.07008  -6521496.28608  24081447.98108  24081450.88708
 -23765208.74808 -18518330.40908  20833787.75408  20833788.27708
 -23193489.86008 -18072839.48108  20647302.91808  20647302.83608
 93 06 20 03 38 30.0000000  0  8 31 22 17 26 21 03 23 28
 -11433614.44008  -8909304.02308  22809539.67408  22809540.14008
  -5747846.67008  -4478840.88808  24164176.41708  24164178.42708
 -19371421.87408 -15094597.84508  21699080.24208  21699081.24308
  -1108126.75008   -863475.04408  23124570.06908  23124570.64108
 -18890754.73308 -14720054.90808  21980955.12208  21980956.01708
  -8250436.44008  -6428901.83607  24104060.51108  24104063.49907
 -23786417.65908 -18534856.82708  20829751.82308  20829752.35208
 -23224405.91308 -18096929.90708  20641419.80608  20641419.70808
 93 06 20 03 39 00.0000000  0  8 31 22 17 26 21 03 23 28
 -11525087.04208  -8980581.33708  22792132.98808  22792133.38608
  -5644285.95108  -4398144.31108  24183883.32708  24183885.40908
 -19287768.14808 -15029413.15208  21714998.99508  21715000.03608
  -1089767.89208   -849169.44908  23128063.62808  23128064.17708
 -18980213.92108 -14789763.32308  21963931.57408  21963932.37908
  -8131430.62808  -6336170.10507  24126706.57508  24126709.65207
 -23807045.43508 -18550930.41308  20825826.43408  20825827.03308
 -23254750.07009 -18120574.69908  20635645.51609  20635645.43508
 93 06 20 03 39 30.0000000  0  8 31 22 17 26 21 03 23 28
 -11616234.94508  -9051605.64608  22774788.11708  22774788.43508
  -5540526.79208  -4317293.10308  24203628.17008  24203630.16708
 -19203782.46808 -14963969.78908  21730980.97508  21730982.06208
  -1070843.25508   -834422.98608  23131664.69708  23131665.27808
 -19069313.26708 -14859191.33908  21946976.49508  21946977.31008
  -8012246.61708  -6243299.52107  24149386.63008  24149389.58507
 -23827085.46608 -18566546.01608  20822012.94408  20822013.57708
 -23284501.18109 -18143757.37808  20629983.96909  20629983.87708
 93 06 20 03 40 00.0000000  0  8 31 22 17 26 21 03 23 28
 -11707061.39408  -9122379.47408  22757504.35208  22757504.75708
  -5436579.09808  -4236294.98508  24223408.84508  24223410.90208
 -19119473.79508 -14898274.74308  21747024.46308  21747025.53308
  -1051366.13908   -819246.01808  23135371.08108  23135371.65408
 -19158063.22808 -14928347.10808  21930087.87208  21930088.70408
  -7892891.57508  -6150295.65807  24172099.09508  24172102.11207
 -23846554.56208 -18581716.73308  20818308.07608  20818308.67808
 -23313667.99309 -18166484.76008  20624433.78309  20624433.66608
 93 06 20 03 40 30.0000000  0  8 31 22 17 26 21 03 23 28
 -11797588.90608  -9192920.36208  22740277.51208  22740277.86808
  -5332473.80908  -4155174.06408  24243219.42908  24243221.63308
 -19034890.57208 -14832365.76108  21763120.22708  21763121.27708
  -1031353.47808   -803651.74008  23139179.52408  23139180.10508
 -19246469.43108 -14997235.00908  21913264.74408  21913265.54008
  -7773392.51608  -6057179.58007  24194839.15908  24194842.11207
 -23865491.28508 -18596472.61408  20814704.50708  20814705.13008
 -23342285.57009 -18188784.16608  20618987.90909  20618987.81208
 93 06 20 03 41 00.0000000  0  8 31 22 17 26 21 03 23 28
 -11887800.11808  -9263214.78508  22723110.81008  22723111.29008
  -5228201.64808  -4073923.11208  24263061.68508  24263064.04908
 -18950015.80308 -14766229.60008  21779271.28108  21779272.31208
  -1010788.52708   -787627.10508  23143092.82108  23143093.54908
 -19334495.70708 -15065826.87108  21896513.79708  21896514.60608
  -7653735.58508  -5963940.48807  24217609.20008  24217612.20707
 -23883883.80708 -18610804.44408  20811204.51708  20811205.15308
 -23370331.18309 -18210637.88508  20613650.99509  20613650.91808
 93 06 20 03 41 30.0000000  0  8 31 22 17 26 21 03 23 28
 -11977694.49408  -9333262.32008  22706004.54808  22706004.93408
  -5123772.08408  -3992549.51108  24282934.07308  24282936.50708
 -18864841.30308 -14699859.88408  21795479.51608  21795480.51208
   -989651.77508   -771156.91108  23147114.94108  23147115.57608
 -19422139.12908 -15134120.40108  21879835.76908  21879836.59808
  -7533925.18808  -5870581.80407  24240408.41108  24240411.44007
 -23901751.14808 -18624727.04008  20807804.51708  20807805.08308
 -23397808.99608 -18232049.16408  20608422.11908  20608422.07608
 93 06 20 03 42 00.0000000  0  8 31 22 17 26 21 03 23 28
 -12067261.30108  -9403054.60408  22688960.48508  22688960.88708
  -5019185.51008  -3911053.57508  24302836.28608  24302838.81908
 -18779374.40508 -14633262.32408  21811743.43108  21811744.35808
   -967916.64508   -754220.44208  23151251.11108  23151251.81608
 -19509394.14108 -15202111.27308  21863231.68208  21863232.53708
  -7413954.05808  -5777097.87407  24263238.13808  24263241.36207
 -23919080.67908 -18638230.56708  20804506.81108  20804507.36208
 -23424727.54008 -18253024.64808  20603299.66708  20603299.63008
 93 06 20 03 42 30.0000000  0  8 31 22 17 26 21 03 23 28
 -12156496.99208  -9472588.88208  22671979.50308  22671979.89208
  -4914456.45908  -3829446.61908  24322765.63008  24322768.11108
 -18693617.83408 -14566439.04908  21828062.35808  21828063.24108
   -945581.44608   -736816.39608  23155501.41808  23155502.00708
 -19596233.40508 -15269778.18308  21846706.64508  21846707.52308
  -7293823.61208  -5683489.80107  24286098.26608  24286101.34307
 -23935865.70908 -18651309.80708  20801312.71208  20801313.25808
 -23451078.96508 -18273558.22308  20598285.24408  20598285.16008
 93 06 20 03 43 00.0000000  0  8 31 22 17 26 21 03 23 28
 -12245397.88808  -9541862.27708  22655062.16708  22655062.60708
  -4809594.81608  -3747736.32508  24342720.21408  24342722.72708
 -18607537.28808 -14499363.32908  21844442.96108  21844443.85708
   -922638.91208   -718939.09908  23159867.19008  23159867.80808
 -19682676.44608 -15337136.36308  21830257.09108  21830257.92708
  -7173534.03708  -5589757.74207  24308988.73908  24308991.75707
 -23952099.90408 -18663959.82408  20798223.43108  20798223.96608
 -23476858.59509 -18293646.24308  20593379.64609  20593379.54208
 93 06 20 03 43 30.0000000  0  8 31 22 17 26 21 03 23 28
 -12333960.59708  -9610872.14708  22638209.21208  22638209.59308
  -4704603.63408  -3665925.09208  24362699.48708  24362702.05608
 -18521127.04208 -14432030.69908  21860886.24308  21860887.09808
   -899089.18608   -700588.66208  23164348.52908  23164349.17908
 -19768738.93708 -15404197.99208  21813879.88708  21813880.71508
  -7053085.89708  -5495902.11307  24331909.25308  24331912.39407
 -23967773.14008 -18676172.73108  20795240.82908  20795241.31508
 -23502074.32309 -18313294.85808  20588581.14509  20588581.00508
 93 06 20 03 44 00.0000000  0  8 31 17 22 26 21 03 23 28
 -12422219.25108  -9679645.09608  22621414.16308  22621414.48508
 -18434434.66708 -14364478.22608  21877383.35408  21877384.27308
  -4599529.20008  -3584048.98108  24382694.46008  24382697.07808
   -874990.68908   -681810.61208  23168934.44908  23168935.15608
 -19854456.80708 -15470991.08008  21797568.31208  21797569.14508
  -6932517.67108  -5401952.91707  24354852.66008  24354855.63607
 -23982907.91408 -18687966.05608  20792360.85408  20792361.29908
 -23526736.84809 -18332512.40508  20583888.03709  20583887.92908
 93 06 20 03 44 30.0000000  0  8 31 17 22 26 21 03 23 28
 -12510173.56408  -9748180.89408  22604676.97008  22604677.30608
 -18347453.15008 -14296700.44708  21893935.42708  21893936.29908
  -4494376.84108  -3502112.15008  24402704.31108  24402707.03808
   -850356.08508   -662614.81808  23173622.15908  23173622.84808
 -19939841.79708 -15537524.80108  21781319.93808  21781320.81308
  -6811832.78708  -5307912.81907  24377818.27008  24377821.28507
 -23997507.60208 -18699342.43108  20789582.67608  20789583.06808
 -23550827.52508 -18351284.35608  20579303.81708  20579303.71408
 93 06 20 03 45 00.0000000  0  8 31 17 22 26 21 03 23 28
 -12597782.03908  -9816447.20808  22588005.64208  22588005.95308
 -18260151.84308 -14228673.47808  21910548.32308  21910549.16908
  -4389084.08808  -3420065.91908  24422740.91708  24422743.67208
   -825153.67908   -642976.58208  23178418.06708  23178418.74008
 -20024872.18308 -15603782.20908  21765139.15908  21765139.98808
  -6690994.21208  -5213752.96407  24400813.17408  24400816.14407
 -24011531.66608 -18710270.26708  20786914.01208  20786914.36708
 -23574303.88208 -18369577.61708  20574836.26808  20574836.20308
 93 06 20 03 45 30.0000000  0  8 31 17 22 26 21 03 23 28
 -12685025.47608  -9884429.07808  22571403.71408  22571404.08308
 -18172551.38308 -14160413.40108  21927218.20508  21927219.02808
  -4283637.51708  -3337899.83908  24442806.88008  24442809.56708
   -799376.78808   -622890.69408  23183323.28708  23183323.85408
 -20109499.34808 -15669725.38608  21749035.13108  21749035.96908
  -6569987.13908  -5119461.81107  24423840.01608  24423843.24107
 -24024962.28208 -18720735.67708  20784358.22408  20784358.55308
 -23597136.60308 -18387369.34308  20570491.40308  20570491.33108
 93 06 20 03 46 00.0000000  0  8 31 17 22 26 21 03 23 28
 -12771937.17608  -9952152.45208  22554864.90508  22554865.29408
 -18084691.85008 -14091951.45608  21943937.30208  21943938.11808
  -4178087.99908  -3255653.54908  24462892.28108  24462894.94908
   -773061.25508   -602385.08808  23188330.89908  23188331.50908
 -20193746.13708 -15735372.14208  21733003.43608  21733004.25608
  -6448848.83008  -5025068.38607  24446891.91308  24446894.92907
 -24037854.27608 -18730781.38408  20781905.01608  20781905.36508
 -23619360.15908 -18404686.39508  20566262.24208  20566262.13008
 93 06 20 03 46 30.0000000  0  8 31 17 22 26 21 03 23 28
 -12858525.38908 -10019623.75708  22538387.70408  22538388.05708
 -17996572.61108 -14023287.14608  21960705.84708  21960706.69208
  -4072444.33508  -3173333.89908  24482995.61208  24482998.42708
   -746205.66308   -581458.65608  23193441.31108  23193442.11908
 -20277624.95308 -15800732.17708  21717041.71808  21717042.58308
  -6327591.54008  -4930582.25907  24469966.44308  24469969.64307
 -24050234.15308 -18740428.03908  20779549.12708  20779549.51808
 -23641020.37008 -18421564.47608  20562140.52308  20562140.41008
 93 06 20 03 47 00.0000000  0  8 31 17 22 26 21 03 23 28
 -12944750.85708 -10086812.40508  22521979.49108  22521979.84008
 -17908158.35808 -13954392.94908  21977530.63008  21977531.44708
  -3966675.66808  -3090916.84708  24503122.69408  24503125.57608
   -718770.22308   -560080.39508  23198662.10808  23198662.82208
 -20361081.66008 -15865763.30808  21701160.36108  21701161.21608
  -6206180.56508  -4835976.37507  24493070.14808  24493073.44207
 -24062059.81808 -18749642.83908  20777298.75008  20777299.14108
 -23662099.80508 -18437990.00508  20558129.24008  20558129.10808
 93 06 20 03 47 30.0000000  0  8 31 17 26 22 21 03 23 28
 -13030629.13008 -10153730.51208  22505637.41708  22505637.80408
 -17819457.29708 -13885275.26908  21994409.91408  21994410.70208
   -690766.73308   -538259.48908  23203990.94008  23203991.63308
  -3860831.12508  -3008440.66408  24523264.24908  24523267.27308
 -20444134.41508 -15930479.69308  21685355.91708  21685356.77408
  -6084635.49708  -4741266.00407  24516199.49008  24516202.69207
 -24073355.01708 -18758444.29008  20775149.33708  20775149.74108
 -23682629.55508 -18453987.20708  20554222.55408  20554222.42808
 93 06 20 03 48 00.0000000  0  8 31 17 26 22 21 03 23 28
 -13116147.66708 -10220368.30808  22489363.72808  22489364.04208
 -17730440.74908 -13815911.75408  22011349.18108  22011350.01008
   -662177.63408   -515982.27408  23209431.46708  23209432.07708
  -3754885.06608  -2925885.38308  24543425.20208  24543428.19108
 -20526795.77908 -15994891.12008  21669625.96708  21669626.80408
  -5962947.67708  -4646444.39807  24539355.93608  24539359.25107
 -24084112.93308 -18766827.07808  20773102.16408  20773102.57308
 -23702609.09208 -18469555.67208  20550420.50008  20550420.39808
 93 06 20 03 48 30.0000000  0  8 31 17 26 22 21 03 23 28
 -13201302.10408 -10286722.38708  22473159.31308  22473159.67108
 -17641122.28108 -13746312.97408  22028345.91908  22028346.80008
   -632986.23708   -493235.73508  23214986.41508  23214986.84208
  -3648805.21208  -2843225.83908  24563611.48508  24563614.53508
 -20609072.73908 -16059003.03908  21653969.22708  21653970.06408
  -5841117.45508  -4551511.83307  24562539.41208  24562542.70907
 -24094325.85708 -18774785.19608  20771158.67708  20771159.09808
 -23722020.80108 -18484681.67308  20546726.68808  20546726.58908
 93 06 20 03 49 00.0000000  0  8 31 17 26 22 21 03 23 28
 -13286096.94508 -10352796.26008  22457023.39808  22457023.76308
 -17551513.91408 -13676488.29908  22045397.87408  22045398.72208
   -603196.97308   -470023.33008  23220655.14608  23220655.61708
  -3542596.63208  -2760465.99108  24583822.52408  24583825.45108
 -20690979.32508 -16122826.31408  21638382.88308  21638383.70008
  -5719152.85008  -4456474.53507  24585748.59708  24585751.88907
 -24103999.22208 -18782322.88008  20769317.92808  20769318.37908
 -23740831.93008 -18499339.69008  20543146.91208  20543146.80208
 93 06 20 03 49 30.0000000  0  8 31 17 26 22 21 03 23 28
 -13370517.97108 -10418578.85008  22440958.58208  22440958.89408
 -17461607.88408 -13606431.68108  22062506.47308  22062507.29508
   -572802.81308   -446339.57608  23226439.01908  23226439.48308
  -3436245.81108  -2677595.30508  24604060.43008  24604063.46508
 -20772514.42208 -16186360.14108  21622867.25608  21622868.06208
  -5597044.40008  -4361325.16107  24608985.11708  24608988.40007
 -24113135.21108 -18789441.82808  20767579.46708  20767579.89608
 -23759006.07508 -18513501.35608  20539688.61708  20539688.51908
 93 06 20 03 50 00.0000000  0  8 31 17 26 22 21 03 23 28
 -13455228.34308 -10484586.90408  22424838.69608  22424839.08408
 -17372081.87208 -13536671.18308  22079542.79308  22079543.59008
   -542468.67208   -422702.59108  23232211.21308  23232211.89108
  -3330406.86908  -2595123.48608  24624200.88808  24624203.94808
 -20854337.27608 -16250118.18208  21607296.83508  21607297.62008
  -5475459.40208  -4266583.67407  24632122.15408  24632125.25607
 -24122390.48708 -18796653.72608  20765818.18308  20765818.60008
 -23777196.63308 -18527675.81208  20536227.13608  20536227.04908
 93 06 20 03 50 30.0000000  0  8 31 17 26 21 22 03 23 28
 -13540786.53108 -10551255.59408  22408557.49808  22408557.80408
 -17283498.54208 -13467645.24708  22096399.66108  22096400.42308
   -512764.88508   -399556.77708  23237863.63808  23237864.40308
 -20937003.88608 -16314533.68308  21591565.90908  21591566.64808
  -3225667.55608  -2513508.52008  24644132.30908  24644135.33408
  -5354960.09508  -4172688.17507  24655052.42508  24655055.67007
 -24132311.04908 -18804384.03108  20763930.39608  20763930.86308
 -23795974.39008 -18542307.82708  20532653.71908  20532653.63708
 93 06 20 03 51 00.0000000  0  8 31 17 26 21 22 03 23 28
 -13624911.32508 -10616807.35408  22392549.02808  22392549.38908
 -17193570.99508 -13397571.86708  22113512.31308  22113513.08108
   -481439.35008   -375147.26408  23243824.57308  23243825.33508
 -21018220.94108 -16377819.63808  21576110.74308  21576111.41608
  -3119783.82908  -2431001.80708  24664281.48608  24664284.41608
  -5233269.93808  -4077864.74007  24678209.42808  24678212.49507
 -24140606.48908 -18810848.00808  20762351.80508  20762352.26008
 -23813074.21808 -18555632.36408  20529399.60208  20529399.54608
 93 06 20 03 51 30.0000000  0  8 31 17 26 21 22 03 23 28
 -13706756.96408 -10680583.15108  22376974.34208  22376974.70208
 -17101473.36208 -13325807.50408  22131037.84308  22131038.68208
   -447651.55008   -348819.10908  23250254.33708  23250254.99208
 -21097119.77608 -16439299.21308  21561096.77708  21561097.46808
  -3011922.09108  -2346953.79208  24684806.96608  24684809.95608
  -5109546.39407  -3981456.83907  24701753.12007  24701756.44207
 -24146420.54508 -18815378.43908  20761245.46308  20761245.87008
 -23827668.42908 -18567004.47308  20526622.36908  20526622.34508
 93 06 20 03 52 00.0000000  0  8 31 17 26 21 22 03 23 28
 -13788645.22108 -10744392.15708  22361391.49408  22361391.86308
 -17009531.51708 -13254164.53708  22148533.83108  22148534.65908
   -413719.51008   -322378.55308  23256711.45008  23256712.09008
 -21176015.07908 -16500776.03108  21546083.46208  21546084.12908
  -2904413.47408  -2263180.93608  24705265.15908  24705268.24108
  -4986116.41507  -3885277.69707  24725241.17207  24725244.48207
 -24152061.19208 -18819773.74408  20760172.12908  20760172.50408
 -23842098.05208 -18578248.33308  20523876.62208  20523876.59608
 93 06 20 03 52 30.0000000  0  8 21 31 17 26 22 03 23 28
 -21254733.80308 -16562115.26408  21531103.80408  21531104.47508
 -13870410.69308 -10808105.48608  22345832.01908  22345832.45108
 -16917569.14008 -13182505.56808  22166033.75808  22166034.63608
   -379487.59108   -295704.33308  23263225.59108  23263226.10808
  -2797096.23308  -2179557.20308  24725687.00208  24725689.97008
  -4862818.49407  -3789201.47507  24748703.96507  24748707.37107
 -24157374.88508 -18823914.27808  20759160.88208  20759161.28808
 -23856191.60708 -18589230.32108  20521194.69708  20521194.65408
 93 06 20 03 53 00.0000000  0  8 21 31 17 26 22 03 23 28
 -21333174.79008 -16623238.10208  21516176.95908  21516177.68308
 -13951970.76608 -10871658.76308  22330311.66108  22330312.09708
 -16825504.41108 -13110766.84908  22183553.09508  22183553.99208
   -344874.38608   -268733.00908  23269812.22308  23269812.82208
  -2689866.15408  -2096001.37608  24746092.28508  24746095.33208
  -4739573.61907  -3693166.59407  24772156.88607  24772160.26707
 -24162293.94908 -18827747.31108  20758224.80808  20758225.20508
 -23869854.13108 -18599876.44209  20518594.85008  20518594.77109
 93 06 20 03 53 30.0000000  0  8 21 31 17 26 22 03 23 28
 -21411285.48408 -16684103.56708  21501313.03308  21501313.65808
 -14033265.62808 -10935005.38408  22314841.74508  22314842.12808
 -16733269.08808 -13038895.19908  22201104.77608  22201105.73808
   -309812.63308   -241412.16708  23276484.34208  23276484.89308
  -2582653.90408  -2012459.44308  24766494.25508  24766497.20608
  -4616326.87607  -3597130.24307  24795610.08507  24795613.51707
 -24166762.11108 -18831228.99308  20757374.59008  20757374.96608
 -23883026.31608 -18610140.47908  20516088.25708  20516088.16108
 93 06 20 03 54 00.0000000  0  8 21 31 17 26 22 03 23 28
 -21489040.95208 -16744692.24608  21486516.63108  21486517.26908
 -14114262.52808 -10998119.82908  22299428.55108  22299428.91108
 -16640805.59908 -12966845.75608  22218700.05208  22218701.04308
   -274284.52608   -213727.93208  23283245.12608  23283245.65408
  -2475418.42508  -1928899.42208  24786900.73808  24786903.52108
  -4493049.04807  -3501069.66707  24819069.12407  24819072.62007
 -24170753.50308 -18834339.16308  20756615.03108  20756615.39608
 -23895682.12008 -18620002.14108  20513679.93008  20513679.82408
 93 06 20 03 54 30.0000000  0  8 21 31 17 26 22 03 23 28
 -21566414.34608 -16804983.19508  21471792.96708  21471793.59108
 -14194931.98208 -11060979.12208  22284077.64608  22284078.01408
 -16548094.15708 -12894603.09608  22236342.50208  22236343.46608
   -238284.98808   -185676.34608  23290095.54508  23290096.16908
  -2368128.83108  -1845297.23108  24807317.23108  24807320.10208
  -4369715.30807  -3404965.52707  24842538.92407  24842542.26907
 -24174256.32008 -18837068.62908  20755948.47208  20755948.84408
 -23907787.62908 -18629435.00208  20511376.30408  20511376.14808
 93 06 20 03 55 00.0000000  0  8 21 31 17 26 22 03 23 28
 -21643392.23108 -16864965.97008  21457144.57608  21457145.22208
 -14275246.82408 -11123562.09308  22268794.24708  22268794.61408
 -16455133.32208 -12822166.09708  22254032.30608  22254033.31708
   -201789.15508   -157238.04808  23297040.44208  23297041.04208
  -2260778.63608  -1761647.82508  24827745.51508  24827748.28308
  -4246302.31507  -3308799.62707  24866023.81307  24866027.04007
 -24177237.70308 -18839391.78208  20755381.08808  20755381.47708
 -23919323.44808 -18638423.94808  20509181.00308  20509180.83108
 93 06 20 03 55 30.0000000  0  8 21 31 17 26 22 03 23 28
 -21719998.84508 -16924659.38908  21442566.80808  21442567.40808
 -14355213.36708 -11185873.66808  22253577.09308  22253577.42908
 -16361944.60708 -12749551.53408  22271765.60408  22271766.56708
   -164801.78708   -128416.73308  23304078.87108  23304079.47608
  -2153406.66008  -1677981.45407  24848177.85308  24848180.65907
  -4122821.00207  -3212580.48907  24889521.52007  24889524.71507
 -24179708.12008 -18841316.78008  20754910.92408  20754911.36708
 -23930292.24708 -18646971.06308  20507093.69008  20507093.48708
 93 06 20 03 56 00.0000000  0  8 21 31 17 26 22 03 23 28
 -21796209.69908 -16984044.42508  21428064.31208  21428064.96608
 -14434806.06508 -11247893.92908  22238431.11408  22238431.43208
 -16268525.37508 -12676757.34908  22289542.70308  22289543.65808
   -127304.13908    -99197.78908  23311214.28808  23311215.01208
  -2045988.34908  -1594278.97207  24868619.01108  24868621.75507
  -3999249.01007  -3116290.70007  24913036.58107  24913039.72707
 -24181673.52608 -18842848.26208  20754536.96708  20754537.38808
 -23940670.84608 -18655058.28108  20505118.66608  20505118.45608
 93 06 20 03 56 30.0000000  0  8 21 31 17 26 22 03 23 28
 -21872012.31608 -17043111.35708  21413639.48408  21413640.18308
 -14514003.64208 -11309606.30608  22223360.35908  22223360.60508
 -16174875.25608 -12603783.25208  22307363.70108  22307364.66308
    -89266.60808    -69558.16208  23318452.66608  23318453.40808
  -1938522.99108  -1510539.82307  24889069.00608  24889071.87407
  -3875569.89807  -3019917.40307  24936571.97407  24936575.20907
 -24183122.68408 -18843977.47208  20754261.23608  20754261.64408
 -23950431.77308 -18662664.19608  20503261.33508  20503261.14708
 93 06 20 03 57 00.0000000  0  8 21 31 17 26 22 03 23 28
 -21947403.83508 -17101857.94608  21399292.92008  21399293.63308
 -14592803.73308 -11371008.95408  22208365.17608  22208365.36508
 -16080986.30808 -12530623.06208  22325230.28208  22325231.29108
    -50666.94108    -39480.50808  23325797.93808  23325798.62208
  -1831022.23308  -1426773.08507  24909525.80008  24909528.49907
  -3751785.18807  -2923461.83807  24960127.27107  24960130.59507
 -24184056.89008 -18844705.42108  20754083.42408  20754083.82408
 -23959582.11409 -18669794.33008  20501520.20609  20501519.96208
 93 06 20 03 57 30.0000000  0  8 21 31 17 26 22 03 23 28
 -22022395.10108 -17160292.65408  21385022.49908  21385023.20308
 -14671221.51408 -11432113.69908  22193442.72808  22193442.85208
 -15986867.36208 -12457283.64908  22343140.47208  22343141.51208
    -11521.75208     -8977.77808  23333246.94108  23333247.59808
  -1723483.97908  -1342977.12707  24929989.87908  24929992.45907
  -3627914.23807  -2826939.09007  24983699.15607  24983702.59607
 -24184508.14208 -18845057.04408  20753997.52008  20753997.97008
 -23968142.59909 -18676464.83708  20499891.22009  20499890.99208
 93 06 20 03 58 00.0000000  0  8 21 31 17 26 22 03 23 28
 -22096953.84908 -17218390.33608  21370834.44908  21370835.10408
 -14749222.72908 -11492893.84808  22178599.58508  22178599.68308
 -15892482.80608 -12383737.26908  22361101.38908  22361102.41108
     28196.81608     21971.74508  23340805.25808  23340805.94908
  -1615866.69708  -1259119.58807  24950468.77308  24950471.58207
  -3503926.89207  -2730325.63707  25007293.25107  25007296.59707
 -24184433.58708 -18844998.94708  20754011.70208  20754012.17208
 -23976082.66109 -18682651.89708  20498380.25509  20498380.03208
 93 06 20 03 58 30.0000000  0  8 21 31 17 26 22 03 23 28
 -22171084.21108 -17276154.23808  21356727.89508  21356728.54508
 -14826801.24208 -11553344.61708  22163836.84308  22163836.93408
 -15797834.97708 -12309985.74508  22379112.19008  22379113.16108
     68501.06408     53377.63908  23348474.99008  23348475.61008
  -1508185.74808  -1175212.44907  24970959.91008  24970962.51607
  -3379821.37807  -2633620.08807  25030909.52807  25030913.13407
 -24183788.90608 -18844496.59608  20754134.41408  20754134.88308
 -23983384.77509 -18688341.85408  20496990.75109  20496990.55408
 93 06 20 03 59 00.0000000  0  8 21 31 17 26 22 03 23 28
 -22244799.05508 -17333594.35808  21342700.39808  21342701.03308
 -14903965.13108 -11613472.30308  22149152.98708  22149153.14908
 -15702934.45308 -12236037.31008  22397171.30308  22397172.24708
    109386.40308     85236.33808  23356255.15708  23356255.87508
  -1400448.32508  -1091261.29607  24991461.53608  24991464.39007
  -3255610.23507  -2536832.23907  25054546.35207  25054549.76807
 -24182571.30008 -18843547.80908  20754366.09808  20754366.59308
 -23990066.54709 -18693548.42808  20495719.25009  20495719.03908
 93 06 20 03 59 30.0000000  0  8 21 31 17 26 22 03 23 28
 -22318132.83508 -17390737.54908  21328745.40308  21328746.05108
 -14980741.53608 -11673298.05408  22134542.89908  22134543.06108
 -15607816.87708 -12161919.75308  22415271.54908  22415272.52608
    150810.55108    117514.88808  23364137.73408  23364138.46308
  -1292684.51208  -1007289.58007  25011968.43008  25011971.12407
  -3131323.56507  -2439985.53607  25078197.24007  25078200.74507
 -24180794.41508 -18842163.22208  20754704.23408  20754704.69808
 -23996146.43009 -18698285.99808  20494562.23009  20494562.03308
 93 06 20 04 00 00.0000000  0  8 21 31 17 26 22 03 23 28
 -22391062.56608 -17447565.89508  21314867.33008  21314868.00108
 -15057108.93308 -11732805.09708  22120010.67408  22120010.90008
 -15512462.21708 -12087617.44908  22433417.07708  22433418.04508
    192793.18108    150228.61208  23372126.87108  23372127.56808
  -1184890.01208   -923293.95607  25032481.16408  25032483.89907
  -3006944.72407  -2343067.02406  25101865.69307  25101869.19306
 -24178421.05308 -18840313.84808  20755155.88008  20755156.30808
 -24001601.41809 -18702536.63608  20493524.29109  20493524.11008
 93 06 20 04 00 30.0000000  0  8 21 31 17 26 22 03 23 28
 -22463586.80208 -17504078.27208  21301066.38508  21301067.04208
 -15133086.77508 -11792008.59208  22105552.54208  22105552.77208
 -15416885.18908 -12013141.87108  22451604.73508  22451605.77908
    235312.35508    183360.41808  23380217.92608  23380218.62708
  -1077082.50208   -839288.20107  25052996.38508  25052999.14207
  -2882496.71007  -2246094.60306  25125547.47807  25125550.83306
 -24175489.02508 -18838029.14708  20755713.88908  20755714.26308
 -24006461.33809 -18706323.58509  20492599.41309  20492599.23809
 93 06 20 04 01 00.0000000  0  8 21 31 17 26 22 03 23 28
 -22535667.35308 -17560244.92708  21287349.88608  21287350.56708
 -15208648.46308 -11850887.81208  22091173.61508  22091173.88908
 -15321050.82408 -11938465.76908  22469841.44508  22469842.50108
    278375.08308    216915.77608  23388412.62608  23388413.30208
   -969222.55207   -755241.57507  25073521.55607  25073524.24007
  -2757957.06207  -2149050.76606  25149246.61107  25149250.13606
 -24172004.00508 -18835313.54708  20756377.02408  20756377.40908
 -24010719.74009 -18709641.81909  20491789.01309  20491788.82609
 93 06 20 04 01 30.0000000  0  7 21 31 17 26 22 23 28
 -22607290.30708 -17616055.01008  21273720.46108  21273721.13208
 -15283794.43608 -11909443.09708  22076873.78708  22076874.08008
 -15224961.51708 -11863591.00908  22488126.66708  22488127.72108
    321949.79908    250870.09808  23396704.57208  23396705.28808
   -861304.63507   -671149.78107  25094057.63007  25094060.41907
 -24167980.93608 -18832178.68708  20757142.58208  20757142.99308
 -24014372.13409 -18712487.84009  20491093.98109  20491093.81409
 93 06 20 04 02 00.0000000  0  8 21 31 17 26 22 27 23 28
 -22678455.42508 -17671508.34108  21260178.19108  21260178.85308
 -15358533.81108 -11967681.55208  22062651.31708  22062651.67308
 -15128632.31608 -11788529.31908  22506457.45908  22506458.51508
    366021.65608    285211.79308  23405091.07108  23405091.80408
   -753335.58707   -587018.13907  25114603.63307  25114606.40007
        -0.51017        -0.32117  24626851.77117  24626854.10617
 -24163439.30108 -18828639.74908  20758006.77208  20758007.20208
 -24017436.33309 -18714875.52909  20490510.84409  20490510.72809
 93 06 20 04 02 30.0000000  0  8 21 31 17 26 22 27 23 28
 -22749165.01208 -17726606.71308  21246722.53108  21246723.25008
 -15432860.26308 -12025598.24808  22048507.41608  22048507.83108
 -15032062.92108 -11713280.47008  22524834.06308  22524835.11408
    410587.42808    319938.35608  23413571.68508  23413572.38108
   -645311.86507   -502843.89607  25135160.10707  25135162.81007
     42076.14408     32786.67507  24634858.73708  24634861.01907
 -24158382.62408 -18824699.47908  20758968.98508  20758969.46208
 -24019918.24909 -18716809.48809  20490038.60209  20490038.51309
 93 06 20 04 03 00.0000000  0  8 21 31 17 26 22 27 23 28
 -22819418.67908 -17781349.81708  21233353.71008  21233354.41408
 -15506758.89708 -12083181.58208  22034444.89108  22034445.35708
 -14935253.29908 -11637844.43408  22543256.36208  22543257.37308
    455651.18908    355052.95708  23422147.22808  23422147.96408
   -537233.96107   -418627.43707  25155726.44907  25155729.45707
     84694.07908     65995.42607  24642968.72208  24642971.03207
 -24152782.48408 -18820335.73408  20760034.71108  20760035.17208
 -24021797.29709 -18718273.68209  20489681.06509  20489680.96909
 93 06 20 04 03 30.0000000  0  8 21 31 17 26 22 27 23 28
 -22889223.97908 -17835743.54508  21220070.27408  21220070.93708
 -15580237.40208 -12140437.53708  22020462.38308  22020462.85108
 -14838221.08808 -11562234.95808  22561721.04808  22561722.16208
    501214.85608    390557.09908  23430817.65608  23430818.43108
   -429128.08107   -334389.19507  25176298.36907  25176301.38807
    127845.17207     99619.62607  24651179.75507  24651182.28607
 -24146636.68308 -18815546.80108  20761204.29308  20761204.66708
 -24023057.51309 -18719255.66909  20489441.19109  20489441.06909
 93 06 20 04 04 00.0000000  0  8 21 31 17 26 22 27 23 28
 -22958578.60308 -17889786.09408  21206872.54108  21206873.19408
 -15653288.54008 -12197360.48308  22006561.15808  22006561.67708
 -14740960.37408 -11486447.42308  22580229.11308  22580230.21808
    547308.56008    426474.25808  23439588.84808  23439589.71408
   -321011.31707   -250142.46007  25196872.18907  25196875.40207
    171553.46408    133678.00107  24659497.48808  24659499.56007
 -24139941.76508 -18810329.98208  20762478.24808  20762478.65108
 -24023692.18609 -18719750.21909  20489320.31809  20489320.16409
 93 06 20 04 04 30.0000000  0  8 21 31 17 26 22 27 23 28
 -23027456.03208 -17943456.80708  21193765.60108  21193766.23308
 -15725887.59008 -12253931.15208  21992746.00408  21992746.52508
 -14643439.98308 -11410457.54908  22598786.62308  22598787.79608
    593961.81108    462827.42208  23448466.79808  23448467.70608
   -212870.61807   -165877.05907  25217450.65207  25217453.95307
    215837.51507    168185.01007  24667924.61807  24667926.85007
 -24132684.35608 -18804674.85908  20763859.28108  20763859.70708
 -24023668.38808 -18719731.67509  20489324.89408  20489324.76409
 93 06 20 04 05 00.0000000  0  8 21 31 17 26 27 22 23 28
 -23095894.06008 -17996785.12208  21180742.31308  21180742.97708
 -15798080.21408 -12310185.12608  21979008.20508  21979008.69608
 -14545704.08808 -11334299.75508  22617385.10908  22617386.35708
    641134.64908    499585.45908  23457443.48508  23457444.34308
    260656.36807    203108.74107  24676453.13207  24676455.47807
   -104762.98107    -81637.42207  25238022.78207  25238026.19607
 -24124914.63208 -18798620.52908  20765337.77608  20765338.22608
 -24023014.13908 -18719221.87009  20489449.34408  20489449.21409
 93 06 20 04 05 30.0000000  0  8 21 31 17 26 27 22 23 28
 -23163894.04308 -18049772.10908  21167802.30808  21167802.99008
 -15869863.28408 -12366119.96508  21965348.43108  21965348.80308
 -14447747.59908 -11257970.06708  22636025.64208  22636026.86208
    688835.68208    536755.07308  23466520.67508  23466521.68308
    306018.45407    238455.80707  24685085.20207  24685087.50007
      3312.95707      2577.50107  25258588.95507  25258592.46207
 -24116641.21508 -18792173.71208  20766912.12908  20766912.62308
 -24021736.20208 -18718226.07409  20489692.65308  20489692.56709
 93 06 20 04 06 00.0000000  0  8 21 31 17 26 27 22 23 28
 -23231425.50308 -18102394.01008  21154951.43208  21154952.12708
 -15941198.26208 -12421705.64408  21951773.85608  21951774.17408
 -14349525.20708 -11181433.18208  22654716.75708  22654718.01808
    737087.95208    574354.21908  23475702.76008  23475703.71308
    351951.47107    274247.74807  24693825.96207  24693828.23307
    111397.98007     86799.49907  25279157.03207  25279160.52507
 -24107829.70408 -18785307.60008  20768588.88508  20768589.40608
 -24019825.22508 -18716737.00109  20490056.14308  20490056.08809
 93 06 20 04 06 30.0000000  0  8 21 31 17 26 27 22 23 28
 -23298490.78008 -18154652.65008  21142189.31108  21142190.08108
 -16012083.30908 -12476940.72908  21938284.91008  21938285.18408
 -14251051.50208 -11104700.46408  22673455.60508  22673456.88508
    785879.60308    612373.67508  23484987.48108  23484988.41008
    398440.10807    310472.64007  24702672.62807  24702674.67407
    219499.49007    171034.34507  25299728.16007  25299731.62807
 -24098476.88108 -18778019.68608  20770368.70908  20770369.25208
 -24017287.87708 -18714759.84809  20490539.06808  20490539.03309
 93 06 20 04 07 00.0000000  0  8 21 31 17 26 27 22 23 28
 -23365129.96608 -18206579.27108  21129508.22708  21129509.02008
 -16082551.07108 -12531850.65808  21924875.34608  21924875.55708
 -14152374.76508 -11027809.54508  22692233.30708  22692234.48908
    835168.21308    650780.36908  23494366.82208  23494367.64008
    445447.76307    347101.95707  24711617.80807  24711619.98707
    327589.75507    255260.44407  25320297.13507  25320300.48507
 -24088606.23508 -18770328.27708  20772247.04908  20772247.53108
 -24014164.77808 -18712326.26509  20491133.46908  20491133.41409
 93 06 20 04 07 30.0000000  0  8 21 31 17 26 27 22 23 28
 -23431347.93708 -18258177.67808  21116907.36408  21116908.11508
 -16152600.04708 -12586434.25808  21911545.48308  21911545.70108
 -14053512.35508 -10950773.94208  22711046.14308  22711047.37308
    884941.29108    689564.56508  23503838.52708  23503839.16208
    492967.67507    384130.42707  24720660.65507  24720662.99107
    435672.40507    339480.61507  25340864.73407  25340868.12407
 -24078217.79508 -18762233.39008  20774223.89308  20774224.35208
 -24010473.97008 -18709450.31209  20491835.82608  20491835.73409
 93 06 20 04 08 00.0000000  0  8 21 31 17 26 27 22 23 28
 -23497100.73608 -18309413.61308  21104394.99308  21104395.72208
 -16222190.85108 -12640660.84208  21898302.76908  21898302.97608
 -13954441.76108 -10873576.11608  22729898.78408  22729899.96108
    935232.56008    728752.55808  23513408.64308  23513409.18108
    541026.84607    421579.09907  24729806.07407  24729808.01007
    543782.84407    423722.46307  25361437.45507  25361440.74307
 -24067275.41508 -18753706.86008  20776306.20008  20776306.61108
 -24006170.66809 -18706097.09009  20492654.76309  20492654.59709
 93 06 20 04 08 30.0000000  0  8 21 31 17 26 27 22 23 28
 -23562371.83008 -18360274.19708  21091974.39508  21091975.11908
 -16291306.69008 -12694517.32408  21885150.47908  21885150.67908
 -13855165.05708 -10796217.68508  22748790.51608  22748791.61108
    986059.94608    768358.30008  23523080.86108  23523081.41008
    589647.07207    459464.95707  24739058.22107  24739060.24207
    651928.17907    507991.47707  25382016.85107  25382020.28607
 -24055758.22608 -18744732.42808  20778497.87208  20778498.29808
 -24001225.79909 -18702243.94408  20493595.76009  20493595.53808
 93 06 20 04 09 00.0000000  0  8 21 31 17 26 27 22 23 28
 -23627180.71508 -18410774.61708  21079641.64208  21079642.32308
 -16359955.13508 -12748009.60608  21872087.13108  21872087.24008
 -13755681.63808 -10718698.18008  22767721.65408  22767722.69308
   1037394.91508    808359.56608  23532849.47608  23532850.05208
    638827.45207    497787.30207  24748416.99907  24748419.26607
    760092.71507    592275.42607  25402600.20907  25402603.42307
 -24043670.28108 -18735313.25108  20780798.09308  20780798.50608
 -23995651.28809 -18697900.16508  20494656.45509  20494656.22808
 93 06 20 04 09 30.0000000  0  8 21 31 17 26 27 22 23 28
 -23691536.89608 -18460922.28208  21067395.08008  21067395.72108
 -16428140.76108 -12801141.25008  21859111.83908  21859111.97108
 -13655990.15708 -10641016.54508  22786692.30108  22786693.37308
   1089224.34808    848746.12308  23542712.25608  23542712.96808
    688561.44207    536541.02107  24757880.95207  24757883.21207
    868262.63307    676563.58907  25423184.38707  25423187.74107
 -24031024.46608 -18725459.37008  20783204.54708  20783205.02908
 -23989450.43809 -18693068.33308  20495836.63209  20495836.40708
 93 06 20 04 10 00.0000000  0  8 21 31 17 26 27 22 23 28
 -23755462.82308 -18510734.69008  21055230.34508  21055230.93608
 -16495889.47808 -12853932.44608  21846219.63808  21846219.77408
 -13556102.69908 -10563182.19808  22805700.25708  22805701.43208
   1141528.23008    889502.36608  23552665.20508  23552666.08908
    738819.51207    575703.13907  24767444.79507  24767446.93507
    976403.60407    760829.20907  25443763.01007  25443766.05807
 -24017852.84808 -18715195.77408  20785710.97308  20785711.43808
 -23982640.31109 -18687761.74208  20497132.42109  20497132.17208
 93 06 20 04 10 30.0000000  0  8 21 31 17 26 27 22 23 28
 -23818959.13808 -18560212.33308  21043147.40908  21043148.03408
 -16563197.28708 -12906380.07608  21833411.36008  21833411.51008
 -13455998.45808 -10485178.94208  22824749.49008  22824750.63108
   1194307.70108    930629.20708  23562708.92808  23562709.72508
    789607.29207    615278.00807  24777109.41507  24777111.76507
   1084524.78507    845079.40607  25464337.79307  25464341.07807
 -24004153.21208 -18704520.73508  20788317.89508  20788318.38108
 -23975224.14209 -18681982.91308  20498543.62209  20498543.39508
 93 06 20 04 11 00.0000000  0  8 21 31 17 26 27 22 23 28
 -23881998.41408 -18609333.83808  21031151.41908  21031152.04108
 -16630046.04908 -12958470.00708  21820690.45508  21820690.60408
 -13355652.46208 -10406987.28308  22843844.76008  22843845.96208
   1247583.26208    972142.60408  23572846.80508  23572847.72408
    840923.07607    655264.30707  24786874.49607  24786876.69207
   1192640.95907    929325.70607  25484911.59907  25484914.92907
 -23989926.39608 -18693434.90808  20791025.29008  20791025.63508
 -23967190.42109 -18675722.87408  20500072.39409  20500072.17708
 93 06 20 04 11 30.0000000  0  8 21 31 17 26 27 22 23 28
 -23944545.75708 -18658072.01708  21019249.05508  21019249.68808
 -16696419.54408 -13010189.60008  21808060.00608  21808060.13208
 -13255059.13408 -10328602.91608  22862987.04808  22862988.23108
   1301398.15908   1014076.26308  23583087.63408  23583088.45308
    892775.61907    695668.85407  24796741.87707  24796744.16107
   1300760.37607   1013574.52907  25505486.09907  25505489.32807
 -23975176.83808 -18681941.75308  20793832.07708  20793832.43608
 -23958521.08209 -18668967.55008  20501722.16809  20501721.95108
 93 06 20 04 12 00.0000000  0  8 21 31 17 26 27 22 23 28
 -24006613.55108 -18706436.52108  21007437.97008  21007438.54708
 -16762338.40408 -13061554.93208  21795516.03708  21795516.15008
 -13154248.20408 -10250048.98008  22882170.70108  22882171.93908
   1355733.97208   1056415.84508  23593427.44008  23593428.20608
    945135.70907    736468.88007  24806705.64007  24806707.89107
   1408853.81307   1097803.11407  25526055.36107  25526058.89807
 -23959927.67308 -18670059.29308  20796733.89508  20796734.24308
 -23949246.51409 -18661740.61808  20503486.90509  20503486.68708
 93 06 20 04 12 30.0000000  0  8 21 31 17 26 27 22 23 28
 -24068217.60608 -18754439.66908  20995715.11008  20995715.73808
 -16827819.38908 -13112579.06508  21783055.42108  21783055.55508
 -13053247.39708 -10171347.09308  22901390.66308  22901391.92908
   1410559.85208   1099137.28308  23603860.36208  23603861.29308
    997977.86407    777644.55807  24816761.19807  24816763.29207
   1516899.36307   1181994.37007  25546615.86107  25546619.52707
 -23944195.15308 -18657800.19208  20799727.67608  20799728.01608
 -23939388.08309 -18654058.72808  20505362.89109  20505362.70608
 93 06 20 04 13 00.0000000  0  8 31 17 26 27 22 23 21 28
 -16892821.34008 -13163229.92408  21770685.95008  21770686.03608
 -12952031.25508 -10092477.41308  22920651.51208  22920652.60408
   1465906.94908   1142264.86808  23614392.66208  23614393.49608
   1051334.57907    819221.19307  24826914.75407  24826916.80007
   1624919.34307   1266165.72406  25567171.45107  25567174.92306
 -23927942.91408 -18645136.11708  20802820.34508  20802820.64608
 -24129311.79008 -18802045.51408  20984089.29308  20984089.93308
 -23928897.82409 -18645884.50308  20507359.25409  20507359.02608
 93 06 20 04 13 30.0000000  0  8 31 17 26 27 22 23 21 28
 -16957353.23708 -13213514.50508  21758405.91208  21758406.05408
 -12850614.39508 -10013451.33608  22939950.53708  22939951.64308
   1521756.09508   1185783.65608  23625020.28008  23625021.22308
   1105193.43307    861189.08807  24837163.69907  24837166.23707
   1732909.45906   1350313.79806  25587721.05006  25587724.88006
 -23911168.59308 -18632065.22208  20806012.40908  20806012.76608
 -24189920.82508 -18849273.32208  20972555.76808  20972556.38008
 -23917779.91709 -18637221.20008  20509475.06309  20509474.85508
 93 06 20 04 14 00.0000000  0  7 31 17 26 27 23 21 28
 -17021399.34208 -13263420.54808  21746218.33608  21746218.42508
 -12748986.94208  -9934261.14408  22959289.58908  22959290.77008
   1578100.88408   1229688.65908  23635742.37008  23635743.30208
   1159559.86607    903552.49207  24847509.15707  24847511.63907
 -23893840.46508 -18618562.79008  20809309.92508  20809310.27708
 -24250041.10408 -18896120.28008  20961115.20308  20961115.81908
 -23906011.92209 -18628051.33508  20511714.28209  20511714.10608
 93 06 20 04 14 30.0000000  0  7 31 17 26 27 23 21 28
 -17084957.78708 -13312946.59308  21734123.57108  21734123.69608
 -12647157.85908  -9854913.85408  22978667.05608  22978668.22708
   1634933.79008   1273974.03108  23646557.37308  23646558.18708
   1214435.97507    946313.03407  24857951.91007  24857954.23007
 -23875962.72108 -18604632.08708  20812711.90008  20812712.29208
 -24309680.64308 -18942592.63908  20949766.15908  20949766.77408
 -23893579.33309 -18618363.60608  20514080.24909  20514080.05708
 93 06 20 04 15 00.0000000  0  7 31 17 26 27 23 21 28
 -17148032.67008 -13362095.83808  21722120.77308  21722120.96608
 -12545147.92308  -9775425.62408  22998078.89508  22998080.10608
   1692251.56908   1318637.21408  23657464.67408  23657465.54808
   1269820.31607    989469.65007  24868491.22307  24868493.55107
 -23857540.69608 -18590277.27008  20816217.50808  20816217.87908
 -24368851.88808 -18988700.08708  20938506.31608  20938506.90808
 -23880493.94509 -18608167.20109  20516570.15009  20516570.01409
 93 06 20 04 15 30.0000000  0  7 31 17 26 27 23 21 28
 -17210651.02108 -13410889.34108  21710204.85108  21710205.06208
 -12442982.46608  -9695816.22708  23017520.44508  23017521.71808
   1750031.62308   1363660.61208  23668459.93308  23668460.86808
   1325689.27307   1033003.86407  24879122.52607  24879125.16407
 -23838600.93308 -18575519.01708  20819821.59808  20819821.98808
 -24427585.67208 -19034466.66508  20927329.65508  20927330.22108
 -23866800.46009 -18597496.95708  20519175.88809  20519175.76308
 93 06 20 04 16 00.0000000  0  7 31 17 26 27 23 21 28
 -17272860.51008 -13459364.25408  21698366.79508  21698366.99608
 -12340707.88308  -9616121.79408  23036982.68308  23036983.93608
   1808221.37408   1409003.25808  23679533.09008  23679533.95508
   1382013.85207   1076893.09607  24889840.83107  24889843.41407
 -23819199.77908 -18560401.24208  20823513.56308  20823513.92208
 -24485918.35408 -19079920.69408  20916229.27308  20916229.83808
 -23852560.57209 -18586400.94608  20521885.78209  20521885.63808
 93 06 20 04 16 30.0000000  0  7 31 17 26 27 23 21 28
 -17334566.05908 -13507446.48808  21686624.62708  21686624.81908
 -12238222.04708  -9536262.74308  23056485.12508  23056486.38608
   1866913.04708   1454737.01308  23690701.81608  23690702.52608
   1438894.07407   1121215.29907  24900664.82207  24900667.36107
 -23799251.39208 -18544857.05008  20827309.66708  20827309.98608
 -24543750.60608 -19124984.77908  20905224.17908  20905224.75008
 -23837697.75109 -18574819.53408  20524714.16509  20524714.00908
 93 06 20 04 17 00.0000000  0  7 31 17 26 27 23 21 28
 -17395768.93508 -13555137.02908  21674978.11408  21674978.32308
 -12135504.55008  -9456223.18708  23076031.59808  23076032.93308
   1926111.25108   1500865.46408  23701966.80108  23701967.60108
   1496322.03107   1165964.33707  24911593.27707  24911595.51707
 -23778760.37908 -18528890.03208  20831209.08608  20831209.35508
 -24601071.94208 -19169650.74208  20894316.30208  20894316.86608
 -23822229.97109 -18562766.72609  20527657.60709  20527657.48309
 93 06 20 04 17 30.0000000  0  7 31 17 26 27 23 21 28
 -17456470.67408 -13602437.07508  21663426.93308  21663427.12408
 -12032540.24908  -9375991.32008  23095625.05108  23095626.46308
   1985811.07508   1547384.79208  23713327.33208  23713328.06808
   1554287.34907   1211132.08707  24922623.23007  24922625.85607
 -23757735.71208 -18512507.18108  20835209.84508  20835210.09408
 -24657881.68808 -19213918.06408  20883505.69808  20883506.24908
 -23806149.65509 -18550236.61609  20530717.51609  20530717.34509
 93 06 20 04 18 00.0000000  0  7 31 17 26 27 23 21 28
 -17516685.40208 -13649357.62908  21651968.44808  21651968.64108
 -11929354.37408  -9295586.79808  23115260.74608  23115262.06808
   2045988.47308   1594276.25108  23724778.82508  23724779.53208
   1612758.84207   1256694.25107  24933750.16707  24933752.84407
 -23736201.73008 -18495727.46508  20839307.60408  20839307.85308
 -24714190.95808 -19257795.40708  20872790.40508  20872790.97808
 -23789453.77609 -18537226.84908  20533894.47409  20533894.31208
 93 06 20 04 18 30.0000000  0  7 31 17 26 27 23 21 28
 -17576417.23808 -13695901.90608  21640601.86708  21640602.06308
 -11825958.09108  -9215018.32608  23134936.44808  23134937.77808
   2106641.14708   1641538.04308  23736320.61008  23736321.42208
   1671700.20507   1302622.52607  24944966.21007  24944969.01807
 -23714160.78308 -18478552.71208  20843501.80208  20843502.12208
 -24770008.06308 -19301289.24408  20862168.74308  20862169.28308
 -23772142.69509 -18523737.70108  20537188.74809  20537188.58808
 93 06 20 04 19 00.0000000  0  7 31 17 26 27 23 21 28
 -17635679.98808 -13742080.66208  21629324.50208  21629324.68808
 -11722387.77608  -9134314.25008  23154645.30108  23154646.60608
   2167754.73008   1689158.98208  23747950.16008  23747951.03008
   1731082.11707   1348894.12707  24956266.59507  24956269.05507
 -23691630.74108 -18460996.84408  20847789.10608  20847789.46208
 -24825346.56708 -19344410.14908  20851638.16608  20851638.70108
 -23754220.94809 -18509772.71108  20540599.19409  20540599.06408
 93 06 20 04 19 30.0000000  0  7 31 17 26 27 23 21 28
 -17694464.70108 -13787886.92208  21618138.13808  21618138.29108
 -11618670.19508  -9053495.38608  23174382.07408  23174383.40708
   2229334.25708   1737143.00208  23759668.37208  23759669.17808
   1790910.45407   1395513.57907  24967651.46407  24967654.09207
 -23668596.87408 -18443048.38508  20852172.35608  20852172.73608
 -24880206.18408 -19387157.89808  20841198.72608  20841199.26108
 -23735673.88809 -18495320.46408  20544128.54109  20544128.44208
 93 06 20 04 20 00.0000000  0  7 31 17 26 27 23 21 28
 -17752745.07508 -13833300.19008  21607047.71208  21607047.88108
 -11514791.29108  -8972550.83508  23194149.57608  23194150.95808
   2291400.56308   1785506.32908  23771479.20508  23771480.08508
   1851208.78107   1442499.26207  24979126.10507  24979128.41707
 -23645033.58908 -18424687.39408  20856656.23808  20856656.67908
 -24934555.21308 -19429507.77608  20830856.39908  20830856.96908
 -23716482.73709 -18480366.32708  20547780.52309  20547780.41408
 93 06 20 04 20 30.0000000  0  7 31 17 26 27 23 21 28
 -17810517.03008 -13878317.28708  21596054.03808  21596054.20708
 -11410755.88908  -8891484.32908  23213946.79508  23213948.27108
   2353955.59608   1834250.48508  23783382.90008  23783383.71908
   1911990.24707   1489861.43307  24990692.58507  24990694.76007
 -23620928.31408 -18405904.07008  20861243.33408  20861243.79608
 -24988391.65408 -19471458.23708  20820611.63008  20820612.21108
 -23696649.42309 -18464911.80208  20551554.57309  20551554.46308
 93 06 20 04 21 00.0000000  0  7 31 17 26 27 23 21 28
 -17867799.33808 -13922952.84208  21585153.55908  21585153.71308
 -11306588.50408  -8810314.97808  23233769.25008  23233770.69408
   2416972.34708   1883354.42108  23795374.68808  23795375.59208
   1973248.71307   1537595.25307  25002349.55807  25002351.95807
 -23596316.34408 -18386725.91808  20865926.82908  20865927.26808
 -25041737.34708 -19513026.30208  20810460.27608  20810460.86508
 -23676190.77809 -18448970.00608  20555447.82409  20555447.68308
 93 06 20 04 21 30.0000000  0  7 31 17 26 27 23 21 28
 -17924573.54808 -13967192.47608  21574349.74008  21574349.93008
 -11202253.72508  -8729015.19208  23253623.52208  23253624.97508
   2480456.01208   1932822.17408  23807455.27508  23807456.18408
   2035011.71107   1585722.25207  25014102.80907  25014105.28807
 -23571185.84308 -18367143.71708  20870708.94908  20870709.38508
 -25094587.63908 -19554208.33708  20800403.18308  20800403.78408
 -23655095.98909 -18432532.51608  20559462.10509  20559461.96208
 93 06 20 04 22 00.0000000  0  7 31 17 26 27 23 21 28
 -17980840.90108 -14011037.15708  21563642.41908  21563642.59808
 -11097738.56008  -8647574.85608  23273512.10908  23273513.54508
   2544386.76708   1982638.31508  23819620.90208  23819621.73608
   2097273.58707   1634237.97307  25025950.72607  25025952.87407
 -23545543.30308 -18347162.52608  20875588.61908  20875589.03408
 -25146943.16608 -19595004.84008  20790440.17708  20790440.77008
 -23633377.53209 -18415609.05108  20563594.77309  20563594.63608
 93 06 20 04 22 30.0000000  0  7 31 17 26 27 23 21 28
 -18036586.63608 -14054475.38208  21553034.34708  21553034.48808
 -10993026.58008  -8565981.12808  23293438.13908  23293439.56308
   2608774.04108   2032810.19008  23831873.30308  23831874.18708
   2160043.60207   1683149.64007  25037895.42907  25037897.73707
 -23519386.79008 -18326780.83408  20880566.00108  20880566.42108
 -25198793.98708 -19635408.07308  20780573.33008  20780573.90008
 -23611027.38609 -18398193.36308  20567848.02609  20567847.84908
 93 06 20 04 23 00.0000000  0  7 31 17 26 27 23 21 28
 -18091862.15508 -14097547.20308  21542515.71708  21542515.87808
 -10888152.95108  -8484261.46208  23313394.93908  23313396.44308
   2673548.43408   2083283.71008  23844199.62608  23844200.51808
   2223251.98607   1732402.88007  25049923.43507  25049926.09907
 -23492775.19108 -18306044.52908  20885630.01108  20885630.43608
 -25250195.13008 -19675460.90508  20770792.02808  20770792.55808
 -23588117.54809 -18380341.55108  20572207.79909  20572207.60208
 93 06 20 04 23 30.0000000  0  7 31 17 26 27 23 21 28
 -18146617.37808 -14140213.60108  21532096.20408  21532096.29208
 -10783069.19408  -8402378.05608  23333391.72708  23333393.20908
   2738750.59408   2134090.56508  23856607.30208  23856608.00608
   2286929.58707   1782021.74607  25062040.93507  25062043.61507
 -23465652.29408 -18284909.80708  20890791.34208  20890791.76508
 -25301095.29808 -19715123.36808  20761106.04308  20761106.59208
 -23564615.26209 -18362028.09008  20576680.13709  20576679.95708
 93 06 20 04 24 00.0000000  0  7 31 17 26 27 23 21 28
 -18200854.44408 -14182476.23908  21521775.20208  21521775.32808
 -10677789.04608  -8320341.60208  23353425.88608  23353427.42108
   2804385.80808   2185234.86608  23869097.24408  23869098.07008
   2351056.94907   1831991.08607  25074244.15507  25074246.40407
 -23438020.17408 -18263378.28908  20896049.48508  20896049.94308
 -25351477.77308 -19754382.43308  20751518.55308  20751519.08808
 -23540523.03909 -18343254.93908  20581264.61409  20581264.40908
 93 06 20 04 24 30.0000000  0  7 31 17 26 27 23 21 28
 -18254558.63308 -14224323.64808  21511555.66508  21511555.70208
 -10572308.98208  -8238149.37708  23373498.13108  23373499.73708
   2870484.46708   2236740.28108  23881675.48808  23881676.25508
   2415646.62507   1882320.69607  25086535.18007  25086537.68307
 -23409870.00508 -18241443.09708  20901406.34308  20901406.75808
 -25401332.95508 -19793230.61908  20742031.42408  20742031.97708
 -23515822.65009 -18324007.89008  20585964.86509  20585964.64508
