     2              OBSERVATION DATA    GPS                 RINEX VERSION / TYPE
srx v1.3 (5/19/93)  STARR               93/12/15 17:40:16   PGM / RUN BY / DATE
late                                                        MARKER NAME
0                   TURBOROGUE          93.05.25            REC # / TYPE / VERS
 -3275448.9813 -1472449.2673  5253447.4472                  APPROX POSITION XYZ
    60                                                      INTERVAL
     1     1     0                                          WAVELENGTH FACT L1/2
     4    L1    L2    P1    P2                              # / TYPES OF OBSERV
SNR is mapped to signal strength [0,1,4-9]                  COMMENT
 SNR:   >500  >100   >50   >10    >5    >0   bad   n/a      COMMENT
 sig:      9     8     7     6     5     4     1     0      COMMENT
  1993    07    25    00    00   00.000000                  TIME OF FIRST OBS
  1993    07    25    03    04   00.000000                  TIME OF LAST OBS
    14                                                      # OF SATELLITES
    01    69    69    69    69                              PRN / # OF OBS
    02    29    29    29    29                              PRN / # OF OBS
    03    98    98    98    98                              PRN / # OF OBS
    09     8     8     8     8                              PRN / # OF OBS
    15    73    73    73    73                              PRN / # OF OBS
    16    11    11    11    11                              PRN / # OF OBS
    17   151   151   151   151                              PRN / # OF OBS
    21   184   184   184   184                              PRN / # OF OBS
    22   130   130   130   130                              PRN / # OF OBS
    23   184   184   184   184                              PRN / # OF OBS
    26   134   134   134   134                              PRN / # OF OBS
    27     9     9     9     9                              PRN / # OF OBS
    28   185   185   185   185                              PRN / # OF OBS
    31   177   177   177   177                              PRN / # OF OBS
                                                            END OF HEADER
 93 07 25 00 00 00.0000000  0  8 28 03 22 21 26 17 16 23
 -17139158.81408 -13355177.41908  22125283.73108  22125284.44308
 -20803107.53208 -16210195.44208  21785335.95408  21785337.80408
 -20721743.98408 -16146800.89608  21265879.36808  21265880.19908
  -5556053.18008  -4329381.55208  24528244.73308  24528249.16008
  -3680417.04508  -2867853.92107  24612410.41708  24612413.17107
 -25876606.51408 -20163565.86009  20395024.68308  20395025.58009
    -15197.25807    -11834.83507  25350316.66807  25350320.92507
 -15623477.84308 -12174118.05808  22377457.52608  22377459.23708
 93 07 25 00 01 00.0000000  0  8 28 03 22 21 26 17 16 23
 -17312341.82308 -13490125.17808  22092328.07608  22092328.76708
 -20645493.14808 -16087379.09608  21815329.02508  21815330.99708
 -20638628.04908 -16082035.27608  21281695.86708  21281696.73908
  -5786545.94908  -4508985.93708  24484383.20608  24484387.37908
  -3804028.76408  -2964174.60808  24588887.62608  24588890.50108
 -25801420.81208 -20104979.61208  20409332.01108  20409332.89208
    187981.40907    146486.14507  25388980.49807  25388984.65307
 -15789671.08508 -12303619.16108  22345831.89608  22345833.63008
 93 07 25 00 02 00.0000000  0  8 28 03 21 26 22 17 16 23
 -17484462.50208 -13624245.15508  22059574.61908  22059575.33008
 -20486675.86908 -15963625.43408  21845551.00008  21845552.86308
  -6016787.06208  -4688394.20508  24440569.48608  24440573.64008
  -3926140.71108  -3059326.63108  24565650.43908  24565653.20508
 -20553458.84008 -16015669.70508  21297902.98208  21297903.86508
 -25724177.10108 -20044789.72308  20424031.02208  20424031.92208
    392025.61007    305481.55707  25427808.74407  25427813.08107
 -15954406.74808 -12431984.49308  22314483.71508  22314485.40208
 93 07 25 00 03 00.0000000  0  8 28 03 21 26 22 17 16 23
 -17655514.92908 -13757532.70508  22027024.40308  22027025.11408
 -20326627.53008 -15838912.49708  21876007.26308  21876009.07408
  -6246678.39608  -4867529.92808  24396822.38008  24396826.46108
  -4046647.48808  -3153227.85208  24542718.63908  24542721.37408
 -20466118.40308 -15947612.26108  21314523.42808  21314524.29108
 -25645001.67408 -19983094.60108  20439097.62308  20439098.54208
    597002.43907    465203.70107  25466814.67207  25466818.91007
 -16117579.46908 -12559131.95408  22283432.87308  22283434.51608
 93 07 25 00 04 00.0000000  0  8 28 03 21 26 22 17 16 23
 -17825579.72008 -13890050.66508  21994661.98608  21994662.64008
 -20165400.02808 -15713280.72808  21906687.86808  21906689.80208
  -6476224.56908  -5046396.68608  24353140.86208  24353144.79708
  -4165584.91808  -3245906.22008  24520085.38008  24520088.04708
 -20376609.14008 -15877864.82408  21331556.41608  21331557.30908
 -25564068.36708 -19920029.70208  20454498.74608  20454499.68808
    802839.69207    625596.26607  25505984.14107  25505988.56407
 -16279200.57408 -12685070.36408  22252677.22608  22252678.88508
 93 07 25 00 05 00.0000000  0  7 28 03 21 22 16 17 23
 -17994610.93708 -14021763.26808  21962496.52108  21962497.13108
 -20002963.71608 -15586707.04008  21937598.46808  21937600.40708
  -6705416.27008  -5224987.25208  24309526.84008  24309530.72508
 -20284925.92808 -15806423.39908  21349003.21808  21349004.08308
   1009489.49107    786622.05307  25545308.28207  25545312.58207
 -25481336.14508 -19855563.05108  20470242.19908  20470243.12408
 -16439266.65608 -12809797.06708  22222217.60008  22222219.24208
 93 07 25 00 06 00.0000000  0  7 28 03 21 22 17 16 23
 -18162646.21208 -14152699.80808  21930520.42008  21930521.01808
 -19839332.87708 -15459202.52808  21968736.41508  21968738.36308
  -6934354.78908  -5403380.59608  24265961.04108  24265964.83808
 -20191076.29308 -15733293.85608  21366862.21608  21366863.11308
 -25396663.26408 -19789584.20108  20486354.91108  20486355.84308
   1216872.27407    948218.95807  25584772.20307  25584776.47407
 -16597831.83308 -12933354.23408  22192043.52308  22192045.14208
 93 07 25 00 07 00.0000000  0  8 28 21 03 31 22 17 16 23
 -18329678.62908 -14282854.89108  21898735.06508  21898735.69408
  -7163008.01908  -5581551.64508  24222449.55408  24222453.30908
 -19674513.67708 -15330772.04608  22000100.53308  22000102.55208
        -0.20617        -0.06617  25144675.57217  25144678.23617
 -20095024.01208 -15658447.97608  21385140.41608  21385141.34608
 -25309992.19808 -19722048.32308  20502847.86308  20502848.78708
   1424968.18007   1110371.48207  25624371.66007  25624375.86607
 -16754860.01408 -13055713.74608  22162161.94008  22162163.52408
 93 07 25 00 08 00.0000000  0  8 28 21 03 31 22 17 16 23
 -18495630.50508 -14412167.97308  21867155.48908  21867156.18408
  -7391264.34508  -5759413.44508  24179013.56008  24179017.29008
 -19508516.73808 -15201423.83308  22031688.75708  22031690.82808
   -217098.36407   -169167.44107  25103362.84507  25103365.53007
 -19996822.11708 -15581927.07608  21403827.63108  21403828.59208
 -25221442.64108 -19653048.68608  20519698.31408  20519699.25408
   1633767.65907   1273072.37707  25664104.60407  25664109.35307
 -16910239.03908 -13176788.20708  22132594.18908  22132595.75308
 93 07 25 00 09 00.0000000  0  8 28 21 03 31 22 17 16 23
 -18660391.96808 -14540553.48508  21835802.40708  21835803.09408
  -7619047.44708  -5936906.51308  24135667.71808  24135671.37408
 -19341312.72508 -15071135.06308  22063506.68108  22063508.70608
   -434053.70407   -338223.46507  25062077.71907  25062080.30907
 -19896546.80608 -15503790.51908  21422909.47908  21422910.43108
 -25130988.77208 -19582565.16908  20536911.15808  20536912.06208
   1843284.46107   1436332.19707  25703974.52707  25703978.91907
 -17063907.54608 -13296529.80408  22103351.97308  22103353.52308
 93 07 25 00 10 00.0000000  0  8 28 21 03 31 22 17 16 23
 -18824094.42708 -14668113.80608  21804650.83108  21804651.45508
  -7846555.95608  -6114185.62708  24092374.06108  24092377.70208
 -19173027.85208 -14940004.05308  22095530.24108  22095532.32208
   -650950.21707   -507233.57707  25020803.79207  25020806.49207
 -19794323.73508 -15424136.23608  21442361.89208  21442362.87308
 -25038680.53808 -19510636.69308  20554476.85508  20554477.76808
   2053440.26707   1600089.93707  25743965.86507  25743970.15107
 -17216066.40708 -13415095.05508  22074397.04508  22074398.59208
 93 07 25 00 11 00.0000000  0  7 28 21 03 31 22 17 23
 -18986762.18408 -14794867.86708  21773696.20808  21773696.83508
  -8073756.95808  -6291225.11708  24049138.96508  24049142.50108
 -19003646.52408 -14808018.67208  22127762.51808  22127764.55908
   -867661.49907   -676099.40907  24979564.72707  24979567.43307
 -19690097.73208 -15342921.22008  21462195.43408  21462196.45808
 -24944419.37108 -19437186.45408  20572414.14508  20572415.06508
 -17366695.95408 -13532468.63408  22045733.12908  22045734.64808
 93 07 25 00 12 00.0000000  0  8 28 21 03 31 22 17 26 23
 -19148265.66808 -14920714.70308  21742963.07108  21742963.67808
  -8300423.12008  -6467847.84508  24006005.64708  24006009.06108
 -18833072.96208 -14675104.28608  22160221.54408  22160223.67408
  -1084017.05707   -844688.07607  24938393.57607  24938396.25307
 -19583741.85108 -15260046.55408  21482434.37308  21482435.36908
 -24848180.44008 -19362195.10308  20590727.81708  20590728.74508
        -0.33718        -0.49118  24350292.72218  24350295.10418
 -17515567.99408 -13648472.73408  22017403.63408  22017405.17208
 93 07 25 00 13 00.0000000  0  8 28 21 03 31 22 17 26 23
 -19308582.79308 -15045637.10408  21712455.71108  21712456.35508
  -8526512.39208  -6644021.04708  23962982.08708  23962985.41108
 -18661388.98708 -14541324.63908  22192892.07308  22192894.07608
  -1300187.24607  -1013132.24307  24897257.48407  24897260.28807
 -19475315.58708 -15175558.60608  21503067.24508  21503068.25908
 -24750148.51008 -19285806.61108  20609382.68708  20609383.58908
   -103921.76308    -80978.15508  24330517.16408  24330519.59608
 -17662639.73908 -13763074.00908  21989416.82108  21989418.29908
 93 07 25 00 14 00.0000000  0  8 28 21 03 31 22 17 26 23
 -19467739.35408 -15169655.16508  21682169.02808  21682169.68008
  -8752094.97908  -6819799.43508  23920054.92508  23920058.29708
 -18488651.96508 -14406724.44008  22225762.79608  22225764.94608
  -1516410.17507  -1181617.54307  24856111.83307  24856114.35607
 -19364898.15508 -15089519.09808  21524078.98908  21524080.01608
 -24650456.01308 -19208124.16908  20628353.56108  20628354.51008
   -206157.91008   -160642.59308  24311062.15708  24311064.49708
 -17807976.33608 -13876323.22608  21961760.13508  21961761.56508
 93 07 25 00 15 00.0000000  0  8 28 21 03 31 22 17 26 23
 -19625772.40208 -15292797.76708  21652096.41508  21652097.04108
  -8977260.38608  -6995252.76208  23877207.24208  23877210.54908
 -18314850.08608 -14271294.48808  22258836.36408  22258838.31308
  -1732680.86607  -1350140.05607  24814956.77907  24814959.26207
 -19252530.85808 -15001960.20908  21545461.77308  21545462.82908
 -24549049.08608 -19129105.81408  20647650.72708  20647651.68908
   -306662.64608   -238957.86008  24291936.45508  24291938.97408
 -17951651.15508 -13988277.55808  21934419.69408  21934421.04908
 93 07 25 00 16 00.0000000  0  8 28 21 03 31 22 17 26 23
 -19782627.17208 -15415022.23508  21622247.93208  21622248.55708
  -9201941.18708  -7170328.47808  23834451.69708  23834454.96508
 -18139919.85608 -14134985.29808  22292124.47708  22292126.73608
  -1948730.44607  -1518490.26707  24773843.77807  24773846.55207
 -19138160.06708 -14912840.15708  21567225.88108  21567226.92908
 -24445797.37008 -19048649.96408  20667298.90308  20667299.85608
   -405352.77608   -315859.13008  24273156.43608  24273158.82008
 -18093626.05308 -14098907.28008  21907402.69408  21907404.00808
 93 07 25 00 17 00.0000000  0  8 28 21 03 31 22 17 26 23
 -19938209.66808 -15536255.32108  21592641.58308  21592642.22308
  -9426020.57408  -7344935.57608  23791810.62608  23791813.81108
 -17963856.29608 -13997793.00808  22325628.43408  22325630.49908
  -2164368.32307  -1686519.69107  24732809.16907  24732811.78907
 -19021757.53708 -14822136.93008  21589376.60408  21589377.65108
 -24340698.07008 -18966754.43508  20687298.68308  20687299.60008
   -502159.77908   -391293.04808  24254734.62608  24254736.93708
 -18233826.91508 -14208154.63408  21880723.36408  21880724.71608
 93 07 25 00 18 00.0000000  0  8 28 21 03 31 22 17 26 23
 -20092558.98108 -15656527.47508  21563269.64408  21563270.23708
  -9649493.11008  -7519069.81908  23749285.08608  23749288.21308
 -17786721.61808 -13859766.05208  22359335.99508  22359338.14308
  -2379635.37507  -1854260.14007  24691845.06907  24691847.79307
 -18903354.62408 -14729874.96208  21611907.88208  21611908.90608
 -24233870.34608 -18883512.08008  20707627.33308  20707628.25308
   -597064.87308   -465244.93908  24236674.55708  24236676.91808
 -18372268.16608 -14316030.85908  21854378.78808  21854380.13508
 93 07 25 00 19 00.0000000  0  8 28 21 03 31 22 17 26 23
 -20245766.60708 -15775909.99308  21534115.14108  21534115.71908
  -9872438.98208  -7692793.67808  23706859.84308  23706862.87008
 -17608572.12908 -13720948.36108  22393236.75508  22393239.05108
  -2594732.52807  -2021868.19307  24650913.55007  24650915.96307
 -18782962.45708 -14636062.93308  21634817.88208  21634818.88308
 -24125375.74308 -18798970.85708  20728273.12208  20728274.10008
   -690167.65808   -537792.41608  24218957.59508  24218959.96108
 -18509024.65308 -14422594.28408  21828354.83608  21828356.13708
 93 07 25 00 20 00.0000000  0  8 28 21 03 31 22 17 26 23
 -20397781.53208 -15894363.13408  21505187.73908  21505188.29708
 -10094854.27508  -7866104.09808  23664535.36108  23664538.46508
 -17429394.10908 -13581329.21508  22427333.29608  22427335.51108
  -2809709.61408  -2189382.67707  24610004.58708  24610007.12507
 -18660599.78808 -14540715.45208  21658102.74908  21658103.77108
 -24015193.55508 -18713114.63208  20749240.11708  20749241.13108
   -781523.61608   -608978.75008  24201573.08008  24201575.27808
 -18644071.03708 -14527825.15808  21802656.28808  21802657.59008
 93 07 25 00 21 00.0000000  0  8 28 21 03 31 22 17 26 23
 -20548504.46808 -16011809.53608  21476506.17608  21476506.64808
 -10316620.99408  -8038909.12008  23622334.39808  23622337.47808
 -17249157.94908 -13440885.53808  22461631.11108  22461633.35408
  -3024477.46308  -2356734.13807  24569135.43008  24569137.96407
 -18536350.81308 -14443898.12508  21681746.63208  21681747.66108
 -23903288.36408 -18625915.80808  20770535.00808  20770535.99008
   -871085.14908   -678766.84308  24184529.96408  24184532.12808
 -18777326.80308 -14631660.74208  21777298.46908  21777299.82808
 93 07 25 00 22 00.0000000  0  8 28 21 03 31 22 17 26 23
 -20697882.38508 -16128207.88108  21448080.49108  21448080.92808
 -10537655.80408  -8211143.80808  23580272.80108  23580275.69708
 -17067834.71708 -13299594.80708  22496135.85608  22496138.04808
  -3238895.43908  -2523812.95008  24528333.16608  24528335.80008
 -18410236.37008 -14345627.18108  21705745.39308  21705746.43008
 -23789577.25008 -18537309.76808  20792173.52408  20792174.47308
   -958677.52308   -747020.52608  24167861.51208  24167863.65308
 -18908681.05608 -14734014.62608  21752302.58508  21752303.85708
 93 07 25 00 23 00.0000000  0  8 28 21 03 31 22 17 26 23
 -20846037.64708 -16243653.51108  21419887.54308  21419887.94308
 -10758019.40108  -8382855.46908  23538338.85008  23538341.67408
 -16885496.64508 -13157513.26808  22530833.75608  22530835.91608
  -3453038.80708  -2690677.81108  24487582.96308  24487585.43108
 -18282248.91108 -14245896.76508  21730100.60208  21730101.68208
 -23674137.93608 -18447357.08308  20814140.90308  20814141.88308
  -1044277.19708   -813721.47508  24151572.43408  24151574.55208
 -19038057.18008 -14834827.11908  21727683.06308  21727684.25908
 93 07 25 00 24 00.0000000  0  8 28 21 03 31 22 17 26 23
 -20992956.56908 -16358135.75808  21391929.74608  21391930.12808
 -10977720.74808  -8554051.09108  23496530.89508  23496533.58908
 -16702136.49108 -13014635.32708  22565726.08508  22565728.40808
  -3666913.76708  -2857333.46608  24446883.71608  24446886.15208
 -18152310.46508 -14144646.08808  21754827.11408  21754828.23508
 -23556962.41908 -18356051.51408  20836438.68308  20836439.70708
  -1127876.46908   -878863.68708  24135663.98708  24135665.98608
 -19165417.08508 -14934068.53508  21703447.18508  21703448.38808
 93 07 25 00 25 00.0000000  0  8 28 21 03 31 22 17 26 23
 -21138613.87408 -16471634.92808  21364212.03908  21364212.46108
 -11196792.63908  -8724756.23008  23454842.68208  23454845.38608
 -16517833.05708 -12871022.36908  22600797.93608  22600800.20708
  -3880585.99908  -3023831.17508  24406223.06208  24406225.56308
 -18020500.90008 -14041937.39708  21779909.70308  21779910.81008
 -23438132.34908 -18263456.68708  20859051.33708  20859052.36208
  -1209603.24808   -942546.81908  24120111.84708  24120113.87508
 -19290910.64408 -15031855.65808  21679566.50108  21679567.72508
 93 07 25 00 26 00.0000000  0  8 28 21 03 31 22 17 26 23
 -21282881.62908 -16584051.33808  21336758.80808  21336759.19208
 -11415155.91108  -8894909.20608  23413289.32708  23413292.06208
 -16332571.19708 -12726662.56108  22636052.16008  22636054.45508
  -4093939.14208  -3190080.26408  24365623.32308  24365625.68308
 -17886856.34308 -13937798.83408  21805341.46608  21805342.58908
 -23317696.78308 -18169610.82608  20881969.50708  20881970.49208
  -1289471.40608  -1004781.67808  24104913.46008  24104915.50108
 -19414649.55008 -15128275.52808  21656019.78508  21656020.96608
 93 07 25 00 27 00.0000000  0  8 28 21 03 31 22 17 26 23
 -21425687.39808 -16695328.54308  21309583.70908  21309584.18208
 -11632713.36708  -9064434.28708  23371889.33208  23371892.02008
 -16146308.99208 -12581523.27608  22671496.76008  22671499.22408
  -4306837.11608  -3355974.65008  24325109.88908  24325112.32308
 -17751427.86908 -13832270.22008  21831112.69008  21831113.81708
 -23195731.22108 -18074572.75908  20905178.80708  20905179.84508
  -1367421.08208  -1065521.61408  24090080.11408  24090082.06008
 -19536594.22808 -15223297.30208  21632814.42808  21632815.61308
 93 07 25 00 28 00.0000000  0  8 28 21 03 31 22 17 26 23
 -21567094.69608 -16805516.03208  21282674.66708  21282675.16508
 -11849479.49708  -9233342.76608  23330639.99008  23330642.59008
 -15959050.34108 -12435607.55908  22707130.91008  22707133.38808
  -4519351.16108  -3521569.88108  24284669.84508  24284672.26708
 -17614255.18408 -13725382.47608  21857215.84908  21857217.00408
 -23072272.57008 -17978371.24408  20928672.18808  20928673.24208
  -1443422.83608  -1124743.69908  24075617.24708  24075619.30308
 -19656650.56908 -15316847.65108  21609968.32508  21609969.51408
 93 07 25 00 29 00.0000000  0  8 28 21 03 31 22 26 17 23
 -21707125.13108 -16914630.63308  21256027.87808  21256028.40208
 -12065456.23108  -9401636.15108  23289540.87908  23289543.42208
 -15770785.54408 -12288907.81408  22742956.62408  22742958.99508
  -4731558.33608  -3686925.99508  24244288.13308  24244290.49008
 -17475275.34508 -13617086.56808  21883662.88908  21883664.04908
  -1517417.15308  -1182401.54208  24061536.63108  24061538.76108
 -22947194.44708 -17880907.80308  20952473.77208  20952474.89408
 -19774751.02608 -15408873.94208  21587494.60808  21587495.72008
 93 07 25 00 30 00.0000000  0  8 28 21 03 31 22 17 26 23
 -21845687.49408 -17022601.27308  21229660.29608  21229660.81208
 -12280598.13008  -9569279.02008  23248600.62808  23248603.13708
 -15581508.45008 -12141419.27208  22778974.97408  22778977.56508
  -4943398.23208  -3851995.95408  24203976.23608  24203978.53208
 -17334421.38108 -13507330.30308  21910466.50808  21910467.71308
 -22820362.63208 -17782077.85108  20976609.04808  20976610.17308
  -1589323.73608  -1238432.59208  24047853.22908  24047855.24708
 -19890835.83008 -15499329.59308  21565404.41908  21565405.52008
 93 07 25 00 31 00.0000000  0  8 28 21 03 31 22 17 26 23
 -21982770.75308 -17129419.36308  21203574.07808  21203574.60608
 -12494939.39808  -9736298.02908  23207812.74408  23207815.24108
 -15391281.57208 -11993190.65708  22815173.99208  22815176.50008
  -5154806.78508  -4016729.80708  24163746.56708  24163748.70308
 -17191774.19508 -13396176.71408  21937611.44308  21937612.69808
 -22691854.52408 -17681941.69908  21001063.41608  21001064.56408
  -1659173.45708  -1292860.90408  24034561.22208  24034563.21408
 -20004893.81408 -15588205.90308  21543699.85508  21543700.97408
 93 07 25 00 32 00.0000000  0  8 28 21 03 31 22 17 26 23
 -22118433.46208 -17235130.53008  21177758.36608  21177758.87508
 -12708496.01308  -9902705.62308  23167174.10408  23167176.57908
 -15200147.12508 -11844254.82408  22851545.75708  22851548.16308
  -5365756.49108  -4181106.11708  24123604.03108  24123606.29008
 -17047395.87908 -13283674.20208  21965085.82008  21965087.06308
 -22561821.86908 -17580617.58608  21025807.82208  21025808.94008
  -1727025.48308  -1345732.56408  24021649.34408  24021651.45208
 -20116944.68108 -15675518.22208  21522377.21008  21522378.34208
 93 07 25 00 33 00.0000000  0  8 28 21 03 31 22 17 26 23
 -22252714.83708 -17339765.33608  21152205.41308  21152205.92008
 -12921249.48508 -10068487.39808  23126688.40708  23126690.85608
 -15008107.66208 -11694613.78308  22888089.76808  22888092.30308
  -5576319.86008  -4345181.36808  24083535.13708  24083537.35408
 -16901273.72108 -13169812.84608  21992892.00308  21992893.22408
 -22430305.93908 -17478137.68208  21050834.57308  21050835.64908
  -1792859.33808  -1397031.62708  24009121.53008  24009123.65108
 -20227092.38408 -15761347.55708  21501416.77508  21501417.88408
 93 07 25 00 34 00.0000000  0  8 28 21 03 31 22 17 26 23
 -22385587.18808 -17443302.20008  21126920.68608  21126921.18808
 -13133096.89808 -10233563.16108  23086375.10208  23086377.45708
 -14815163.21008 -11544267.57908  22924805.94508  22924808.56708
  -5786590.04308  -4509028.16208  24043521.97908  24043524.19208
 -16753445.52108 -13054622.10608  22021022.80708  22021024.02908
 -22297290.76408 -17374489.53508  21076146.45708  21076147.55108
  -1856646.98508  -1446736.24208  23996983.02208  23996985.14308
 -20335334.01308 -15845691.64308  21480819.00108  21480820.12308
 93 07 25 00 35 00.0000000  0  8 28 21 03 31 22 17 26 23
 -22516978.01208 -17545684.62908  21101917.87408  21101918.38108
 -13343985.51208 -10397891.81708  23046244.17308  23046246.50108
 -14621301.14908 -11393206.33808  22961696.76708  22961699.28508
  -5996521.52108  -4672611.01308  24003573.21208  24003575.37508
 -16603882.92508 -12938079.88908  22049483.67108  22049484.92908
 -22162755.58208 -17269656.97108  21101747.67708  21101748.81808
  -1918307.36708  -1494783.24808  23985249.50308  23985251.64708
 -20441572.09308 -15928474.52108  21460602.55908  21460603.65108
 93 07 25 00 36 00.0000000  0  8 28 21 03 31 22 17 26 23
 -22646891.58208 -17646915.95408  21077196.10308  21077196.59908
 -13553923.65408 -10561479.85208  23006294.18308  23006296.45708
 -14426526.10108 -11241433.68608  22998761.33708  22998763.95708
  -6206004.22208  -4835844.15808  23963709.80308  23963711.98408
 -16452579.10108 -12820180.88908  22078275.89708  22078277.24608
 -22026703.52008 -17163642.42608  21127637.67308  21127638.81408
  -1977897.22208  -1541216.85908  23973909.87908  23973911.99008
 -20545739.17208 -16009643.63708  21440780.26608  21440781.33908
 93 07 25 00 37 00.0000000  0  8 28 21 03 31 22 17 26 23
 -22775386.46808 -17747041.81508  21052744.23208  21052744.73108
 -13762931.81808 -10724343.22908  22966521.14008  22966523.33408
 -14230850.63108 -11088959.42208  23035997.25408  23035999.87008
  -6414928.11508  -4998641.86008  23923952.73408  23923954.88608
 -16299605.19208 -12700980.52108  22107385.88808  22107387.25808
 -21889159.76908 -17056465.52208  21153811.36908  21153812.50308
  -2035480.37108  -1586086.81608  23962952.13508  23962954.22408
 -20647869.14008 -16089225.40008  21421345.49708  21421346.57308
 93 07 25 00 38 00.0000000  0  8 28 21 03 31 22 17 26 23
 -22902379.68608 -17845997.54708  21028578.23808  21028578.74608
 -13971032.20108 -10886499.26408  22926920.90608  22926923.10508
 -14034275.67708 -10935784.26008  23073404.35008  23073406.91508
  -6623296.95508  -5161007.04608  23884301.38108  23884303.38708
 -16145073.58808 -12580566.36608  22136792.29808  22136793.69208
 -21750178.42008 -16948168.41308  21180258.60108  21180259.73308
  -2090967.55408  -1629323.55208  23952393.18008  23952395.29208
 -20747962.60108 -16167220.27308  21402298.28908  21402299.39508
 93 07 25 00 39 00.0000000  0  8 28 21 03 31 22 17 26 23
 -23027744.81308 -17943684.63608  21004721.98808  21004722.48908
 -14178194.30508 -11047924.17908  22887499.19708  22887501.34108
 -13836795.49508 -10781903.72108  23110983.59108  23110986.16208
  -6831142.20608  -5322964.24408  23844749.65108  23844751.70608
 -15988949.56708 -12458911.37308  22166501.85008  22166503.24108
 -21609706.75808 -16838710.02008  21206989.50508  21206990.69208
  -2144270.29308  -1670858.12208  23942250.00108  23942252.06408
 -20846000.21508 -16243613.18708  21383642.38508  21383643.47108
 93 07 25 00 40 00.0000000  0  8 21 03 31 22 17 26 28 23
 -14384369.00708 -11208579.67208  22848265.37808  22848267.53908
 -13638463.68408 -10627359.57208  23148725.02208  23148727.64108
  -7038500.82208  -5484542.25408  23805290.61808  23805292.54408
 -15831223.74708 -12336008.22708  22196516.11508  22196517.49408
 -21467705.47808 -16728059.71908  21234011.41808  21234012.66908
  -2195405.33408  -1710703.57708  23932519.44308  23932521.38108
 -23151480.80908 -18040102.26908  20981175.78108  20981176.24508
 -20941951.32908 -16318380.25608  21365383.45908  21365384.50308
 93 07 25 00 41 00.0000000  0  8 21 03 31 22 17 26 28 23
 -14589392.15708 -11368337.85208  22809250.69708  22809252.75608
 -13439281.46308 -10472152.77008  23186628.34908  23186631.01508
  -7245415.31608  -5645774.19908  23765915.97208  23765917.85208
 -15671857.08208 -12211826.49508  22226842.61908  22226844.05908
 -21324216.93008 -16616250.50608  21261316.46408  21261317.69908
  -2244389.08308  -1748872.68408  23923198.11708  23923200.12908
 -23273630.02808 -18135283.45408  20957931.51308  20957931.98708
 -21035727.58908 -16391452.63208  21347538.43508  21347539.45108
 93 07 25 00 42 00.0000000  0  8 21 03 31 22 17 26 28 23
 -14793290.44108 -11527219.51708  22770449.96908  22770452.03508
 -13239277.68208 -10316305.80408  23224687.78508  23224690.58308
  -7451938.37008  -5806701.13708  23726615.93708  23726617.77108
 -15510918.39708 -12086419.80808  22257468.26308  22257469.75608
 -21179373.54508 -16503385.57508  21288879.24708  21288880.45408
  -2291277.73708  -1785409.26708  23914275.56708  23914277.35608
 -23394250.29508 -18229273.25308  20934978.33408  20934978.79108
 -21127380.30908 -16462870.29908  21330097.43408  21330098.39908
 93 07 25 00 43 00.0000000  0  8 21 03 31 22 17 26 28 23
 -14996167.58308 -11685305.48708  22731843.58908  22731845.69408
 -13038469.22708 -10159831.84208  23262900.32908  23262903.19508
  -7657956.16408  -5967234.36008  23687411.88408  23687413.73508
 -15348474.10008 -11959839.92508  22288380.46308  22288381.94408
 -21033256.60208 -16389528.26408  21316684.45808  21316685.68908
  -2336089.46708  -1820327.47208  23905748.26708  23905750.12508
 -23513302.55008 -18322041.22708  20912323.48108  20912323.93908
 -21217012.38208 -16532713.43808  21313041.04908  21313042.01608
 93 07 25 00 44 00.0000000  0  8 21 03 31 22 17 26 28 23
 -15198041.25908 -11842609.53308  22693428.20708  22693430.38008
 -12836850.37408 -10002726.37808  23301267.34908  23301269.99008
  -7863276.29108  -6127223.95408  23648340.65508  23648342.52208
 -15184513.25208 -11832078.31408  22319581.29608  22319582.76508
 -20885798.38808 -16274625.80608  21344744.87708  21344746.10908
  -2378762.70808  -1853579.30308  23897627.75508  23897629.69808
 -23630765.67508 -18413570.92008  20889970.91708  20889971.33108
 -21304682.07308 -16601027.45108  21296357.98608  21296358.96008
 93 07 25 00 45 00.0000000  0  8 21 03 31 22 17 26 28 23
 -15398852.27508 -11999085.53308  22655215.07008  22655217.22508
 -12634411.94408  -9844982.25508  23339790.30608  23339792.96508
  -8067874.40108  -6286650.95408  23609406.87008  23609408.69008
 -15018993.80208 -11703102.21608  22351078.70808  22351080.21008
 -20736920.79108 -16158617.34908  21373075.47808  21373076.71008
  -2419240.60208  -1885120.48808  23889925.05008  23889926.86308
 -23746600.39509 -18503831.72708  20867928.19809  20867928.60908
 -21390293.72608 -16667737.80108  21280066.58808  21280067.57808
 93 07 25 00 46 00.0000000  0  8 21 03 31 22 17 26 28 23
 -15598485.44008 -12154643.73308  22617226.12508  22617228.18808
 -12431089.85908  -9686549.59008  23378481.32708  23378484.08708
  -8271798.25008  -6445552.56108  23570601.38908  23570603.27608
 -14851883.54708 -11572886.54308  22382878.78108  22382880.33708
 -20586573.45608 -16041463.63808  21401685.61208  21401686.87908
  -2457498.91208  -1914932.13308  23882644.63308  23882646.53508
 -23860661.45009 -18592710.45708  20846223.24109  20846223.67008
 -21473652.00408 -16732692.28008  21264204.08908  21264205.00808
 93 07 25 00 47 00.0000000  0  8 21 03 31 22 17 26 28 23
 -15797009.95708 -12309338.05408  22579448.05808  22579450.07108
 -12226964.38308  -9527490.92908  23417325.12008  23417328.05608
  -8475189.84308  -6604039.40808  23531897.11508  23531898.98408
 -14683366.38908 -11441574.58608  22414946.57808  22414948.14808
 -20434886.94908 -15923266.42108  21430550.61008  21430551.91008
  -2493629.25708  -1943085.61408  23875769.24908  23875771.14608
 -23972994.51709 -18680242.70508  20824846.84409  20824847.30608
 -21554781.65408 -16795910.17208  21248765.60208  21248766.54008
 93 07 25 00 48 00.0000000  0  8 21 03 31 22 17 26 28 23
 -15994439.70508 -12463179.30608  22541878.30008  22541880.27008
 -12022084.57608  -9367844.48408  23456312.48208  23456315.65708
  -8678080.70908  -6762136.07108  23493288.25108  23493290.07008
 -14513488.39208 -11309202.22408  22447273.44108  22447274.99808
 -20281917.10408 -15804069.20208  21459659.85408  21459661.12308
  -2527622.78308  -1969574.05108  23869300.44808  23869302.20708
 -24083683.95309 -18766494.20108  20803783.41609  20803783.81708
 -21633779.66708 -16857467.04908  21233732.77408  21233733.72208
 93 07 25 00 49 00.0000000  0  8 21 03 31 22 17 26 28 23
 -16190628.89008 -12616053.88408  22504544.65008  22504546.63508
 -11816419.71008  -9207586.30808  23495449.40508  23495452.40908
  -8880357.71508  -6919754.39608  23454796.00908  23454797.80508
 -14342148.81408 -11175690.99608  22479878.39008  22479879.96808
 -20127652.45308 -15683863.04508  21489015.45608  21489016.77308
  -2559371.04208  -1994312.93308  23863258.92008  23863260.87208
 -24192759.22609 -18851487.90708  20783026.99009  20783027.44108
 -21710609.96208 -16917334.79508  21219112.44308  21219113.42308
 93 07 25 00 50 00.0000000  0  8 21 03 31 22 17 26 28 23
 -16385563.68608 -12767951.02708  22467449.75808  22467451.66908
 -11609983.15508  -9046726.81108  23534733.09908  23534736.11508
  -9081940.54008  -7076831.78008  23416435.94508  23416437.69008
 -14169333.91408 -11041030.13608  22512764.00108  22512765.66908
 -19972098.66208 -15562652.36008  21518616.43708  21518617.75508
  -2588827.35608  -2017265.88308  23857653.57108  23857655.46308
 -24300217.97509 -18935221.98308  20762578.32909  20762578.74508
 -21785211.64508 -16975465.95908  21204916.17208  21204917.14308
 93 07 25 00 51 00.0000000  0  8 21 03 31 22 17 28 26 23
 -16579308.89308 -12918921.22108  22430581.18208  22430583.11708
 -11402811.09108  -8885294.19308  23574156.74608  23574159.84408
  -9282841.56708  -7233377.90008  23378205.70808  23378207.47708
 -13995151.55408 -10905303.73408  22545909.86408  22545911.61108
 -19815252.67608 -15440434.76308  21548463.28608  21548464.55808
 -24406028.72709 -19017671.90908  20742443.18509  20742443.58908
  -2616026.49108  -2038460.00108  23852477.70508  23852479.58008
 -21857612.11008 -17031881.88808  21191138.77108  21191139.74308
 93 07 25 00 52 00.0000000  0  8 21 03 31 22 17 28 26 23
 -16771868.14108 -13068967.28908  22393938.30508  22393940.21608
 -11194922.96008  -8723303.60208  23613716.65008  23613719.76108
  -9483135.31208  -7389450.82108  23340090.93208  23340092.55108
 -13819652.67108 -10768551.47008  22579306.25008  22579308.00508
 -19657179.63508 -15317261.03008  21578543.61708  21578544.99908
 -24510110.62409 -19098774.67608  20722637.00309  20722637.37908
  -2640994.21608  -2057915.36908  23847726.64208  23847728.39708
 -21927887.75908 -17086642.11808  21177765.81208  21177766.75908
 93 07 25 00 53 00.0000000  0  8 21 03 31 22 17 28 26 23
 -16963173.38608 -13218036.21808  22357534.14608  22357535.95408
 -10986289.54608  -8560732.28508  23653418.44208  23653421.52008
  -9682730.83008  -7544979.67608  23302109.11408  23302110.76208
 -13642762.24308 -10630714.90008  22612967.51108  22612969.28008
 -19497903.77208 -15193150.03208  21608852.84808  21608854.22208
 -24612402.14509 -19178482.34408  20703171.65309  20703172.03808
  -2663766.35908  -2075659.89608  23843393.10308  23843395.02108
 -21996023.16508 -17139734.62908  21164800.03008  21164800.98108
 93 07 25 00 54 00.0000000  0  8 21 03 31 22 17 28 26 23
 -17153230.46308 -13366132.55108  22321367.42808  22321369.20608
 -10776895.62408  -8397568.35208  23693264.89408  23693268.10408
  -9881539.76608  -7699895.63608  23264276.97308  23264278.58408
 -13464491.99008 -10491803.13108  22646891.26208  22646893.06508
 -19337390.79008 -15068075.04308  21639397.52308  21639398.93508
 -24712878.92009 -19256775.92208  20684051.72809  20684052.08608
  -2684371.89408  -2091716.15408  23839472.07008  23839473.77408
 -22061948.95708 -17191105.35908  21152254.73008  21152255.69108
 93 07 25 00 55 00.0000000  0  8 21 03 31 22 17 28 26 23
 -17342039.49008 -13513256.37708  22285438.20708  22285439.89508
 -10566770.24208  -8233834.46308  23733250.57508  23733253.78008
 -10079592.11908  -7854222.06108  23226588.84708  23226590.39208
 -13284967.06308 -10351913.69608  22681053.88608  22681055.67308
 -19175593.74108 -14941999.48008  21670186.53908  21670187.97608
 -24811526.45609 -19333644.12108  20665279.64409  20665279.98308
  -2702848.38908  -2106113.43508  23835956.01208  23835957.86908
 -22125658.10308 -17240748.83108  21140131.30008  21140132.23608
 93 07 25 00 56 00.0000000  0  8 21 03 31 22 17 28 26 23
 -17529560.61308 -13659376.64008  22249754.02008  22249755.70808
 -10355938.17408  -8069549.93108  23773370.63708  23773374.01808
 -10276959.59908  -8008014.82508  23189030.95608  23189032.52708
 -13104207.67808 -10211062.35108  22715451.31108  22715453.11308
 -19012531.39508 -14814937.96908  21701216.31008  21701217.72308
 -24908334.97909 -19409079.32408  20646857.41709  20646857.74108
  -2719119.63608  -2118792.32608  23832859.72308  23832861.53308
 -22187198.10408 -17288702.05508  21128420.60908  21128421.53708
 93 07 25 00 57 00.0000000  0  8 21 03 31 22 17 28 26 23
 -17715667.51408 -13804394.90808  22214339.01008  22214340.67508
 -10144351.43108  -7904677.32508  23813634.43408  23813637.85708
 -10473542.08708  -8161195.89408  23151622.44008  23151624.05708
 -12922099.09208 -10069159.69508  22750105.53708  22750107.38408
 -18848194.08708 -14686882.98108  21732488.68308  21732490.15308
 -25003243.74209 -19483034.19508  20628796.95709  20628797.25808
  -2732994.02108  -2129603.55408  23830219.47908  23830221.28308
 -22246492.98708 -17334905.83608  21117137.11308  21117137.97008
 93 07 25 00 58 00.0000000  0  8 21 03 31 22 17 28 26 23
 -17900375.11608 -13948322.81408  22179190.23508  22179191.89508
  -9932060.85608  -7739256.27408  23854032.01408  23854035.54408
 -10669273.50408  -8313713.78908  23114376.00308  23114377.46908
 -12738682.15508  -9926237.52008  22785008.72508  22785010.57608
 -18682685.14608 -14557915.04808  21763984.07108  21763985.47208
 -25096375.00409 -19555603.99908  20611074.57209  20611074.86908
  -2744479.14808  -2138553.02608  23828034.07508  23828035.87608
 -22303530.33608 -17379350.50108  21106283.25108  21106284.12608
 93 07 25 00 59 00.0000000  0  8 23 21 03 31 22 28 17 26
 -22358382.47608 -17422092.41108  21095845.27108  21095846.15508
 -18083707.99408 -14091179.50008  22144303.02308  22144304.64908
  -9719150.30808  -7573352.13208  23894547.64908  23894551.18308
 -10864256.65008  -8465648.61508  23077271.87608  23077273.44908
 -12554031.64508  -9782354.11708  22820146.58508  22820148.46008
 -25187807.18109 -19626849.84008  20593675.66209  20593675.91908
 -18516106.63808 -14428113.67808  21795682.96308  21795684.43408
  -2753714.96608  -2145749.79108  23826276.51408  23826278.40508
 93 07 25 01 00 00.0000000  0  8 23 21 03 31 22 28 17 26
 -22411071.28708 -17463148.61408  21085818.90908  21085819.81508
 -18265697.26508 -14232989.22508  22109671.56508  22109673.22808
  -9505602.83008  -7406951.68708  23935184.70408  23935188.06708
 -11058502.30508  -8617008.77308  23040308.15908  23040309.63008
 -12368168.22608  -9637525.60208  22855515.33108  22855517.25508
 -25277429.90109 -19696685.71209  20576621.10609  20576621.36509
 -18348413.10308 -14297443.45908  21827594.04508  21827595.53208
  -2760769.29708  -2151246.70008  23824934.15008  23824935.87308
 93 07 25 01 01 00.0000000  0  8 23 21 03 31 22 28 17 26
 -22461562.23108 -17502492.20008  21076210.75108  21076211.67208
 -18446365.56408 -14373769.63108  22075291.41308  22075293.09308
  -9291396.66208  -7240037.94407  23975946.89508  23975950.31207
 -11252010.36008  -8767794.17608  23003484.64508  23003486.06008
 -12181158.78408  -9491804.08908  22891102.15108  22891104.01708
 -25365148.68409 -19765037.99709  20559928.71509  20559928.99809
 -18179564.46208 -14165873.15608  21859724.82808  21859726.33508
  -2765650.58808  -2155050.33508  23824005.23008  23824007.14508
 93 07 25 01 02 00.0000000  0  8 23 21 03 31 22 28 17 26
 -22509701.05808 -17540002.97008  21067050.23008  21067051.16108
 -18625619.63008 -14513448.04308  22041180.46508  22041182.13408
  -9076464.38708  -7072558.40107  24016847.13708  24016850.71507
 -11444648.05008  -8917901.37208  22966826.86208  22966828.24308
 -11993013.47308  -9345197.48708  22926905.14108  22926907.04108
 -25450932.02209 -19831882.14509  20543604.66909  20543604.97109
 -18009561.26908 -14033403.20608  21892075.41508  21892076.99608
  -2768230.37808  -2157060.58108  23823514.29608  23823516.26208
 93 07 25 01 03 00.0000000  0  8 23 21 03 31 22 28 17 26
 -22555527.18908 -17575711.64208  21058329.83108  21058330.77408
 -18803406.72308 -14651983.37008  22007348.60208  22007350.33808
  -8860849.02108  -6904546.59707  24057877.45908  24057881.20907
 -11636338.10508  -9067270.15908  22930349.33308  22930350.74508
 -11803730.65308  -9197704.51208  22962924.57908  22962926.54708
 -25534847.31409 -19897270.67509  20527636.12709  20527636.45109
 -17838492.43708 -13900102.88408  21924628.79008  21924630.39708
  -2768477.30308  -2157253.01808  23823467.41808  23823469.24808
 93 07 25 01 04 00.0000000  0  8 23 21 03 31 22 28 17 26
 -22599187.92708 -17609732.99908  21050021.43808  21050022.39008
 -18979676.69808 -14789336.53508  21973805.46208  21973807.20908
  -8644611.23108  -6736049.77508  24099026.44708  24099030.04208
 -11827060.04408  -9215884.58008  22894056.13608  22894057.59908
 -11613279.31908  -9049301.01308  22999166.26108  22999168.26708
 -25616877.90109 -19961190.60809  20512026.07609  20512026.37809
 -17666400.23108 -13766005.13208  21957376.91408  21957378.54208
  -2766410.98808  -2155642.91008  23823860.49308  23823862.53708
 93 07 25 01 05 00.0000000  0  8 23 21 03 31 22 28 17 26
 -22640670.15508 -17642056.81808  21042127.68508  21042128.60708
 -19154419.94108 -14925500.02108  21940552.93108  21940554.59908
  -8427765.29508  -6567079.07908  24140290.92008  24140294.71808
 -12016823.99908  -9363752.52108  22857945.23108  22857946.63308
 -11421677.51508  -8900001.03408  23035627.12108  23035629.10308
 -25696901.72709 -20023546.82709  20496798.10209  20496798.40409
 -17493234.11908 -13631070.57408  21990329.42508  21990330.97808
  -2762120.50808  -2152299.69408  23824677.13608  23824679.09608
 93 07 25 01 06 00.0000000  0  8 23 21 03 31 22 28 17 26
 -22679893.74708 -17672620.66508  21034663.58108  21034664.56608
 -19327747.30908 -15060560.24108  21907569.79608  21907571.38908
  -8210357.61708  -6397670.67507  24181662.35808  24181666.18707
 -12205802.00808  -9511008.03908  22821983.84908  22821985.21108
 -11229017.98608  -8749876.86408  23072289.09008  23072291.14508
 -25774968.65509 -20084378.18809  20481942.45809  20481942.74409
 -17319020.00208 -13495319.38808  22023481.28208  22023482.94008
  -2755692.56708  -2147290.93008  23825900.14108  23825902.19408
 93 07 25 01 07 00.0000000  0  8 23 21 03 31 28 22 17 26
 -22716774.82908 -17701359.17908  21027645.46108  21027646.43908
 -19499689.77808 -15194541.32508  21874850.20508  21874851.77908
  -7992348.29408  -6227793.44907  24223148.30708  24223152.00107
 -12393972.41008  -9657634.26108  22786176.14208  22786177.50808
 -25851170.10409 -20143755.93109  20467441.84309  20467442.12909
 -11035298.60908  -8598926.86908  23109152.76208  23109154.84508
 -17143714.34508 -13358717.65308  22056840.92708  22056842.48508
  -2747039.85308  -2140548.59508  23827546.77808  23827548.83308
 93 07 25 01 08 00.0000000  0  8 23 21 03 31 28 22 17 26
 -22751365.92508 -17728313.28308  21021062.98008  21021063.95208
 -19670113.14908 -15327338.69508  21842419.66608  21842421.23608
  -7773729.30108  -6057441.14207  24264750.22108  24264754.07007
 -12581230.58308  -9803549.65208  22750542.04008  22750543.44108
 -25925547.82109 -20201712.58509  20453288.22609  20453288.49709
 -10840528.60008  -8447158.17308  23146216.42708  23146218.51508
 -16967293.14008 -13221246.64908  22090412.80508  22090414.50508
  -2736057.23908  -2131990.76208  23829636.90208  23829638.85408
 93 07 25 01 09 00.0000000  0  8 23 21 03 31 28 22 17 26
 -22783714.43008 -17753519.91208  21014907.27408  21014908.23208
 -19838899.46808 -15458860.43408  21810300.65508  21810302.18608
  -7554506.26008  -5886618.15907  24306467.14208  24306470.93207
 -12767457.49108  -9948661.45708  22715104.21708  22715105.53508
 -25997965.95809 -20258142.29809  20439507.47709  20439507.74809
 -10644744.08608  -8294598.96608  23183473.12508  23183475.31108
 -16789732.61308 -13082887.88508  22124201.51808  22124203.13508
  -2722710.44108  -2121590.71008  23832176.70708  23832178.67908
 93 07 25 01 10 00.0000000  0  8 23 21 03 31 28 22 17 26
 -22813787.73208 -17776953.65408  21009184.49408  21009185.41908
 -20006023.64008 -15589086.99608  21778497.94508  21778499.48908
  -7334703.08708  -5715343.13107  24348294.38908  24348298.30407
 -12952686.49308 -10092995.66308  22679856.17108  22679857.54808
 -26068307.15009 -20312953.61309  20426122.11109  20426122.40209
 -10447999.29408  -8141291.50108  23220912.49508  23220914.76208
 -16611139.67108 -12943724.62208  22158186.68108  22158188.34108
  -2707084.68408  -2109414.85008  23835150.11608  23835152.06208
 93 07 25 01 11 00.0000000  0  8 23 21 03 31 28 22 17 26
 -22841605.80108 -17798630.07208  21003890.88708  21003891.83508
 -20171573.76008 -15718087.02308  21746994.67008  21746996.23808
  -7114369.91508  -5543655.12607  24390222.52108  24390226.40807
 -13136956.23108 -10236582.38808  22644790.83008  22644792.15208
 -26136620.36809 -20366184.68809  20413122.43409  20413122.71309
 -10250401.05508  -7987319.01208  23258514.26208  23258516.52108
 -16431645.74708 -12803859.31808  22192343.36408  22192345.01408
  -2689271.58708  -2095534.57408  23838539.94508  23838541.83208
 93 07 25 01 12 00.0000000  0  8 21 03 31 22 28 17 26 23
 -20335542.47408 -15845854.78508  21715792.45008  21715793.95508
  -6893468.01908  -5371523.97407  24432258.87508  24432262.82307
 -13320169.09008 -10379345.57608  22609926.46208  22609927.78408
 -10051844.88408  -7832600.05808  23296298.31908  23296300.60908
 -26202917.10609 -20417844.47509  20400506.42109  20400506.67709
 -16251171.11208 -12663229.81608  22226686.55908  22226688.19508
  -2669213.52108  -2079904.96008  23842357.05508  23842359.00308
 -22867166.94308 -17818547.84508  20999026.76308  20999027.68808
 93 07 25 01 13 00.0000000  0  8 21 03 31 22 28 17 26 23
 -20497943.34108 -15972400.84308  21684888.56108  21684890.04008
  -6672015.48908  -5198963.73107  24474400.09508  24474404.09407
 -13502369.33508 -10521319.71708  22575254.84608  22575256.12208
  -9852234.02108  -7677059.28708  23334283.10208  23334285.45408
 -26267207.53909 -20467940.90809  20388272.50909  20388272.76509
 -16069685.39008 -12521812.46208  22261222.19508  22261223.93808
  -2646869.90608  -2062494.37808  23846608.81408  23846610.75208
 -22890465.49008 -17836702.55908  20994593.21908  20994594.14208
 93 07 25 01 14 00.0000000  0  8 21 03 31 22 28 17 26 23
 -20658795.85108 -16097740.38808  21654279.24208  21654280.67808
  -6450036.17808  -5025992.99407  24516641.40208  24516645.40107
 -13683655.68308 -10662581.72708  22540757.15808  22540758.37908
  -9651644.14608  -7520755.65608  23372454.28208  23372456.65508
 -26329491.12609 -20516473.56109  20376420.31609  20376420.53909
 -15887311.17108 -12379702.76808  22295926.91708  22295928.62608
  -2622219.71308  -2043286.47408  23851299.68908  23851301.66008
 -22911469.78408 -17853069.54108  20990596.30508  20990597.17308
 93 07 25 01 15 00.0000000  0  8 21 03 31 22 28 17 26 23
 -20817996.09308 -16221792.45708  21623984.40108  21623985.84808
  -6227525.78808  -4852608.42907  24558983.86708  24558987.86007
 -13863954.31008 -10803074.08108  22506447.41908  22506448.60608
  -9450183.75908  -7363773.69008  23410791.03208  23410793.43808
 -26389787.96109 -20563458.09909  20364946.21709  20364946.44509
 -15704130.60608 -12236964.73908  22330785.11508  22330786.82808
  -2595264.92708  -2022282.78208  23856428.90308  23856430.91908
 -22930194.48608 -17867660.21908  20987033.09408  20987033.95608
 93 07 25 01 16 00.0000000  0  8 21 03 31 22 28 17 26 23
 -20975521.50008 -16344539.46508  21594008.30208  21594009.75508
  -6004516.98107  -4678835.49607  24601421.07707  24601425.26407
 -14043167.64408 -10942720.75608  22472344.22408  22472345.44808
  -9247969.48508  -7206204.28408  23449271.27008  23449273.68808
 -26448085.49009 -20608884.73909  20353852.55409  20353852.79209
 -15520073.30908 -12093543.55408  22365810.08708  22365811.79408
  -2566080.27908  -1999541.54408  23861982.50708  23861984.58008
 -22946721.34808 -17880538.29808  20983888.12008  20983888.97208
 93 07 25 01 17 00.0000000  0  8 21 03 31 22 28 17 26 23
 -21131310.23608 -16465933.22708  21564362.61908  21564364.06508
  -5780954.11907  -4504630.82507  24643963.84307  24643967.91307
 -14221160.09208 -11081416.10108  22438473.30108  22438474.47608
  -9044947.91008  -7048005.82508  23487905.15208  23487907.62108
 -26504241.67209 -20652642.79709  20343166.32809  20343166.59309
 -15334918.53608 -11949267.17508  22401043.96908  22401045.68508
  -2534648.13308  -1975048.99108  23867963.86308  23867965.91408
 -22960947.94208 -17891623.96408  20981180.95308  20981181.78808
 93 07 25 01 18 00.0000000  0  8 21 03 31 22 17 28 26 23
 -21285356.26108 -16585969.03908  21535048.60508  21535050.02808
  -5556856.98907  -4330009.85307  24686608.22007  24686612.45907
 -14397950.92808 -11219175.12308  22404831.12008  22404832.28308
  -8841063.35808  -6889134.92208  23526703.21108  23526705.72308
 -15148734.58808 -11804188.86908  22436473.63908  22436475.46308
 -26558214.28909 -20694699.37409  20332895.63609  20332895.94409
  -2500938.57808  -1948781.83708  23874378.69308  23874380.85808
 -22972877.59708 -17900919.80608  20978910.77008  20978911.60208
 93 07 25 01 19 00.0000000  0  8 21 03 31 22 17 28 26 23
 -21437732.79308 -16704703.94908  21506052.28308  21506053.65908
  -5332315.27707  -4155042.44907  24729337.18607  24729341.35207
 -14573640.16608 -11356075.75508  22371398.48608  22371399.60408
  -8636311.84108  -6729588.46108  23565666.29608  23565668.83608
 -14961777.91708 -11658508.43308  22472050.33208  22472052.06908
 -26610105.72509 -20735134.25109  20323021.10109  20323021.39409
  -2465002.18508  -1920779.48308  23881217.24908  23881219.37208
 -22982587.99708 -17908486.36308  20977062.98008  20977063.84108
 93 07 25 01 20 00.0000000  0  8 21 03 31 22 17 28 26 23
 -21588434.96308 -16822134.16508  21477374.53508  21477375.92708
  -5107319.24907  -3979721.00907  24772152.65907  24772156.88107
 -14748253.36808 -11492137.92108  22338170.63108  22338171.72208
  -8430697.27708  -6569369.49908  23604793.47708  23604796.11808
 -14774090.05108 -11512258.24208  22507766.21608  22507768.14308
 -26659919.29409 -20773950.01109  20313542.00009  20313542.27709
  -2426861.64108  -1891059.60308  23888475.13708  23888477.27308
 -22990082.46108 -17914326.21608  20975636.78408  20975637.70508
 93 07 25 01 21 00.0000000  0  8 21 03 31 22 17 28 26 23
 -21737418.43808 -16938225.14808  21449023.86008  21449025.25508
  -4881877.73807  -3804052.44007  24815052.92007  24815057.21007
 -14921763.01308 -11627340.17208  22305152.83308  22305153.88108
  -8224351.69308  -6408580.90908  23644059.95008  23644062.58708
 -14585569.87308 -11365359.50108  22543640.48708  22543642.39108
 -26707617.61609 -20811117.52809  20304465.18509  20304465.45409
  -2386558.00208  -1859654.19208  23896144.67008  23896146.75608
 -22995306.47708 -17918396.88608  20974642.73308  20974643.64808
 93 07 25 01 22 00.0000000  0  8 21 31 03 22 17 28 26 23
 -21884593.30508 -17052906.82508  21421017.42508  21421018.80408
 -15094116.60908 -11761641.61308  22272355.01008  22272356.01808
  -4655980.95007  -3628029.10607  24858039.69607  24858043.93907
  -8017349.17608  -6247280.43708  23683451.33508  23683454.03308
 -14396136.41208 -11217749.11508  22579688.61108  22579690.45208
 -26753214.28409 -20846647.39109  20295788.48709  20295788.74709
  -2344023.72308  -1826510.62808  23904238.64808  23904240.71608
 -22998150.37208 -17920612.91608  20974101.52508  20974102.46008
 93 07 25 01 23 00.0000000  0  8 21 31 03 22 17 28 26 23
 -22030009.55308 -17166218.15008  21393345.56208  21393346.95908
 -15265312.75608 -11895041.15208  22239777.47408  22239778.46408
  -4429671.49307  -3451684.21007  24901104.92807  24901109.51707
  -7809741.21508  -6085508.19908  23722957.91108  23722960.61408
 -14205905.36608 -11069517.22808  22615888.44108  22615890.28508
 -26796819.92809 -20880625.81109  20287490.56609  20287490.79009
  -2299174.09808  -1791562.89908  23912773.27708  23912775.33308
 -22998680.67908 -17921026.15008  20974000.62408  20974001.56608
 93 07 25 01 24 00.0000000  0  8 21 31 03 22 17 28 26 23
 -22173624.09008 -17278125.54408  21366016.62608  21366018.06108
 -15435248.86208 -12027458.83808  22207439.61708  22207440.62708
  -4202909.36307  -3274986.59207  24944256.50307  24944261.06207
  -7601400.27908  -5923164.80108  23762604.09108  23762606.80608
 -14014903.85508 -10920684.98008  22652234.94008  22652236.77708
 -26838332.55509 -20912973.30909  20279591.04509  20279591.26409
  -2251957.16008  -1754770.53508  23921758.47508  23921760.48408
 -22996976.18208 -17919697.97708  20974324.98108  20974325.93908
 93 07 25 01 25 00.0000000  0  8 21 31 03 22 17 28 26 23
 -22315413.80808 -17388610.99808  21339034.89408  21339036.32108
 -15603918.94908 -12158890.00808  22175342.67108  22175343.69108
  -3975710.29107  -3097948.52307  24987491.28407  24987495.69107
  -7392306.94008  -5760235.10208  23802393.25308  23802396.08708
 -13823082.34308 -10771213.77508  22688737.43308  22688739.27708
 -26877638.20409 -20943601.09009  20272111.39909  20272111.61409
  -2202497.82508  -1716230.84408  23931170.37108  23931172.36308
 -22993144.08908 -17916711.93908  20975054.20908  20975055.13208
 93 07 25 01 26 00.0000000  0  8 21 31 22 03 17 28 26 23
 -22455348.30708 -17497650.81908  21312406.20808  21312407.61708
 -15771363.18208 -12289365.96908  22143479.03508  22143480.00708
  -7182535.76108  -5596777.24108  23842311.62208  23842314.49008
  -3748096.70707  -2920587.45707  25030804.64107  25030809.32407
 -13630376.45408 -10621053.45608  22725408.28108  22725410.19208
 -26914695.63209 -20972477.01309  20265059.63009  20265059.84109
  -2150916.54908  -1676037.71008  23940985.77908  23940987.74508
 -22987134.66308 -17912029.28308  20976197.80008  20976198.70908
 93 07 25 01 27 00.0000000  0  8 21 31 22 03 17 28 26 23
 -22593507.04508 -17605306.92508  21286115.49508  21286116.79908
 -15937597.36008 -12418899.03208  22111845.66208  22111846.61008
  -6972175.74908  -5432860.54508  23882341.98008  23882344.88808
  -3520094.10707  -2742923.24407  25074192.39407  25074196.86707
 -13436896.13408 -10470289.68708  22762226.33208  22762228.30808
 -26949518.19709 -20999611.48409  20258433.08209  20258433.30609
  -2097214.96308  -1634192.37608  23951205.06008  23951207.13208
 -22978864.25308 -17905584.82108  20977771.55908  20977772.49008
 93 07 25 01 28 00.0000000  0  8 21 31 17 03 22 28 26 23
 -22729913.36408 -17711597.50508  21260158.20008  21260159.44008
 -16102534.47108 -12547421.38608  22080459.18908  22080460.12608
 -13242729.81608 -10318991.38108  22799175.09508  22799177.13708
  -3291704.37907  -2564957.41007  25117653.71307  25117658.23807
  -6761231.83908  -5268488.86208  23922483.49808  23922486.36608
 -26982186.38709 -21025067.22109  20252216.50209  20252216.73509
  -2041351.88408  -1590662.77008  23961835.52608  23961837.58908
 -22968292.27908 -17897346.93708  20979783.36008  20979784.29708
 93 07 25 01 29 00.0000000  0  8 21 31 17 03 22 28 26 23
 -22864496.86608 -17816467.70908  21234547.79708  21234549.00808
 -16266140.58008 -12674906.60008  22049325.96508  22049326.91008
 -13047839.35708 -10167128.79708  22836261.58208  22836263.59108
  -3062913.01307  -2386678.58907  25161191.34007  25161195.99607
  -6549691.86108  -5103652.70408  23962738.29408  23962741.14608
 -27012784.43809 -21048909.86209  20246393.90509  20246394.09209
  -1983269.12508  -1545403.53908  23972888.21408  23972890.33408
 -22955448.54808 -17887338.84908  20982227.50308  20982228.45908
 93 07 25 01 30 00.0000000  0  8 21 31 03 22 28 17 26 23
 -22997127.95908 -17919816.55808  21209308.85708  21209310.09408
 -16428405.51108 -12801346.74608  22018447.89108  22018448.77808
  -2833705.32007  -2208075.33907  25204808.19507  25204812.86507
  -6337543.97208  -4938342.83108  24003108.85108  24003111.67108
 -27041268.74709 -21071105.43209  20240973.53709  20240973.73509
 -12852152.00608 -10014645.26408  22873499.78808  22873501.80508
  -1922921.72508  -1498379.66308  23984372.10708  23984374.18308
 -22940337.51808 -17875564.03108  20985102.99708  20985103.97608
 93 07 25 01 31 00.0000000  0  8 21 31 03 22 28 17 26 23
 -23127773.46808 -18021618.20408  21184447.78808  21184449.08708
 -16589336.93308 -12926747.79808  21987823.55908  21987824.47908
  -2604132.93607  -2029187.96107  25248494.43507  25248499.21907
  -6124847.44208  -4772605.43808  24043583.71008  24043586.59508
 -27067564.30109 -21091595.48009  20235969.72709  20235969.92609
 -12655676.49308  -9861547.58308  22910887.93008  22910889.96308
  -1860389.73808  -1449653.50908  23996271.58408  23996273.80908
 -22922936.35808 -17862004.69808  20988414.33608  20988415.32708
 93 07 25 01 32 00.0000000  0  8 21 31 03 22 28 17 26 23
 -23256491.73208 -18121918.10508  21159953.48608  21159954.78208
 -16748935.59908 -13051110.33808  21957452.96208  21957453.86708
  -2374230.78207  -1850043.56407  25292243.52807  25292248.26507
  -5911647.83308  -4606476.04108  24084154.38708  24084157.43608
 -27091573.26709 -21110303.76709  20231400.98909  20231401.16809
 -12458431.91308  -9707850.62608  22948422.39608  22948424.40708
  -1795727.24608  -1399267.22308  24008576.61408  24008578.72708
 -22903243.07508 -17846659.29708  20992161.82708  20992162.83108
 93 07 25 01 33 00.0000000  0  8 21 31 03 22 28 17 26 23
 -23383415.61708 -18220819.79708  21135800.66608  21135801.93908
 -16907250.28308 -13174472.37608  21927326.65008  21927327.53808
  -2144052.29207  -1670683.81707  25336045.06007  25336049.79507
  -5698026.18008  -4440017.78708  24124805.39708  24124808.48508
 -27113328.62409 -21127255.99809  20227261.02809  20227261.20909
 -12260545.80808  -9553653.77808  22986079.02008  22986081.10308
  -1728965.63208  -1347245.25308  24021280.81308  24021283.08108
 -22881386.17208 -17829627.95708  20996321.06908  20996322.06408
 93 07 25 01 34 00.0000000  0  8 21 31 22 28 03 17 26 23
 -23508516.69608 -18318301.12308  21111994.71308  21111995.91108
 -17064242.84608 -13296804.19708  21897451.91008  21897452.83608
  -5483981.26508  -4273229.72408  24165536.94108  24165540.10808
 -27132813.64309 -21142439.13709  20223553.17709  20223553.35809
  -1913534.77807  -1491059.88407  25379911.23907  25379916.08507
 -12062021.92808  -9398959.97608  23023856.80308  23023858.94908
  -1660025.99908  -1293526.10608  24034399.68208  24034401.91008
 -22857377.97008 -17810920.28208  21000889.73908  21000890.74408
 93 07 25 01 35 00.0000000  0  8 21 31 22 28 03 17 26 23
 -23631703.99508 -18414291.19008  21088552.93608  21088554.11608
 -17219906.31008 -13418100.35208  21867830.05808  21867830.96708
  -5269506.22008  -4106106.51808  24206350.23608  24206353.58608
 -27150081.59009 -21155894.69109  20220267.23009  20220267.41909
  -1682670.80907  -1311166.00607  25423843.30007  25423848.16307
 -11862859.67708  -9243768.73108  23061756.28808  23061758.41108
  -1588901.28608  -1238104.31108  24047934.16408  24047936.61008
 -22831195.17708 -17790518.12408  21005872.17008  21005873.16508
 93 07 25 01 36 00.0000000  0  8 21 31 22 28 03 17 26 23
 -23752870.02708 -18508706.24708  21065495.76008  21065496.90908
 -17374122.98108 -13538269.13208  21838483.54508  21838484.43408
  -5054608.06908  -3938653.63508  24247244.13708  24247247.58008
 -27165183.51009 -21167662.43409  20217393.40609  20217393.62909
  -1451461.92107  -1131003.47507  25467841.03107  25467845.83907
 -11663106.21308  -9088116.82308  23099768.19008  23099770.48108
  -1515572.40308  -1180964.97908  24061888.41308  24061890.68408
 -22802819.91908 -17768407.55508  21011271.76008  21011272.77808
 93 07 25 01 37 00.0000000  0  8 21 31 22 28 03 17 26 23
 -23871982.67408 -18601521.26308  21042829.36508  21042830.51708
 -17526761.32408 -13657208.04308  21809437.40508  21809438.27608
  -4839202.30208  -3770805.20908  24288234.70808  24288238.16308
 -27178101.48809 -21177728.40409  20214935.25709  20214935.46209
  -1219892.78207   -950560.06407  25511907.17107  25511912.12307
 -11462690.76108  -8931949.07808  23137906.16508  23137908.31808
  -1440067.02708  -1122129.68108  24076256.56108  24076258.75508
 -22772232.98008 -17744573.60408  21017092.34308  21017093.32108
 93 07 25 01 38 00.0000000  0  7 21 31 22 28 17 26 23
 -23989066.03908 -18692755.01508  21020549.15708  21020550.28908
 -17677871.45108 -13774956.13908  21780682.14408  21780683.03608
  -4623278.02908  -3602552.75108  24329323.80808  24329327.38808
 -27188792.04809 -21186058.72609  20212900.93309  20212901.16009
 -11261548.40808  -8775214.90708  23176182.34508  23176184.57708
  -1362484.62308  -1061675.93108  24091020.10408  24091022.39008
 -22739427.38408 -17719010.83308  21023335.03108  21023336.00108
 93 07 25 01 39 00.0000000  0  7 21 31 22 28 17 26 23
 -24104125.71008 -18782411.86608  20998653.96808  20998655.10008
 -17827569.41508 -13891603.85408  21752195.46308  21752196.30408
  -4406914.83308  -3433958.26708  24370496.55808  24370500.11408
 -27197144.10709 -21192566.84209  20211311.61209  20211311.87009
 -11059670.27008  -8617907.41108  23214598.58108  23214600.92008
  -1282822.07808   -999601.28808  24106179.37908  24106181.78208
 -22704402.83908 -17691719.01208  21029999.98608  21030000.96608
 93 07 25 01 40 00.0000000  0  8 31 23 17 27 28 21 22 26
 -17975862.78008 -14007157.07508  21723976.12508  21723976.97208
 -22667240.83908 -17662761.64208  21037071.66408  21037072.70808
 -10857171.16108  -8460116.01508  23253132.97308  23253135.33008
        -0.35117        -0.51717  24742827.87617  24742830.43817
 -27203210.07509 -21197293.58809  20210157.22109  20210157.48409
 -24217207.05208 -18870527.16308  20977135.25408  20977136.38508
  -4190308.18308  -3265174.06308  24411715.54708  24411719.13108
  -1201075.87608   -935903.01908  24121735.25208  24121737.43908
 93 07 25 01 41 00.0000000  0  8 31 23 17 27 28 21 22 26
 -18122678.90708 -14121559.20708  21696037.85308  21696038.74808
 -22627960.66108 -17632153.74708  21044546.51308  21044547.54708
 -10654195.48508  -8301953.28808  23291758.02408  23291760.34208
     57463.20707     44776.23607  24753762.70107  24753765.78807
 -27207063.57809 -21200296.33609  20209423.89709  20209424.18009
 -24328364.34908 -18957143.21008  20955982.66208  20955983.81508
  -3973560.20408  -3096279.73808  24452961.55108  24452965.07208
  -1117304.53108   -870626.71208  24137676.47108  24137678.89108
 93 07 25 01 42 00.0000000  0  7 31 23 17 22 28 21 26
 -18268048.80908 -14234834.41608  21668374.85508  21668375.70008
 -22586544.94608 -17599881.79508  21052427.73608  21052428.79508
 -10450777.74708  -8143446.09408  23330467.21308  23330469.56408
  -3756638.10008  -2927249.73208  24494240.62308  24494244.25008
 -27208732.47109 -21201596.79409  20209106.30709  20209106.57609
 -24437599.02808 -19042261.12008  20935196.01608  20935197.11708
  -1031565.67508   -803817.27908  24153992.09208  24153994.38308
 93 07 25 01 43 00.0000000  0  8 31 23 17 27 28 21 22 26
 -18411923.36908 -14346944.43108  21640996.49308  21640997.32808
 -22542922.61908 -17565890.40408  21060728.80908  21060729.81008
 -10246788.70608  -7984493.71808  23369285.15208  23369287.56708
        -0.99017        -0.20117  24776926.94617  24776929.83417
 -27208150.99809 -21201143.71509  20209217.05809  20209217.34509
 -24544803.82608 -19125797.30908  20914795.61708  20914796.67708
  -3539398.08808  -2757972.01207  24535580.19708  24535583.86507
   -943730.22908   -735374.13208  24170706.72208  24170709.03308
 93 07 25 01 44 00.0000000  0  8 31 23 17 27 28 21 22 26
 -18554128.69208 -14457753.74208  21613935.64408  21613936.46108
 -22497054.71508 -17530149.21308  21069457.24008  21069458.22208
 -10042085.05708  -7824984.53408  23408239.05408  23408241.66008
     64359.32607     50150.60407  24789174.33307  24789177.18507
 -27205185.69409 -21198833.10809  20209781.35409  20209781.62309
 -24649883.46208 -19207677.53008  20894799.59708  20894800.69208
  -3321691.49008  -2588330.70607  24577008.57508  24577012.20507
   -853671.55508   -665198.61208  24187844.37008  24187846.67108
 93 07 25 01 45 00.0000000  0  8 31 23 17 27 28 21 22 26
 -18694657.37608 -14567256.57508  21587193.97608  21587194.76108
 -22448987.39908 -17492694.19308  21078604.12708  21078605.08808
  -9836717.65708  -7664958.13308  23447319.29408  23447321.70908
    130967.43107    102052.95107  24801849.28707  24801852.81707
 -27199837.14609 -21194665.42509  20210799.18009  20210799.48109
 -24752874.15408 -19287930.00208  20875201.14608  20875202.26108
  -3103639.31508  -2418420.12407  24618502.57808  24618506.34807
   -761469.86808   -593353.20908  24205389.77908  24205392.18408
 93 07 25 01 46 00.0000000  0  8 31 23 27 28 21 22 17 26
 -18833593.05008 -14675518.10008  21560755.28808  21560756.07308
 -22398793.82508 -17453582.34808  21088155.73108  21088156.67908
    199794.20207    155684.16108  24814946.80507  24814950.14008
 -27192148.84509 -21188674.55909  20212262.14609  20212262.43909
 -24853813.59108 -19366584.09408  20855993.01308  20855994.09308
  -2885438.28808  -2248393.55207  24660025.01408  24660028.94807
  -9630835.93808  -7504530.92208  23486497.41908  23486499.87508
   -667292.80108   -519968.55508  24223311.13108  24223313.46408
 93 07 25 01 47 00.0000000  0  8 31 23 27 28 21 22 17 26
 -18971000.24808 -14782588.60808  21534607.52508  21534608.26408
 -22346591.58108 -17412905.30408  21098089.47608  21098090.47608
    270766.21507    210986.95807  24828452.39407  24828455.61907
 -27182219.32009 -21180937.28809  20214151.77109  20214152.09209
 -24952732.44208 -19443663.70608  20837169.29108  20837170.39408
  -2667154.58208  -2078302.57707  24701563.23308  24701567.09907
  -9424550.87508  -7343789.43908  23525752.20608  23525754.86908
   -571245.82808   -445126.83808  24241588.30608  24241590.71308
 93 07 25 01 48 00.0000000  0  8 31 23 28 21 27 22 17 26
 -19106743.52808 -14888362.55708  21508776.50708  21508777.21808
 -22292359.88008 -17370646.86608  21108409.41008  21108410.47808
 -27169981.90909 -21171401.66409  20216480.40609  20216480.69609
 -25049516.07608 -19519079.51908  20818752.01808  20818753.08508
    343920.63107    267990.33007  24842373.28407  24842376.36307
  -2448679.85307  -1908062.75707  24743137.69707  24743141.72707
  -9217746.56508  -7182643.37208  23565105.83508  23565108.53508
   -473233.70208   -368753.84508  24260239.47208  24260241.87208
 93 07 25 01 49 00.0000000  0  8 31 23 27 28 21 22 17 26
 -19240816.79808 -14992835.19908  21483263.11008  21483263.81108
 -22236037.02608 -17326758.95708  21119127.33008  21119128.42008
    419228.31807    326671.56707  24856704.17607  24856707.06007
 -27155465.74809 -21160090.39609  20219242.78309  20219243.10909
 -25144175.63408 -19592840.20908  20800738.83008  20800739.94008
  -2230063.11607  -1737712.29208  24784739.25707  24784743.34808
  -9010336.73708  -7021025.46308  23604574.76108  23604577.35008
   -373127.95408   -290749.45308  24279289.00808  24279291.51908
 93 07 25 01 50 00.0000000  0  7 31 23 28 21 22 17 26
 -19373256.79808 -15096035.16508  21458060.61608  21458061.28808
 -22177559.02108 -17281191.70908  21130255.32008  21130256.32608
 -27138715.92809 -21147038.61409  20222430.16109  20222430.48209
 -25236761.75008 -19664985.23008  20783120.32508  20783121.41408
  -2011345.53207  -1567283.23208  24826359.93607  24826364.10708
  -8802370.86008  -6858974.25008  23644149.53608  23644152.12308
   -270933.61808   -211117.58508  24298735.97508  24298738.46708
 93 07 25 01 51 00.0000000  0  8 31 23 28 21 15 22 17 26
 -19504117.14008 -15198004.23708  21433158.64808  21433159.31008
 -22116953.29808 -17233966.49708  21141788.19208  21141789.27408
 -27119768.90109 -21132274.71909  20226035.71609  20226036.04109
 -25327279.94008 -19735518.88208  20765895.30408  20765896.40008
         0.29517         0.18117  25307655.30017  25307659.93817
  -1792524.83007  -1396773.83208  24868000.46707  24868004.61408
  -8594001.42608  -6696608.60408  23683800.88708  23683803.72708
   -166832.56008   -129999.97108  24318545.78708  24318548.40908
 93 07 25 01 52 00.0000000  0  8 31 23 28 21 15 22 17 26
 -19633341.98408 -15298698.89808  21408568.04308  21408568.70908
 -22054234.78708 -17185094.96308  21153723.23808  21153724.29708
 -27098509.68309 -21115709.12009  20230081.27309  20230081.62109
 -25415651.50808 -19804379.84208  20749078.77308  20749079.87008
   -218272.44207   -170082.30507  25266119.27407  25266123.79007
  -1573542.84407  -1226138.77108  24909671.62807  24909675.71308
  -8385210.09708  -6533914.22908  23723532.63908  23723535.54808
    -60882.09008    -47441.25208  24338707.57308  24338710.19308
 93 07 25 01 53 00.0000000  0  8 31 23 15 28 21 22 17 26
 -19760841.44308 -15398049.10008  21384305.60308  21384306.29308
 -21989431.64908 -17134599.05208  21166054.85008  21166055.93908
   -436416.98707   -340064.90407  25224607.61707  25224612.11107
 -27074817.28109 -21097247.53009  20234589.75409  20234590.13409
 -25501772.92508 -19871487.43308  20732690.36608  20732691.47008
  -1354416.89807  -1055391.52508  24951370.05207  24951374.25008
  -8175901.30908  -6370816.62708  23763362.90108  23763365.73808
     46945.03608     36579.78908  24359226.46008  24359229.15608
 93 07 25 01 54 00.0000000  0  7 31 23 17 28 21 15 22
 -19886566.99508 -15496017.03708  21360380.82908  21360381.50408
 -21922597.38308 -17082520.44508  21178773.00108  21178774.07108
  -7966095.70108  -6207331.86908  23803287.67508  23803290.49608
 -27048760.97509 -21076943.93509  20239548.21109  20239548.58709
 -25585728.67608 -19936907.48908  20716714.11508  20716715.21908
   -654446.52507   -509957.89007  25183117.87407  25183122.36107
  -1135237.98708   -884603.00508  24993078.55308  24993082.81408
 93 07 25 01 55 00.0000000  0  8 31 23 17 28 21 15 22 01
 -20010535.80408 -15592616.08608  21336790.33008  21336791.01608
 -21853797.81308 -17028910.43508  21191865.17208  21191866.20908
  -7755925.36708  -6043562.93008  23843281.85708  23843284.79108
 -27020430.38809 -21054868.17409  20244939.19409  20244939.58809
 -25667595.11008 -20000699.50808  20701135.46508  20701136.52408
   -872383.83607   -679778.98207  25141645.62507  25141650.12007
   -916001.10008   -713769.32008  25034798.01208  25034802.44408
        -0.29017        -0.25817  25217322.59417  25217326.64817
 93 07 25 01 56 00.0000000  0  8 31 23 17 28 21 15 22 01
 -20132780.06208 -15687871.33408  21313528.07608  21313528.76708
 -21783013.81008 -16973754.10608  21205334.93508  21205336.01608
  -7545427.36308  -5879538.66608  23883338.47508  23883341.40208
 -26989851.30209 -21031040.33809  20250758.19309  20250758.60809
 -25747366.88908 -20062859.33008  20685955.39008  20685956.42208
  -1090230.98007   -849529.74607  25100190.48507  25100194.85407
   -696748.67808   -542923.52808  25076520.56708  25076525.03008
   -215616.74907   -168012.96307  25176292.03307  25176296.32607
 93 07 25 01 57 00.0000000  0  8 31 23 17 28 21 15 22 01
 -20253251.85508 -15781745.44208  21290602.99208  21290603.68708
 -21710173.02808 -16916995.09208  21219196.12908  21219197.24708
  -7334492.50008  -5715173.97408  23923478.23108  23923481.13908
 -26956944.49509 -21005398.69709  20257020.12809  20257020.51509
 -25824927.96508 -20123296.52908  20671196.03408  20671197.05508
  -1307927.06707  -1019162.78007  25058764.09907  25058768.34907
   -477528.27008   -372102.69808  25118237.04508  25118241.51608
   -431191.74607   -335993.35907  25135269.50307  25135273.74407
 93 07 25 01 58 00.0000000  0  8 31 23 17 28 21 15 22 01
 -20371944.20908 -15874232.97008  21268016.57308  21268017.25608
 -21635316.23208 -16858665.15008  21233440.97308  21233442.11108
  -7123069.56308  -5550428.98908  23963710.76008  23963713.73708
 -26921704.35709 -20977938.87309  20263726.35709  20263726.72109
 -25900305.91308 -20182032.58508  20656852.11308  20656853.17608
  -1525454.99507  -1188664.83807  25017369.76307  25017373.97807
   -258469.02808   -201407.43908  25159922.77408  25159927.35408
   -646673.88907   -503901.40207  25094264.61907  25094269.01207
 93 07 25 01 59 00.0000000  0  8 31 23 28 21 15 22 17 01
 -20488919.00208 -15965382.14008  21245757.02908  21245757.65808
 -21558575.96508 -16798867.56808  21248044.14208  21248045.32508
 -26884204.82709 -20948718.48309  20270862.20009  20270862.59809
 -25973683.79708 -20239210.14808  20642888.73308  20642889.78808
  -1742848.81107  -1358062.47007  24976000.96307  24976005.18407
    -39626.12008    -30880.76208  25201567.50608  25201572.02308
  -6911274.44008  -5385393.98708  24004014.13408  24004017.14108
   -862160.43907   -671812.82807  25053258.45107  25053262.88507
 93 07 25 02 00 00.0000000  0  8 31 23 17 28 21 15 22 01
 -20604166.00508 -16055184.98108  21223826.25008  21223826.88008
 -21479931.89008 -16737586.49808  21263009.62108  21263010.82008
  -6699131.18608  -5220087.71308  24044383.72308  24044386.85208
 -26844438.80509 -20917731.99809  20278429.33609  20278429.71509
 -26045073.95108 -20294838.83008  20629303.62008  20629304.68308
  -1960089.57107  -1527340.82507  24934661.29907  24934665.49707
    179122.16908    139572.18307  25243194.09408  25243198.71407
  -1077677.83707   -839748.31407  25012246.83107  25012251.04307
 93 07 25 02 01 00.0000000  0  8 31 23 17 28 21 15 22 01
 -20717620.10908 -16143590.75508  21202236.61608  21202237.24208
 -21399232.57808 -16674703.94508  21278366.21908  21278367.40308
  -6486604.07208  -5054482.32708  24084826.43208  24084829.47708
 -26802298.75009 -20884895.62109  20286448.35709  20286448.75509
 -26114247.13008 -20348739.99908  20616140.35808  20616141.43608
  -2177138.73007  -1696469.93307  24893358.13407  24893362.30107
    397869.94707    310024.73007  25284820.75307  25284825.35107
  -1293157.11507  -1007654.05407  24971242.55907  24971246.59007
 93 07 25 02 02 00.0000000  0  8 31 23 17 28 21 15 22 01
 -20829000.02108 -16230380.27408  21181041.74608  21181042.33308
 -21316276.30308 -16610062.71708  21294152.26608  21294153.48008
  -6273474.11308  -4888407.19208  24125383.81608  24125386.98808
 -26757567.03309 -20850039.76509  20294960.65809  20294961.06409
 -26180854.44908 -20400641.79908  20603465.40408  20603466.44308
  -2393799.06007  -1865296.00207  24852128.91407  24852132.99607
    616764.98907    480592.04207  25326475.22907  25326479.91107
  -1508337.66007  -1175326.97407  24930294.76907  24930298.94007
 93 07 25 02 03 00.0000000  0  8 31 23 28 21 15 22 17 01
 -20938483.58108 -16315692.11708  21160207.68208  21160208.27108
 -21231449.72408 -16543964.11008  21310294.30208  21310295.48008
 -26710563.44309 -20813413.62109  20303905.11309  20303905.51609
 -26245172.89808 -20450760.06608  20591226.02308  20591227.06408
  -2610325.95707  -2034018.07307  24810925.09307  24810929.23107
    835492.53507    651028.83907  25368098.03607  25368102.67907
  -6060058.74408  -4722109.67008  24165995.46808  24165998.74808
  -1723470.27107  -1342962.55807  24889356.30307  24889360.26607
 93 07 25 02 04 00.0000000  0  8 31 23 28 21 15 22 17 01
 -21046097.58208 -16399547.16208  21139729.42808  21139730.03108
 -21144864.08408 -16476494.80708  21326770.94908  21326772.19408
 -26661379.45709 -20775088.46309  20313264.67909  20313265.08109
 -26307334.84108 -20499197.94208  20579397.01208  20579398.04408
  -2826731.37907  -2202645.48307  24769744.35907  24769748.43607
   1054022.60607    821311.74807  25409682.84807  25409687.93507
  -5846490.03508  -4555692.65808  24206636.38308  24206639.72708
  -1938608.20707  -1510602.32607  24848416.77907  24848420.80507
 93 07 25 02 05 00.0000000  0  8 31 23 28 21 15 22 17 01
 -21151856.41808 -16481956.62008  21119604.13408  21119604.74008
 -21056423.76108 -16407580.30408  21343600.66308  21343601.86708
 -26609984.75309 -20735040.67709  20323044.72909  20323045.18309
 -26367350.38108 -20545963.29608  20567976.42408  20567977.48308
  -3042958.59008  -2371134.02007  24728597.58008  24728601.48307
   1272366.29307    991449.42107  25451232.53707  25451237.58507
  -5632646.39708  -4389061.41308  24247329.56208  24247332.95308
  -2153651.30408  -1678168.20507  24807495.22808  24807499.22007
 93 07 25 02 06 00.0000000  0  8 31 23 28 21 15 22 17 01
 -21255738.61208 -16562903.76208  21099835.94108  21099836.56208
 -20965983.38508 -16337107.31208  21360810.95108  21360812.07808
 -26556361.92309 -20693256.67809  20333248.72209  20333249.19509
 -26425162.90308 -20591012.01208  20556975.07108  20556976.11408
  -3258963.20208  -2539449.11907  24687493.14308  24687497.12007
   1490478.72007   1161406.87907  25492738.20207  25492743.22807
  -5418352.43708  -4222079.26908  24288108.52408  24288111.96208
  -2368503.48408  -1845585.31407  24766610.00508  24766614.06207
 93 07 25 02 07 00.0000000  0  8 31 23 28 21 15 22 17 01
 -21357685.44908 -16642342.83408  21080436.10608  21080436.73608
 -20873529.58708 -16265065.41908  21378404.30808  21378405.48608
 -26500449.91709 -20649688.91309  20343888.48909  20343888.91909
 -26480748.37008 -20634325.36108  20546397.47608  20546398.52308
  -3474716.57708  -2707568.44707  24646436.43008  24646440.35707
   1708352.37507   1331178.25807  25534198.28707  25534203.41907
  -5203598.11707  -4054738.39708  24328975.00707  24328978.45208
  -2583135.13608  -2012830.58207  24725766.73108  24725770.82507
 93 07 25 02 08 00.0000000  0  8 31 23 28 21 15 22 17 01
 -21457677.99508 -16720259.08408  21061408.14908  21061408.80108
 -20779187.73508 -16191552.32408  21396356.98308  21396358.15608
 -26442179.72409 -20604283.60009  20354977.01009  20354977.41809
 -26534217.57208 -20675989.67508  20536222.63908  20536223.66908
  -3690224.93008  -2875496.85407  24605426.46208  24605430.34307
   1926018.34607   1500787.83507  25575618.91307  25575624.09207
  -4988567.00107  -3887181.84508  24369894.19707  24369897.57508
  -2797542.29408  -2179900.91607  24684966.30108  24684970.17907
 93 07 25 02 09 00.0000000  0  8 31 23 28 21 15 22 17 01
 -21555714.85108 -16796651.41708  21042752.33708  21042752.95008
 -20683072.86308 -16116657.65408  21414647.00908  21414648.20908
 -26381509.22109 -20557007.91509  20366522.18509  20366522.59009
 -26585628.56008 -20716050.18708  20526439.46708  20526440.50508
  -3905491.44908  -3043236.81508  24564462.47308  24564466.25608
   2143444.62306   1670210.61906  25616994.08706  25616999.12606
  -4773420.86508  -3719535.67108  24410835.29308  24410838.78108
  -3011677.86208  -2346759.60707  24644217.52008  24644221.34507
 93 07 25 02 10 00.0000000  0  7 31 23 28 21 15 17 01
 -21651793.57208 -16871517.93108  21024469.18308  21024469.77708
 -20585133.91608 -16040341.62708  21433284.22708  21433285.40808
 -26318430.33309 -20507855.56509  20378525.76709  20378526.18909
 -26634820.36408 -20754381.46608  20517078.58208  20517079.62808
  -4120482.77808  -3210762.34108  24523550.83308  24523554.59808
  -4558125.28208  -3551773.02808  24451804.86608  24451808.23608
  -3225497.64608  -2513372.26307  24603528.98308  24603532.63907
 93 07 25 02 11 00.0000000  0  8 31 23 28 21 15 26 17 01
 -21745920.44408 -16944863.52408  21006557.42908  21006558.03508
 -20485331.78708 -15962573.77808  21452275.99008  21452277.21708
 -26253069.47109 -20456925.06009  20390963.57809  20390964.01509
 -26681662.76008 -20790882.04008  20508164.72508  20508165.83108
  -4335206.45308  -3378079.33408  24482690.20708  24482693.77508
        -0.19718        -0.27318  24788401.98418  24788405.01218
  -4342544.56808  -3383788.20807  24492828.63208  24492832.08107
  -3439029.50708  -2679760.61708  24562895.20008  24562898.74308
 93 07 25 02 12 00.0000000  0  8 23 28 21 15 31 26 17 01
 -20383704.14808 -15883383.45408  21471615.13008  21471616.37208
 -26185495.59309 -20404270.12409  20403822.38909  20403822.86909
 -26726154.03908 -20825550.57608  20499698.35608  20499699.45208
  -4549641.55308  -3545171.44808  24441884.47608  24441888.10608
 -21838067.56708 -17016666.45408  20989022.41508  20989023.02908
    141668.31008    110390.65108  24815360.81908  24815363.86008
  -4126531.67808  -3215466.62007  24533934.63008  24533938.04207
  -3652242.32008  -2845900.37508  24522322.04508  24522325.67408
 93 07 25 02 13 00.0000000  0  8 23 28 21 15 31 26 17 01
 -20280301.65708 -15802810.12908  21491292.02708  21491293.26008
 -26115728.74509 -20349906.38309  20417098.70509  20417099.21609
 -26768371.33508 -20858447.17208  20491664.67308  20491665.77008
  -4763792.98608  -3712042.55208  24401132.62008  24401136.25308
 -21928186.23808 -17086888.77608  20971873.31308  20971873.89908
    284968.01708    222052.67208  24842629.83408  24842633.00808
  -3910161.80908  -3046866.84307  24575108.64108  24575111.93307
  -3865134.99108  -3011790.67808  24481809.84708  24481813.54608
 93 07 25 02 14 00.0000000  0  8 23 28 21 15 31 26 17 01
 -20175125.60808 -15720854.81608  21511306.29808  21511307.60708
 -26043737.76109 -20293809.54509  20430798.07709  20430798.57909
 -26808317.29908 -20889573.89908  20484063.19608  20484064.31408
  -4977652.93608  -3878686.50108  24360436.33808  24360439.89608
 -22016268.63708 -17155524.39608  20955111.80508  20955112.42408
    429839.89608    334939.77208  24870198.07408  24870201.14008
  -3693612.64107  -2878127.35707  24616316.60007  24616319.95307
  -4077675.33508  -3177406.43408  24441364.62608  24441368.32808
 93 07 25 02 15 00.0000000  0  8 23 28 21 15 31 26 17 01
 -20068135.23808 -15637485.74308  21531665.98108  21531667.28608
 -25969494.14709 -20235957.41009  20444926.17409  20444926.66009
 -26846002.76508 -20918939.19908  20476891.88608  20476893.03808
  -5191207.81508  -4045092.71308  24319798.01608  24319801.55708
 -22102308.69709 -17222568.58108  20938738.87309  20938739.47608
    576282.21607    449050.59508  24898065.20807  24898068.24408
  -3476891.69207  -2709254.01907  24657557.31607  24657560.84507
  -4289794.17308  -3342693.74608  24400999.74408  24401003.41408
 93 07 25 02 16 00.0000000  0  8 23 28 21 15 31 26 17 01
 -19959354.07308 -15552721.24608  21552366.39808  21552367.68608
 -25892929.22409 -20176296.46409  20459496.10409  20459496.57809
 -26881449.57308 -20946560.08608  20470146.57908  20470147.75608
  -5404460.33408  -4211263.30508  24279217.23808  24279220.80308
 -22186256.63909 -17287982.54008  20922764.12709  20922764.70908
    724293.03107    564383.63708  24926230.60507  24926233.82608
  -3259907.07207  -2540175.22507  24698848.24007  24698851.82107
  -4501444.75308  -3507616.17508  24360723.87408  24360727.50608
 93 07 25 02 17 00.0000000  0  8 23 28 21 15 31 26 17 01
 -19848797.46808 -15466573.29208  21573404.62308  21573405.94608
 -25813969.51409 -20114769.44408  20474521.59409  20474522.07508
 -26914693.96608 -20972464.80808  20463820.40308  20463821.52008
  -5617395.35508  -4377186.49008  24238696.95708  24238700.32908
 -22268064.82909 -17351729.16008  20907196.56609  20907197.14108
    873895.76607    680957.11107  24954699.40407  24954702.30007
  -3042621.37207  -2370861.84107  24740196.40007  24740199.91307
  -4712667.99708  -3672205.61908  24320529.38508  24320532.99608
 93 07 25 02 18 00.0000000  0  8 23 28 21 15 31 26 17 01
 -19736502.39408 -15379070.68408  21594773.80908  21594775.07208
 -25732717.09709 -20051455.90208  20489983.44709  20489983.92108
 -26945771.14108 -20996680.78708  20457906.59708  20457907.74808
  -5830032.30108  -4542877.43108  24198233.34908  24198236.69108
 -22347832.08309 -17413885.44008  20892017.38809  20892017.92908
   1024987.60507    798690.92307  24983451.18507  24983454.33007
  -2825158.75607  -2201410.60007  24781578.18807  24781581.90807
  -4923526.18708  -3836510.60908  24280404.35908  24280407.92608
 93 07 25 02 19 00.0000000  0  8 23 28 21 15 31 26 17 01
 -19622510.97708 -15290246.25608  21616465.63108  21616467.00808
 -25649304.56909 -19986459.16208  20505856.54309  20505857.04408
 -26974654.42708 -21019187.24108  20452410.18808  20452411.35008
  -6042357.99508  -4708325.83208  24157828.93708  24157832.25108
 -22425650.74009 -17474523.33708  20877209.01009  20877209.55908
   1177519.23407    917546.62907  25012476.95807  25012480.12807
  -2607598.15207  -2031883.00807  24822978.75507  24822982.50307
  -5133985.71808  -4000504.95908  24240355.23308  24240358.72208
 93 07 25 02 20 00.0000000  0  8 23 28 21 15 31 26 17 01
 -19506842.00308 -15200114.63608  21638476.70908  21638478.08008
 -25563761.77509 -19919802.47308  20522134.62209  20522135.12708
 -27001228.87708 -21039894.60008  20447353.31808  20447354.50408
  -6254319.13808  -4873490.16208  24117493.90808  24117497.14108
 -22501406.86809 -17533554.06908  20862793.01009  20862793.57008
   1331552.49407   1037572.45407  25041788.70907  25041791.84107
  -2389898.03907  -1862246.72407  24864405.91407  24864409.62307
  -5344003.34508  -4164154.97608  24200390.00608  24200393.59508
 93 07 25 02 21 00.0000000  0  8 23 28 21 15 31 26 17 01
 -19389485.41608 -15108667.98908  21660809.03608  21660810.34908
 -25475948.32109 -19851376.43008  20538844.96309  20538845.49108
 -27025452.24308 -21058769.94508  20442743.75008  20442744.90008
  -6465857.47408  -5038325.05008  24077239.36108  24077242.61708
 -22574931.16509 -17590845.71308  20848801.81109  20848802.38608
   1487094.39307   1158773.82107  25071387.40907  25071390.60107
  -2171979.98107  -1692440.60307  24905874.46807  24905878.26107
  -5553491.68508  -4327392.56008  24160525.57608  24160529.15108
 93 07 25 02 22 00.0000000  0  8 23 28 21 15 31 26 17 01
 -19270492.76808 -15015946.49408  21683452.55408  21683453.94008
 -25385856.44209 -19781174.99208  20555988.97809  20555989.51708
 -27047488.29708 -21075940.89308  20438550.44708  20438551.53908
  -6677027.29108  -5202872.79808  24037054.89708  24037058.17308
 -22646266.09809 -17646431.36408  20835227.18109  20835227.76808
   1644021.28207   1281054.41807  25101249.61007  25101252.86707
  -1953929.28907  -1522531.12807  24947368.18607  24947372.15007
  -5762446.18908  -4490214.15508  24120762.81408  24120766.28908
 93 07 25 02 23 00.0000000  0  8 23 28 21 15 31 26 17 01
 -19149838.56408 -14921930.28208  21706412.34408  21706413.77208
 -25293503.57309 -19709211.74308  20573563.24209  20573563.75908
 -27067329.98108 -21091401.94608  20434774.69308  20434775.78108
  -6887801.16408  -5367112.03808  23996945.82308  23996949.17308
 -22715478.81609 -17700363.34108  20822056.38809  20822056.95608
   1802345.64107   1404423.92007  25131377.70507  25131380.99907
  -1735741.85307  -1352515.09907  24988887.98507  24988891.95707
  -5970779.01508  -4652551.32808  24081118.35708  24081121.74408
 93 07 25 02 24 00.0000000  0  8 23 28 21 15 31 26 17 01
 -19027439.35708 -14826554.32708  21729704.14008  21729705.62608
 -25198892.80209 -19635489.09808  20591567.21509  20591567.75508
 -27084889.32708 -21105084.55308  20431433.26208  20431434.38008
  -7098132.78808  -5531006.68108  23956920.99908  23956924.21208
 -22782555.80809 -17752631.11208  20809292.03709  20809292.62408
   1962179.25507   1528969.49107  25161793.19307  25161796.62907
  -1517281.11007  -1182286.09507  25030459.81107  25030463.76607
  -6178452.44508  -4814374.67608  24041599.36608  24041602.74108
 93 07 25 02 25 00.0000000  0  8 23 28 21 15 31 26 17 01
 -18903337.83908 -14729851.89208  21753319.97508  21753321.39708
 -25102077.15009 -19560048.36808  20609990.66309  20609991.20408
 -27100142.86508 -21116970.42708  20428530.64508  20428531.76408
  -7308079.77808  -5694601.59908  23916969.24208  23916972.51908
 -22847471.94509 -17803215.09808  20796938.91909  20796939.48108
   2123402.45507   1654597.84107  25192473.18007  25192476.42607
  -1298606.51407  -1011890.43207  25072072.37707  25072076.38407
  -6385515.73808  -4975722.57608  24002196.43508  24002199.85808
 93 07 25 02 26 00.0000000  0  8 23 28 21 15 31 26 17 01
 -18777639.48108 -14631905.16608  21777239.57908  21777240.99008
 -25003085.76909 -19482912.25908  20628827.95309  20628828.49908
 -27113144.21208 -21127101.34708  20426056.53508  20426057.62608
  -7517662.25608  -5857912.47208  23877086.95708  23877090.08808
 -22910233.12509 -17852119.89608  20784995.87909  20784996.41808
   2285929.28107   1781242.00307  25223401.08807  25223404.42107
  -1079822.34607   -841409.38107  25113705.60007  25113709.62607
  -6591939.04508  -5136571.77208  23962915.27108  23962918.65708
 93 07 25 02 27 00.0000000  0  8 23 28 21 15 31 26 17 01
 -18650444.60908 -14532792.32308  21801443.92608  21801445.43208
 -24901962.91609 -19404115.26108  20648070.87809  20648071.43308
 -27124002.64808 -21135562.46908  20423990.26908  20423991.36908
  -7726911.71008  -6020963.84508  23837268.05308  23837271.14508
 -22970914.38009 -17899403.97908  20773448.65109  20773449.17608
   2449772.88107   1908912.21307  25254579.62907  25254582.99207
   -860981.57207   -670884.22207  25155349.86107  25155353.67507
  -6797768.27208  -5296958.04308  23923747.07008  23923750.53208
 93 07 25 02 28 00.0000000  0  8 23 28 21 15 31 26 17 01
 -18521673.79908 -14432451.48108  21825948.23808  21825949.73708
 -24798621.21809 -19323589.29208  20667736.33309  20667736.90708
 -27132653.98408 -21142303.77408  20422343.99008  20422345.12908
  -7935722.61208  -6183673.47908  23797532.52308  23797535.60908
 -23029449.36709 -17945015.64708  20762309.76809  20762310.28308
   2615052.94607   2037701.68107  25286031.57607  25286034.86307
   -642011.92907   -500258.63507  25197018.35707  25197022.61107
  -7002918.33608  -5456815.10608  23884708.18808  23884711.66608
 93 07 25 02 29 00.0000000  0  8 23 15 01 28 21 31 26 17
 -18391286.62408 -14330851.13008  21850760.22508  21850761.67408
  -8144075.08308  -6346025.90808  23757884.22108  23757887.33608
  -7207340.52108  -5616105.00308  23845807.86908  23845811.28008
 -24693100.29609 -19241365.23608  20687816.21609  20687816.80808
 -27139037.88308 -21147278.24508  20421129.18108  20421130.31908
 -23085743.22709 -17988880.98708  20751597.41309  20751597.93708
   2781666.50207   2167530.25807  25317737.57007  25317741.02107
   -422957.00506   -329566.59606  25238703.29206  25238707.49606
 93 07 25 02 30 00.0000000  0  7 23 15 01 28 21 31 17
 -18259306.70008 -14228009.67308  21875875.14908  21875876.67408
  -8351969.32108  -6508021.26108  23718323.20008  23718326.22508
  -7410974.77108  -5774780.91608  23807057.54108  23807060.82608
 -24585466.71908 -19157494.96108  20708298.21008  20708298.79208
 -27143147.24508 -21150480.35108  20420347.28108  20420348.32408
 -23139721.25809 -18030941.78608  20741325.77109  20741326.28808
   -203874.60006   -158853.14206  25280393.23006  25280397.45506
 93 07 25 02 31 00.0000000  0  6 23 15 01 28 21 31
 -18125786.89408 -14123968.31508  21901283.18208  21901284.77408
  -8559374.68508  -6669635.70308  23678855.15508  23678858.14108
  -7613805.38608  -5932830.61608  23768460.04308  23768463.36408
 -24475739.19008 -19071993.04308  20729178.81108  20729179.41208
 -27145010.31108 -21151932.09208  20419992.72108  20419993.73808
 -23191406.02209 -18071215.62408  20731490.40409  20731490.96908
 93 07 25 02 32 00.0000000  0  7 23 15 01 26 28 21 31
 -17990803.06308 -14018786.15508  21926969.81908  21926971.30908
  -8766324.36508  -6830895.07808  23639473.85608  23639476.81008
  -7815893.02608  -6090301.38408  23730003.89008  23730007.19108
        -0.77617        -0.32017  25414200.94317  25414204.12117
 -24363902.04008 -18984847.25808  20750460.73308  20750461.30808
 -27144675.16808 -21151670.94408  20420056.44908  20420057.53208
 -23240928.55809 -18109804.60808  20722066.60909  20722067.15208
 93 07 25 02 33 00.0000000  0  7 23 15 01 28 21 31 26
 -17854372.88608 -13912476.97208  21952931.60808  21952933.08908
  -8972804.77208  -6991788.77508  23600181.82208  23600184.76808
  -8017192.37508  -6247157.89808  23691697.90208  23691701.01408
 -24249920.14908 -18896030.25108  20772150.83008  20772151.42208
 -27142105.63508 -21149668.71208  20420545.47308  20420546.55408
 -23288266.11209 -18146691.00508  20713058.56509  20713059.10208
    171402.85407    133560.86607  25446817.58507  25446821.05007
 93 07 25 02 34 00.0000000  0  7 23 15 01 28 21 31 26
 -17716327.63308 -13804909.28108  21979200.74008  21979202.24808
  -9178688.91808  -7152217.84308  23561003.27808  23561006.17308
  -8217511.13008  -6403250.29108  23653578.41308  23653581.54108
 -24133668.22708 -18805444.38508  20794272.68108  20794273.29008
 -27137193.08308 -21145840.75208  20421480.31608  20421481.40508
 -23333198.83709 -18181703.50808  20704508.17909  20704508.71208
    344181.75007    268193.65107  25479696.66007  25479700.08907
 93 07 25 02 35 00.0000000  0  8 23 15 01 28 21 31 02 26
 -17576813.48108 -13696197.00208  22005749.48208  22005751.03108
  -9384043.06808  -7312233.89208  23521925.52408  23521928.40208
  -8416865.09708  -6558590.88708  23615642.42708  23615645.57308
 -24015260.39308 -18713178.59308  20816805.06508  20816805.70308
 -27130002.81308 -21140237.94108  20422848.52308  20422849.64008
 -23375830.88009 -18214923.26408  20696395.45109  20696395.99908
        -0.03417         0.08817  25427774.88517  25427779.04817
    518201.31507    403793.30407  25512811.25507  25512815.03407
 93 07 25 02 36 00.0000000  0  8 23 15 01 28 21 31 02 26
 -17435941.33608 -13586426.54708  22032556.64308  22032558.16308
  -9588923.92108  -7471881.13108  23482937.89708  23482940.66408
  -8615381.06008  -6713278.49608  23577866.09208  23577869.05908
 -23894787.89308 -18619303.96708  20839730.31408  20839730.95508
 -27120587.70108 -21132901.48808  20424640.15008  20424641.27908
 -23416349.14609 -18246495.92308  20688685.17709  20688685.66708
   -163461.92007   -127372.75807  25396669.02807  25396673.11707
    693298.92407    540232.80807  25546131.48607  25546135.30107
 93 07 25 02 37 00.0000000  0  8 23 15 01 28 21 31 02 26
 -17293696.79008 -13475586.69108  22059624.91808  22059626.46308
  -9793388.76008  -7631204.21608  23444029.42608  23444032.11308
  -8813224.54508  -6867442.08608  23540217.44708  23540220.56908
 -23772303.74508 -18523861.82508  20863038.21808  20863038.91608
 -27108994.98008 -21123868.19508  20426846.12308  20426847.24408
 -23454801.10009 -18276458.46908  20681367.99609  20681368.50008
   -325666.14007   -253765.53807  25365802.52707  25365806.62707
    869407.24407    677459.99807  25579643.85607  25579647.91507
 93 07 25 02 38 00.0000000  0  8 23 15 01 28 21 31 02 26
 -17149898.53908 -13363536.15508  22086988.78208  22086990.41308
  -9997289.93608  -7790088.08808  23405228.15808  23405230.81208
  -9010243.36008  -7020963.05808  23502725.81008  23502729.00408
 -23647679.60708 -18426752.15208  20886753.41108  20886754.07708
 -27095105.21508 -21113044.99908  20429489.29808  20429490.38008
 -23490906.21109 -18304592.31208  20674497.36709  20674497.90608
   -486520.83907   -379106.79907  25335192.85807  25335196.64207
   1046735.77507    815638.11707  25613388.61107  25613391.90907
 93 07 25 02 39 00.0000000  0  7 23 15 01 28 21 31 02
 -17004619.83708 -13250332.03008  22114634.50908  22114636.07908
 -10200605.23708  -7948515.44708  23366538.39408  23366541.09008
  -9206291.84708  -7173727.94508  23465419.00708  23465422.07508
 -23520967.02008 -18328015.12408  20910866.22608  20910866.87408
 -27079019.43308 -21100510.61908  20432550.35408  20432551.38708
 -23524621.41809 -18330863.89608  20668081.64409  20668082.17008
   -645852.42607   -503261.22407  25304872.91007  25304876.95307
 93 07 25 02 40 00.0000000  0  8 23 15 01 28 21 31 02 26
 -16858062.45608 -13136131.52408  22142523.44808  22142524.98708
 -10403372.14808  -8106515.49108  23327953.04608  23327955.65008
  -9401292.41008  -7325676.27908  23428311.45408  23428314.57508
 -23392223.66708 -18227695.68608  20935365.27708  20935365.95808
 -27060884.91308 -21086379.82308  20436001.20708  20436002.26908
 -23556054.91009 -18355357.52408  20662099.98609  20662100.53408
   -803633.14907   -626207.12007  25274848.23107  25274852.09207
        -0.13817         0.00117  25681535.20317  25681539.03617
 93 07 25 02 41 00.0000000  0  7 23 15 01 28 21 31 02
 -16710204.39608 -13020917.50708  22170659.96208  22170661.52508
 -10605574.50008  -8264075.63008  23289475.10408  23289477.67208
  -9595215.40208  -7476784.96208  23391409.04108  23391412.22308
 -23261453.26808 -18125796.73008  20960250.12308  20960250.85708
 -27040673.94908 -21070631.02408  20439847.18308  20439848.31208
 -23585180.90609 -18378053.10808  20656557.50609  20656558.08208
   -959907.48007   -747979.26007  25245110.11207  25245114.22607
 93 07 25 02 42 00.0000000  0  7 28 23 15 01 02 21 31
 -23128658.95608 -18022320.70108  20985519.92508  20985520.65308
 -16560942.93308 -12904609.93208  22199063.54008  22199065.17108
 -10807169.34008  -8421162.40508  23251112.78608  23251115.37608
  -9788041.70208  -7627039.07208  23354715.38508  23354718.34008
  -1114595.33607   -868515.11907  25215674.10607  25215677.81807
 -27018166.79708 -21053092.99108  20444130.12808  20444131.23408
 -23611838.95609 -18398825.61708  20651484.65709  20651485.21808
 93 07 25 02 43 00.0000000  0  7 28 23 15 01 02 21 31
 -22993889.57708 -17917305.64708  21011165.87408  21011166.59108
 -16410313.21408 -12787236.18108  22227727.43908  22227728.98108
 -11008174.57708  -8577789.75408  23212862.70308  23212865.24708
  -9979886.44108  -7776528.34008  23318208.67708  23318211.39008
  -1267644.25007   -987773.93007  25186549.72507  25186553.42607
 -26993276.80508 -21033698.19708  20448866.60408  20448867.73508
 -23636038.03609 -18417682.04208  20646879.71309  20646880.23908
 93 07 25 02 44 00.0000000  0  7 28 23 15 01 02 21 31
 -22857165.36708 -17810767.36108  21037183.55308  21037184.33108
 -16258388.87308 -12668853.62908  22256637.75808  22256639.30308
 -11208626.57008  -8733985.99808  23174717.88808  23174720.36808
 -10170772.17108  -7925270.34608  23281884.17708  23281886.85408
  -1419134.35807  -1105818.09407  25157722.03307  25157725.73507
 -26966184.35008 -21012587.20108  20454022.12408  20454023.25108
 -23657934.03709 -18434743.86308  20642713.03609  20642713.58008
 93 07 25 02 45 00.0000000  0  7 28 23 15 01 02 21 31
 -22718448.27508 -17702676.17508  21063580.71508  21063581.47008
 -16105115.66308 -12549420.01908  22285804.68908  22285806.35708
 -11408503.97408  -8889734.51708  23136682.45808  23136684.87208
 -10360577.71008  -8073170.64208  23245765.22408  23245768.00408
  -1569150.46507  -1222713.59507  25129174.74907  25129178.55307
 -26937083.24208 -20989911.02208  20459559.86908  20459561.01908
 -23677618.46509 -18450082.37908  20638967.31909  20638967.84108
 93 07 25 02 46 00.0000000  0  7 28 23 15 01 02 21 31
 -22577771.79008 -17593058.18808  21090350.51308  21090351.31308
 -15950467.20008 -12428914.78308  22315233.37608  22315235.01708
 -11607824.51208  -9045049.11408  23098752.95808  23098755.32608
 -10549277.22308  -8220209.10108  23209856.75608  23209859.61808
  -1717696.51707  -1338463.63807  25100907.30307  25100910.84707
 -26906024.57508 -20965709.47108  20465470.11608  20465471.26908
 -23695171.19809 -18463759.82908  20635627.05409  20635627.57608
 93 07 25 02 47 00.0000000  0  7 28 15 01 23 02 21 31
 -22435071.63908 -17481863.32708  21117505.61608  21117506.45408
 -11806464.09708  -9199833.08208  23060953.01508  23060955.33608
 -10736816.63808  -8366343.60208  23174169.11608  23174171.86308
 -15794410.07508 -12307311.88908  22344930.09508  22344931.76708
  -1864596.11707  -1452930.72407  25072952.91207  25072956.72607
 -26872738.43408 -20939772.22708  20471804.28908  20471805.40708
 -23710394.06509 -18475621.80108  20632730.23409  20632730.77808
 93 07 25 02 48 00.0000000  0  7 28 15 01 23 02 21 31
 -22290399.03908 -17369131.49608  21145035.77308  21145036.62808
 -12004466.66308  -9354120.67208  23023274.28408  23023276.59508
 -10923304.01908  -8511658.34008  23138681.61608  23138684.45208
 -15637224.46908 -12184829.66308  22374841.48908  22374843.21708
  -2009849.75407  -1566115.27907  25045311.98007  25045315.73707
 -26837119.01208 -20912016.84308  20478582.50308  20478583.60808
 -23723218.71009 -18485615.02908  20630289.77509  20630290.28008
 93 07 25 02 49 00.0000000  0  7 28 15 01 23 02 21 31
 -22143699.43508 -17254820.18308  21172951.89708  21172952.74608
 -12201815.85508  -9507899.14808  22985719.91108  22985722.15208
 -11108653.94508  -8656086.75108  23103410.64408  23103413.43108
 -15478994.29508 -12061533.49008  22404951.82108  22404953.49208
  -2153453.69107  -1678014.36207  25017985.15807  25017988.80607
 -26799202.82808 -20882471.77708  20485797.68008  20485798.79408
 -23733635.74209 -18493732.19708  20628307.49609  20628307.99008
 93 07 25 02 50 00.0000000  0  7 28 15 01 23 02 21 31
 -21994974.14308 -17138930.42008  21201253.46108  21201254.31708
 -12398461.04708  -9661129.05708  22948299.45408  22948301.67708
 -11292701.90608  -8799500.63808  23068387.49008  23068390.17008
 -15319533.31808 -11937278.24708  22435296.29308  22435297.95908
  -2295352.93708  -1788585.11307  24990982.59808  24990986.15807
 -26759103.00508 -20851225.17508  20493428.43508  20493429.53708
 -23741635.25509 -18499965.58408  20626785.28809  20626785.78508
 93 07 25 02 51 00.0000000  0  7 28 15 01 23 02 21 31
 -21844409.72508 -17021607.56508  21229904.97508  21229905.89208
 -12594400.78308  -9813809.26108  22911013.25408  22911015.46908
 -11475440.07708  -8941893.90508  23033613.49108  23033616.10308
 -15158678.65408 -11811937.01708  22465905.97508  22465907.60908
  -2435509.69108  -1897798.07407  24964311.54608  24964315.17807
 -26716952.86908 -20818380.92108  20501449.38008  20501450.49608
 -23747242.01909 -18504334.48908  20625718.39209  20625718.88908
 93 07 25 02 52 00.0000000  0  7 28 15 01 23 02 21 31
 -21692130.02808 -16902948.13508  21258882.85108  21258883.79508
 -12789674.76508  -9965970.70008  22873853.83108  22873855.99008
 -11656932.22608  -9083316.23908  22999076.47008  22999079.09608
 -14996516.25708 -11685576.77208  22496764.47708  22496766.18208
  -2573967.47208  -2005687.14607  24937963.83608  24937967.33307
 -26672798.52908 -20783974.94608  20509851.61308  20509852.74408
 -23750521.12209 -18506889.63208  20625094.32109  20625094.88308
 93 07 25 02 53 00.0000000  0  7 28 15 01 23 02 21 31
 -21538050.73908 -16782886.43108  21288203.26408  21288204.20808
 -12984239.03408 -10117579.11908  22836829.32108  22836831.50108
 -11837160.51808  -9223753.74108  22964779.94108  22964782.67008
 -14833189.07708 -11558308.91508  22527844.63608  22527846.43308
  -2710719.43008  -2112247.04508  24911940.82108  24911944.38708
 -26626533.87408 -20747924.56908  20518655.49308  20518656.65308
 -23751429.34109 -18507597.33408  20624921.52409  20624922.10508
 93 07 25 02 54 00.0000000  0  7 28 15 01 02 23 21 31
 -21382048.09208 -16661326.01108  21317889.53408  21317890.46508
 -13178063.18508 -10268610.82608  22799945.73308  22799947.89708
 -12016121.19808  -9363203.48908  22930724.80108  22930727.51308
  -2845742.48108  -2217459.75007  24886246.76808  24886250.31507
 -14668748.61108 -11430173.56808  22559136.62808  22559138.42908
 -26578084.71608 -20710171.98208  20527875.02508  20527876.17808
 -23749960.53009 -18506452.80608  20625200.95309  20625201.52708
 93 07 25 02 55 00.0000000  0  7 28 15 01 02 23 21 31
 -21224149.15308 -16538287.96408  21347936.94408  21347937.86208
 -13371165.06808 -10419079.72108  22763199.60608  22763201.74308
 -12193789.56608  -9501646.23408  22896915.62508  22896918.19508
  -2979020.08508  -2321312.24508  24860884.66808  24860888.18608
 -14503246.13308 -11301210.67808  22590630.71908  22590632.61308
 -26527522.36308 -20670772.75308  20537496.69108  20537497.85508
 -23746134.90309 -18503471.79708  20625928.90209  20625929.48708
 93 07 25 02 56 00.0000000  0  8 28 15 01 02 09 21 31 23
 -21064457.09908 -16413852.68408  21378325.36508  21378326.33608
 -13563554.50108 -10568993.46108  22726589.05108  22726591.15208
 -12370105.00908  -9639034.74608  22863363.76508  22863366.24808
  -3110556.22508  -2423807.84708  24835854.15808  24835857.83608
        -0.40817        -0.57817  25347950.68817  25347954.45217
 -26474933.16208 -20629794.16608  20547504.13408  20547505.26008
 -23739967.59309 -18498666.10408  20627102.54209  20627103.12308
 -14336716.90508 -11171447.73008  22622320.31808  22622322.18608
 93 07 25 02 57 00.0000000  0  8 28 15 01 02 09 21 31 23
 -20902941.47808 -16287996.44408  21409060.67408  21409061.69008
 -13755168.71508 -10718303.13208  22690126.04908  22690128.09708
 -12545010.45708  -9775324.56508  22830080.31408  22830082.60308
  -3240226.05008  -2524849.15408  24811178.71408  24811182.09708
   -124351.67407    -96897.60507  25324287.34907  25324291.04707
 -26420301.54608 -20587224.08608  20557900.21208  20557901.37408
 -23731411.90809 -18491999.34308  20628730.62209  20628731.15208
 -14169065.91308 -11040810.66808  22654223.32908  22654225.24508
 93 07 25 02 58 00.0000000  0  8 28 15 01 02 09 21 31 23
 -20739578.97308 -16160701.07908  21440147.69908  21440148.77408
 -13945998.10308 -10867001.24608  22653812.29308  22653814.36808
 -12718556.55208  -9910555.15908  22797055.52308  22797057.83108
  -3367945.75908  -2624370.91708  24786874.34708  24786877.89008
   -247130.74207   -192569.54407  25300923.38007  25300927.09907
 -26363566.93108 -20543015.30508  20568696.41808  20568697.59608
 -23720461.30609 -18483466.41308  20630814.50409  20630815.03108
 -14000236.43108 -10909255.30808  22686350.47108  22686352.38108
 93 07 25 02 59 00.0000000  0  8 28 15 01 02 09 23 21 31
 -20574402.83408 -16031992.50208  21471579.79708  21471580.84108
 -14136060.14108 -11015101.42108  22617644.61108  22617646.65408
 -12890752.00808 -10044733.30108  22764287.70508  22764290.00708
  -3493762.22208  -2722409.65308  24762932.27608  24762935.68408
   -368399.65207   -287064.74907  25277846.67707  25277850.32407
 -13830242.18508 -10776792.33808  22718699.43608  22718701.27908
 -26304720.88308 -20497161.25108  20579894.49708  20579895.69308
 -23707087.38208 -18473045.18208  20633359.40408  20633359.96008
 93 07 25 03 00 00.0000000  0  8 28 15 01 02 09 21 31 23
 -20407407.16408 -15901866.11408  21503357.99008  21503359.08908
 -14325350.11508 -11162599.98508  22581623.86608  22581625.85808
 -13061464.17508 -10177755.62908  22731802.06508  22731804.31108
  -3617758.05608  -2819029.72508  24739336.41508  24739339.93308
   -488143.88907   -380371.86907  25255060.01407  25255063.56307
 -26243775.02408 -20449670.97908  20591492.11708  20591493.29508
 -23691191.23308 -18460658.58108  20636384.36908  20636384.92608
 -13659141.87008 -10643467.49808  22751258.75308  22751260.69808
 93 07 25 03 01 00.0000000  0  8 28 15 01 02 09 21 31 23
 -20238650.13608 -15770367.23408  21535471.53708  21535472.65208
 -14513910.07508 -11309529.70208  22545741.92308  22545743.97208
 -13230665.33908 -10309600.55708  22699604.16408  22699606.34808
  -3740032.56908  -2914308.50108  24716068.38508  24716071.75608
   -606303.78107   -472444.45207  25232574.84007  25232578.35607
 -26180827.27408 -20400620.79508  20603470.62008  20603471.84708
 -23672848.37908 -18446365.46008  20639874.94008  20639875.46608
 -13487084.53308 -10509396.92908  22784000.22008  22784002.23408
 93 07 25 03 02 00.0000000  0  8 28 15 01 02 09 23 21 31
 -20068226.40208 -15637569.62008  21567902.15608  21567903.29008
 -14701751.29008 -11455899.36308  22509996.89308  22509998.85608
 -13398382.97408 -10440289.49808  22667688.46608  22667690.63508
  -3860543.57908  -3008213.10408  24693135.93408  24693139.20408
   -722920.10007   -563314.24107  25210383.46307  25210387.07607
 -13314149.76508 -10374642.63408  22816908.73508  22816910.69708
 -26115954.90708 -20350070.91208  20615815.43908  20615816.68508
 -23652226.47709 -18430296.46008  20643799.19509  20643799.68108
 93 07 25 03 03 00.0000000  0  8 28 15 01 02 09 23 21 31
 -19896191.65408 -15503516.66608  21600639.31108  21600640.45408
 -14888803.73308 -11601654.40508  22474401.84908  22474403.87008
 -13564630.83108 -10569833.16108  22636052.45508  22636054.63208
  -3979193.05308  -3100667.18208  24670557.74308  24670560.98808
   -838045.08407   -653021.94307  25188475.75807  25188479.34607
 -13140244.65108 -10239132.23708  22850001.78708  22850003.89408
 -26049135.06308 -20298003.51608  20628530.93208  20628532.14808
 -23629386.16309 -18412498.82508  20648145.52809  20648146.00608
 93 07 25 03 04 00.0000000  0  1 28
  -1128510.27408   -879358.65508   -214748.36508   -214748.36508
 93 07 25 03 05 00.0000000  4  1
END OF FILE                                                 COMMENT
