     2              OBSERVATION DATA    GPS                 RINEX VERSION / TYPE
srx v1.3 (5/19/93)  STARR               93/12/15 17:42:35   PGM / RUN BY / DATE
lone                                                        MARKER NAME
0                   TURBOROGUE          93.05.25            REC # / TYPE / VERS
 -3508232.5192 -1140160.1867  5185766.6678                  APPROX POSITION XYZ
    60                                                      INTERVAL
     1     1     0                                          WAVELENGTH FACT L1/2
     4    L1    L2    P1    P2                              # / TYPES OF OBSERV
SNR is mapped to signal strength [0,1,4-9]                  COMMENT
 SNR:   >500  >100   >50   >10    >5    >0   bad   n/a      COMMENT
 sig:      9     8     7     6     5     4     1     0      COMMENT
  1993    07    18    00    00   00.000000                  TIME OF FIRST OBS
  1993    07    18    13    38   00.000000                  TIME OF LAST OBS
    24                                                      # OF SATELLITES
    01   208   208   208   208                              PRN / # OF OBS
    02   253   253   253   253                              PRN / # OF OBS
    03   235   235   235   235                              PRN / # OF OBS
    07   247   247   247   247                              PRN / # OF OBS
    09    27    27    27    27                              PRN / # OF OBS
    12    63    63    63    63                              PRN / # OF OBS
    13   246   246   246   246                              PRN / # OF OBS
    14   391   391   391   391                              PRN / # OF OBS
    15   375   375   375   375                              PRN / # OF OBS
    16   255   255   255   255                              PRN / # OF OBS
    17   246   246   246   246                              PRN / # OF OBS
    18   309   309   309   309                              PRN / # OF OBS
    19   312   312   312   312                              PRN / # OF OBS
    20    52    52    52    52                              PRN / # OF OBS
    21   341   341   341   341                              PRN / # OF OBS
    22   253   253   253   253                              PRN / # OF OBS
    23   270   270   270   270                              PRN / # OF OBS
    24   261   261   261   261                              PRN / # OF OBS
    25   243   243   243   243                              PRN / # OF OBS
    26   130   130   130   130                              PRN / # OF OBS
    27   237   237   237   237                              PRN / # OF OBS
    28   377   377   377   377                              PRN / # OF OBS
    29   295   295   295   295                              PRN / # OF OBS
    31   427   427   427   427                              PRN / # OF OBS
                                                            END OF HEADER
 93 07 18 00 00 00.0000000  0  7 03 28 23 19 16 22 17
 -22490298.99008 -17524887.99108  21286566.80108  21286568.50708
 -13869816.62808 -10807632.35608  22816032.31708  22816033.53108
 -10220330.61008  -7963880.16408  23427774.40008  23427777.02908
   -533989.21508   -416094.99508  25209192.01908  25209195.23608
  -2518694.86308  -1962613.74908  24635162.71908  24635165.99908
 -23105691.56809 -18004421.13209  20802552.76809  20802553.40009
 -26936969.37409 -20989822.47109  20242688.62909  20242689.45409
 93 07 18 00 01 00.0000000  0  7 03 28 23 19 16 22 17
 -22357429.51108 -17421353.31608  21311851.01908  21311852.74608
 -14056056.75708 -10952754.35408  22780592.08508  22780593.16308
 -10415294.29108  -8115799.66408  23390673.84108  23390676.53708
   -663267.00408   -516830.71508  25184590.82308  25184594.52308
  -2352553.63708  -1833153.13208  24666778.41108  24666781.67208
 -23087647.11709 -17990360.48009  20805986.53409  20805987.12009
 -26907413.09509 -20966791.54909  20248313.01909  20248313.82309
 93 07 18 00 02 00.0000000  0  8 03 28 23 19 21 16 22 17
 -22223290.01408 -17316829.09108  21337376.99808  21337378.74208
 -14241644.02708 -11097367.72108  22745275.90908  22745276.88908
 -10609496.71608  -8267126.04008  23353718.14708  23353720.89608
   -790830.49308   -616230.86407  25160316.55408  25160319.71107
         0.07817         0.00518  25589574.03117  25589581.27618
  -2184883.74108  -1702501.37208  24698685.03008  24698688.47308
 -23067404.85609 -17974587.32009  20809838.50809  20809839.12209
 -26875751.66809 -20942120.32809  20254337.95309  20254338.73809
 93 07 18 00 03 00.0000000  0  8 03 28 23 19 21 16 22 17
 -22087804.99008 -17211256.37408  21363158.99008  21363160.67608
 -14426464.89908 -11241383.86008  22710105.48508  22710106.52508
 -10802831.43908  -8417776.27008  23316927.63308  23316930.20308
   -916637.16208   -714261.94407  25136376.31508  25136379.53507
   -227547.16307   -177308.97207  25546272.86207  25546279.52707
  -2015761.59708  -1570717.99208  24730867.84008  24730871.46208
 -23044985.09509 -17957117.37909  20814104.81209  20814105.44409
 -26841902.48909 -20915744.33509  20260779.30209  20260780.05909
 93 07 18 00 04 00.0000000  0  8 03 28 23 19 21 16 22 17
 -21950974.34208 -17104635.13308  21389197.03608  21389198.74908
 -14610505.52308 -11384792.01808  22675083.58008  22675084.60408
 -10995116.73208  -8567608.79808  23280336.77108  23280339.36808
  -1040696.66208   -810931.64407  25112768.32508  25112771.10807
   -455389.42607   -354847.81907  25502915.26407  25502921.70007
  -1845207.82208  -1437819.09608  24763323.24808  24763327.05808
 -23020356.63909 -17937926.39009  20818791.50309  20818792.11709
 -26805766.27509 -20887586.25509  20267655.76909  20267656.51609
 93 07 18 00 05 00.0000000  0  8 03 28 23 19 21 16 22 17
 -21812787.51608 -16996957.10508  21415493.11608  21415494.87008
 -14793716.03208 -11527553.32308  22640219.77508  22640220.67408
 -11186245.68308  -8716540.26908  23243966.11808  23243968.59508
  -1162956.11908   -906198.69007  25089503.04508  25089506.32207
   -683431.83607   -532542.56907  25459519.85407  25459526.23507
  -1673160.46608  -1303756.33908  24796062.94508  24796066.72408
 -22993390.91309 -17916914.12909  20823922.94209  20823923.46609
 -26767250.03309 -20857573.58009  20274985.15409  20274985.92109
 93 07 18 00 06 00.0000000  0  8 03 28 23 19 21 16 22 17
 -21673368.49908 -16888318.91608  21442023.62508  21442025.42208
 -14976178.27508 -11669731.56308  22605498.23408  22605499.09308
 -11376366.87708  -8864686.47208  23207786.99708  23207789.46908
  -1283439.64608  -1000081.84207  25066575.83108  25066578.90807
   -911716.50208   -710426.22007  25416078.44608  25416084.82807
  -1499720.27708  -1168608.22408  24829067.64308  24829071.09608
 -22964103.37609 -17894092.65409  20829496.22809  20829496.72609
 -26726511.44609 -20825829.19609  20282737.40309  20282738.22909
 93 07 18 00 07 00.0000000  0  8 03 28 23 19 21 16 22 17
 -21532739.89908 -16778738.25208  21468784.37308  21468786.17108
 -15157964.80008 -11811383.32208  22570905.36808  22570906.29808
 -11565480.15108  -9012047.33608  23171799.75108  23171802.27108
  -1402093.36708  -1092539.23407  25043996.79708  25043999.81507
  -1140195.44008   -888461.39507  25372600.07308  25372606.51007
  -1324937.21308  -1032413.68807  24862327.62108  24862331.01007
 -22932538.51909 -17869496.70009  20835502.81209  20835503.36209
 -26683679.73209 -20792453.85609  20290888.02109  20290888.86409
 93 07 18 00 08 00.0000000  0  8 03 28 23 19 21 16 22 17
 -21390875.94508 -16668194.96808  21495780.23908  21495782.01008
 -15339095.77108 -11952524.24308  22536437.18908  22536438.18808
 -11753530.99208  -9158580.33608  23136014.78408  23136017.21708
  -1518872.29308  -1183535.76707  25021774.39308  25021777.01407
  -1368780.85107  -1066579.52307  25329101.32607  25329107.47207
  -1148738.74007   -895116.26707  24895857.02607  24895860.72707
 -22898738.09309 -17843158.73309  20841934.76609  20841935.39509
 -26638722.91109 -20757422.58109  20299443.02609  20299443.85209
 93 07 18 00 09 00.0000000  0  8 03 28 23 19 21 16 22 17
 -21247793.42008 -16556702.12408  21523007.96508  21523009.79008
 -15519555.16508 -12093141.83708  22502096.78008  22502097.71708
 -11940537.25308  -9304299.34708  23100428.60608  23100431.04608
  -1633795.74708  -1273086.45507  24999904.99608  24999907.90507
  -1597435.98607  -1244751.99307  25285589.34707  25285595.47907
   -971142.27407   -756729.52608  24929652.64107  24929656.37808
 -22862711.89909 -17815086.37909  20848790.26209  20848790.88909
 -26591549.24409 -20720663.86809  20308419.87209  20308420.66609
 93 07 18 00 10 00.0000000  0  8 03 28 23 19 21 16 22 17
 -21103515.76208 -16444278.00108  21550463.10808  21550464.93708
 -15699272.57508 -12233181.25908  22467897.36408  22467898.26008
 -12126529.83008  -9449228.47008  23065035.28808  23065037.70608
  -1746894.06508  -1361214.85507  24978383.05408  24978386.08807
  -1826187.55208  -1422999.48607  25242059.11608  25242064.97907
   -792326.62208   -617392.72908  24963680.42108  24963684.08708
 -22824410.45909 -17785241.09009  20856078.80809  20856079.43809
 -26542131.59009 -20682156.58209  20317823.74209  20317824.55209
 93 07 18 00 11 00.0000000  0  8 03 28 23 19 21 16 22 17
 -20958083.91608 -16330954.53008  21578137.88008  21578139.73108
 -15878242.02408 -12372637.87108  22433840.57608  22433841.44608
 -12311527.19608  -9593382.12708  23029831.29408  23029833.70808
  -1858143.92208  -1447902.99007  24957212.68808  24957215.98607
  -2055102.12608  -1601374.02907  25198497.93108  25198503.28607
   -612413.39308   -477200.69808  24997916.87608  24997920.45508
 -22783868.96009 -17753650.31909  20863793.67409  20863794.27509
 -26490544.39309 -20641958.76609  20327640.42309  20327641.23809
 93 07 18 00 12 00.0000000  0  8 03 28 23 19 21 16 22 17
 -20811420.02908 -16216671.00808  21606047.13808  21606048.94708
 -16056393.26508 -12511456.90208  22399939.66508  22399940.56308
 -12495394.25608  -9736655.01908  22994842.55408  22994844.77508
  -1967466.86808  -1533089.53707  24936409.49508  24936412.30007
  -2284135.63408  -1779841.20607  25154913.84308  25154919.33307
   -431259.42208   -336041.83508  25032389.16808  25032392.94808
 -22741076.09809 -17720305.22009  20871936.90809  20871937.54909
 -26436780.60909 -20600064.88909  20337871.38709  20337872.15409
 93 07 18 00 13 00.0000000  0  8 03 28 23 19 21 16 22 17
 -20663542.82108 -16101442.04808  21634187.26508  21634189.01508
 -16233738.06108 -12649647.55808  22366191.97108  22366192.86508
 -12678047.41708  -9878982.02708  22960084.72308  22960086.89308
  -2074942.13108  -1616836.43308  24915957.50608  24915960.30308
  -2513282.73807  -1958396.85007  25111307.89907  25111313.82007
   -248794.36207   -193861.38407  25067111.11307  25067114.95907
 -22696050.76109 -17685220.53909  20880504.93009  20880505.59309
 -26380866.89109 -20556495.75009  20348511.40709  20348512.14509
 93 07 18 00 14 00.0000000  0  7 28 03 23 21 16 22 17
 -16410284.87408 -12787216.40708  22332596.14108  22332597.06308
 -20514458.61008 -15985272.57608  21662557.07308  21662558.86108
 -12859452.37008 -10020336.41308  22925564.49208  22925566.63808
  -2742496.60908  -2137004.60107  25067689.66308  25067695.37007
    -65041.28807    -50677.28307  25102078.21407  25102082.11507
 -22648727.48209 -17648345.26409  20889510.14609  20889510.78109
 -26322822.50009 -20511266.35609  20359556.82209  20359557.60609
 93 07 18 00 15 00.0000000  0  7 28 03 23 21 16 22 17
 -16586008.94008 -12924144.18408  22299156.96608  22299157.71108
 -20364185.48808 -15868176.71108  21691153.10308  21691155.00508
 -13039647.01108 -10160747.71608  22891274.49808  22891276.68408
  -2971788.72708  -2315673.24107  25024056.48308  25024061.71507
    119903.04408     93435.09207  25137272.22708  25137275.75707
 -22599133.31309 -17609700.49409  20898947.57409  20898948.22509
 -26262667.40309 -20464392.28609  20371003.95909  20371004.76409
 93 07 18 00 16 00.0000000  0  7 28 03 23 21 16 22 17
 -16760868.92008 -13060398.62008  22265882.04508  22265882.78308
 -20212721.12108 -15750152.56808  21719975.84108  21719977.75008
 -13218614.36908 -10300202.64708  22857217.96108  22857220.07208
  -3201064.82508  -2494329.39707  24980426.30508  24980431.28007
    306058.14208    238490.95207  25172696.48808  25172700.01807
 -22547298.13609 -17569309.44608  20908811.58709  20908812.20708
 -26200404.69509 -20415875.88909  20382852.20309  20382852.95809
 93 07 18 00 17 00.0000000  0  7 28 03 23 21 16 22 17
 -16934883.13808 -13195994.02308  22232768.19608  22232768.93808
 -20060101.39608 -15631228.15208  21749018.50708  21749020.40608
 -13396300.28508 -10438659.04408  22823405.39108  22823407.38208
  -3430283.41508  -2672940.82707  24936806.99308  24936812.05107
    493444.78808    384506.40607  25208354.98008  25208358.73407
 -22493272.50109 -17527211.55808  20919092.23209  20919092.86108
 -26135995.66009 -20365687.03009  20395108.84209  20395109.58809
 93 07 18 00 18 00.0000000  0  7 28 03 23 21 16 22 17
 -17108031.80608 -13330914.99008  22199819.08408  22199819.72808
 -19906338.51308 -15511412.97908  21778278.65608  21778280.54508
 -13572645.28608 -10576070.58108  22789847.92608  22789849.91908
  -3659427.60707  -2851494.30308  24893201.99707  24893207.01908
    682018.72808    531447.03407  25244239.64408  25244243.02607
 -22437040.81109 -17483394.68308  20929792.78709  20929793.45308
 -26069461.90509 -20313842.55909  20407769.78109  20407770.55809
 93 07 18 00 19 00.0000000  0  7 28 03 23 21 16 22 17
 -17280319.58908 -13465165.14808  22167033.77608  22167034.46608
 -19751461.01108 -15390729.27208  21807750.89508  21807752.80408
 -13747700.57208 -10712477.14308  22756535.84208  22756537.81908
  -3888543.19708  -3030025.54208  24849602.43808  24849607.50008
    871667.55408    679225.23707  25280328.68708  25280332.15007
 -22378584.96209 -17437844.69908  20940916.59109  20940917.27508
 -26000915.23609 -20260429.58609  20420813.79509  20420814.58109
 93 07 18 00 20 00.0000000  0  7 28 03 23 21 16 22 17
 -17451757.18508 -13598752.77308  22134410.19808  22134410.87108
 -19595473.98308 -15269180.95708  21837434.24508  21837436.13408
 -13921474.51708 -10847885.21608  22723467.62508  22723469.57408
  -4117685.18908  -3208577.29708  24805997.91608  24806002.83008
   1062283.08907    827756.71607  25316601.63907  25316605.32307
 -22317938.57909 -17390587.76308  20952457.24609  20952457.94208
 -25930424.27709 -20205501.53809  20434227.79109  20434228.56209
 93 07 18 00 21 00.0000000  0  7 28 03 23 21 16 22 17
 -17622333.02808 -13731668.96108  22101950.77408  22101951.40608
 -19438328.21708 -15146729.78708  21867338.12808  21867340.02308
 -14093907.23908 -10982248.24308  22690654.69008  22690656.64808
  -4346799.57608  -3387107.61808  24762398.65408  24762403.37808
   1253889.14808    977060.04507  25353063.25808  25353066.88607
 -22255077.32709 -17341605.00808  20964419.38109  20964420.05908
 -25857861.50309 -20148959.13709  20448036.04809  20448036.80209
 93 07 18 00 22 00.0000000  0  7 28 03 23 21 16 22 17
 -17791944.49708 -13863833.64608  22069674.45708  22069675.06208
 -19279986.37208 -15023346.56708  21897469.58208  21897471.55408
 -14264976.02808 -11115548.43108  22658101.23408  22658103.16008
  -4575751.81008  -3565511.58008  24718830.26108  24718834.83108
   1446567.14107   1127198.71007  25389728.50407  25389732.25107
 -22189907.26209 -17290823.14008  20976820.79509  20976821.45808
 -25783062.06409 -20090673.83709  20462269.82309  20462270.61009
 93 07 18 00 23 00.0000000  0  7 22 28 03 23 21 16 17
 -22122421.95709 -17238237.21208  20989662.83409  20989663.50708
 -17960594.48008 -13995249.13908  22037581.57908  22037582.11608
 -19120531.32108 -14899095.94408  21927813.00508  21927814.88708
 -14434702.02208 -11247802.32408  22625803.29408  22625805.19208
  -4804503.33708  -3743759.15608  24675299.97008  24675304.45508
   1640318.24507   1278173.40207  25426598.32407  25426602.11007
 -25706063.62209 -20030675.05609  20476922.14809  20476922.91909
 93 07 18 00 24 00.0000000  0  7 22 28 03 23 21 16 17
 -22052751.12609 -17183948.27908  21002920.78809  21002921.46208
 -18128376.64608 -14125988.42208  22005653.60508  22005654.18308
 -18960058.62408 -14774052.34408  21958349.96408  21958351.85408
 -14603094.73308 -11379017.30108  22593759.13208  22593761.01708
  -5033091.87408  -3921879.75008  24631800.78608  24631805.25908
   1835126.30407   1429971.75607  25463669.08107  25463673.12107
 -25627077.24409 -19969127.23409  20491952.77909  20491953.51209
 93 07 18 00 25 00.0000000  0  7 22 28 03 23 21 16 17
 -21980967.32509 -17128012.86208  21016580.80009  21016581.44808
 -18295249.25908 -14256018.94508  21973898.69408  21973899.24608
 -18798511.26308 -14648171.33408  21989091.46708  21989093.33908
 -14770091.97108 -11509144.89508  22561980.60008  22561982.42108
  -5261531.45708  -4099884.27008  24588329.89008  24588334.25508
   2031016.55707   1582613.43907  25500945.75207  25500949.71407
 -25546136.06209 -19906056.17909  20507355.37809  20507356.09709
 93 07 18 00 26 00.0000000  0  8 22 28 03 23 21 31 16 17
 -21907145.41609 -17070489.29308  21030628.68709  21030629.35708
 -18461114.06808 -14385264.16208  21942335.61108  21942336.19408
 -18635890.85408 -14521454.16608  22020037.15208  22020038.97708
 -14935736.12108 -11638218.12208  22530459.45008  22530461.23408
  -5489815.69408  -4277767.75608  24544888.57708  24544892.76208
        -0.49917        -0.17917  25192015.71517  25192018.87817
   2227916.02107   1736041.47607  25538414.67307  25538418.54007
 -25463236.55809 -19841459.14409  20523130.65409  20523131.39009
 93 07 18 00 27 00.0000000  0  7 22 28 03 23 21 31 17
 -21831220.12809 -17011326.76908  21045076.82209  21045077.49808
 -18625895.01408 -14513664.84108  21910978.71308  21910979.32408
 -18472228.00708 -14393924.74408  22051181.21008  22051183.09408
 -15099958.75508 -11766183.71808  22499208.93108  22499210.68808
  -5717889.50408  -4455487.34008  24501487.50508  24501491.63408
   -213425.85107   -166305.52207  25151402.06607  25151405.03507
 -25378379.35408 -19775336.66608  20539278.43508  20539279.14108
 93 07 18 00 28 00.0000000  0  7 22 28 03 23 31 21 17
 -21753083.44209 -16950441.05108  21059945.85309  21059946.45908
 -18789702.57008 -14641307.01908  21879807.25308  21879807.71808
 -18307554.27108 -14265607.59208  22082517.62108  22082519.58008
 -15262687.06608 -11892984.88408  22468242.66708  22468244.37408
   -426790.52207   -332563.53907  25110800.27307  25110803.18007
  -5945755.95408  -4633045.33208  24458125.77208  24458129.80208
 -25291592.87508 -19707710.83508  20555793.40308  20555794.07308
 93 07 18 00 29 00.0000000  0  6 22 28 03 23 21 17
 -21672672.69409 -16887783.37108  21075247.48509  21075248.09308
 -18952623.85108 -14768258.62808  21848804.29908  21848804.69708
 -18141838.61908 -14136478.59908  22114052.31308  22114054.31208
 -15423923.11708 -12018623.28508  22437560.36808  22437562.02808
  -6173405.12708  -4810434.06208  24414805.28308  24414809.36208
 -25202860.10608 -19638568.44908  20572678.74008  20572679.42208
 93 07 18 00 30 00.0000000  0  7 28 03 23 22 31 21 17
 -19114649.33908 -14894512.19608  21817971.94008  21817972.34508
 -17975098.54208 -14006551.33008  22145781.93608  22145783.93008
 -15583737.63708 -12143153.98808  22407148.64108  22407150.25208
 -21590120.21509 -16823456.79608  21090956.74109  21090957.34608
        -0.22917        -0.14317  25029633.97217  25029637.00817
  -6400845.55008  -4987660.09108  24371524.64508  24371528.61608
 -25112244.73108 -19567959.08008  20589922.26608  20589922.93608
 93 07 18 00 31 00.0000000  0  7 28 03 23 31 21 22 17
 -19275594.01808 -15019923.58508  21787345.24308  21787345.55208
 -17807273.36308 -13875778.53508  22177718.04608  22177720.09908
 -15741973.47308 -12266454.54708  22377037.28708  22377038.86308
   -213175.16307   -166110.33407  24989068.10307  24989070.94007
  -6627943.49308  -5164619.24708  24328309.08308  24328312.96508
 -21505497.51309 -16757517.06708  21107059.96109  21107060.56708
 -25019720.18408 -19495862.05108  20607529.09708  20607529.82708
 93 07 18 00 32 00.0000000  0  7 28 03 23 31 21 22 17
 -19435454.58608 -15144490.20608  21756924.57708  21756924.97408
 -17638404.23808 -13744192.28008  22209852.82808  22209854.84608
 -15898481.95608 -12388409.11608  22347254.60208  22347256.18108
   -426190.85807   -332096.39607  24948532.41107  24948535.19807
  -6854704.86808  -5341316.12608  24285157.63308  24285161.48308
 -21418732.11108 -16689907.69908  21123570.78208  21123571.43708
 -24925253.81608 -19422251.91508  20625505.46408  20625506.18208
 93 07 18 00 33 00.0000000  0  7 28 03 23 31 21 22 17
 -19594307.82308 -15268271.88108  21726695.65708  21726696.03308
 -17468520.29308 -13611815.24708  22242180.77708  22242182.61508
 -16053272.19208 -12509024.78808  22317798.89608  22317800.47208
   -638962.90807   -497892.60507  24908043.10007  24908045.64807
  -7081162.60208  -5517776.39608  24242063.86608  24242067.66908
 -21329772.98008 -16620588.93508  21140499.22908  21140499.88208
 -24828745.68008 -19347050.78408  20643870.30808  20643871.04008
 93 07 18 00 34 00.0000000  0  7 28 03 23 31 21 22 17
 -19752224.40808 -15391323.70108  21696645.16408  21696645.48208
 -17297687.51808 -13478698.85308  22274689.16008  22274691.11208
 -16206542.06508 -12628455.75108  22288632.48108  22288634.07308
   -851518.21907   -663519.90107  24867595.10807  24867597.72507
  -7307332.04308  -5694011.98608  24199025.05608  24199028.76708
 -21238712.98308 -16549633.12408  21157827.45708  21157828.06908
 -24730308.03108 -19270346.12908  20662602.39708  20662603.11608
 93 07 18 00 35 00.0000000  0  7 28 03 21 31 23 22 17
 -19909117.19608 -15513577.75708  21666789.41508  21666789.80208
 -17125916.38008 -13344851.28408  22307376.11108  22307378.25008
  -7533164.48808  -5869985.00008  24156050.36308  24156053.95508
  -1063889.73507   -829004.01407  24827181.92907  24827184.56207
 -16358406.53108 -12746791.60208  22259733.62108  22259735.15408
 -21145640.03608 -16477108.78008  21175538.56108  21175539.17608
 -24630078.89808 -19192245.51808  20681675.40808  20681676.14308
 93 07 18 00 36 00.0000000  0  7 28 03 31 21 23 22 17
 -20064807.42908 -15634894.75108  21637162.45208  21637162.74708
 -16953141.21808 -13210221.35808  22340254.28508  22340256.29908
  -1276121.83707   -994379.48507  24786795.31407  24786797.93207
  -7758603.95708  -6045651.79208  24113150.35308  24113153.81008
 -16508765.41908 -12863954.26808  22231121.15908  22231122.72008
 -21050451.43108 -16402935.86408  21193652.39008  21193652.97508
 -24528049.83308 -19112742.35908  20701090.92408  20701091.63308
 93 07 18 00 37 00.0000000  0  7 28 03 31 21 23 22 17
 -20219325.47508 -15755298.31008  21607758.61308  21607758.97408
 -16779402.12008 -13074840.26708  22373315.73008  22373317.79908
  -1488330.24107  -1159736.46707  24746413.28907  24746415.68107
  -7983661.74608  -6221021.13208  24070322.97908  24070326.39208
 -16657454.34108 -12979815.61808  22202826.52508  22202828.09308
 -20953156.86008 -16327121.90108  21212166.92608  21212167.54808
 -24424273.36508 -19031877.54208  20720838.91608  20720839.64208
 93 07 18 00 38 00.0000000  0  7 28 21 31 03 23 22 17
 -20372687.17908 -15874800.80108  21578574.76008  21578575.08008
  -8208253.62408  -6396027.42708  24027584.39008  24027587.73108
  -1700412.03307  -1324994.76107  24706055.29507  24706057.64007
 -16604693.41908 -12938703.62808  22406561.74408  22406563.82608
 -16804343.72108 -13094274.70508  22174874.36408  22174875.84008
 -20853822.12508 -16249718.18408  21231069.72008  21231070.35808
 -24318674.56708 -18949592.71208  20740933.73108  20740934.41208
 93 07 18 00 39 00.0000000  0  7 28 03 31 21 23 22 17
 -20524870.02708 -15993384.79108  21549615.28108  21549615.53208
 -16428989.09908 -12801791.26008  22439997.24508  22439999.34208
  -1912139.25407  -1489976.83007  24665764.73107  24665767.05707
  -8432260.60108  -6570578.04308  23984957.10708  23984960.46008
 -16949425.72708 -13207325.53008  22147266.11908  22147267.56608
 -20752444.57408 -16170722.74408  21250361.28808  21250361.95208
 -24211161.20908 -18865816.09308  20761392.86508  20761393.51908
 93 07 18 00 40 00.0000000  0  7 28 31 21 03 23 22 17
 -20675989.71308 -16111140.31908  21520858.20008  21520858.45308
  -2123580.42607  -1654735.98707  24625528.75007  24625531.04707
  -8655833.76108  -6744790.59708  23942412.25908  23942415.50308
 -16252379.63208 -12664173.54208  22473604.93308  22473607.04208
 -17092941.44908 -13319155.84008  22119955.91208  22119957.26608
 -20649061.00808 -16090164.14508  21270034.47708  21270035.16208
 -24101809.26208 -18780606.77308  20782201.80808  20782202.46008
 93 07 18 00 41 00.0000000  0  7 28 31 21 03 23 22 17
 -20826083.51108 -16228096.43608  21492296.21608  21492296.41908
  -2334885.68307  -1819389.22507  24585318.42407  24585320.88507
  -8879072.60208  -6918742.65308  23899931.14108  23899934.18308
 -16074891.67708 -12525871.27508  22507379.85808  22507382.01708
 -17234922.49308 -13429790.28608  22092937.68908  22092939.03208
 -20543626.31408 -16008007.24608  21290098.07808  21290098.79808
 -23990719.93108 -18694043.63708  20803341.41408  20803342.09308
 93 07 18 00 42 00.0000000  0  7 28 31 21 03 23 22 17
 -20975035.19008 -16344162.63108  21463951.68608  21463951.81108
  -2546012.66907  -1983903.58308  24545142.13807  24545144.58608
  -9101771.90908  -7092274.33908  23857552.80408  23857555.69608
 -15896434.39508 -12386813.73508  22541339.20308  22541341.39908
 -17375154.87308 -13539062.17808  22066252.34508  22066253.62708
 -20436071.73208 -15924198.53008  21310565.10408  21310565.85008
 -23877839.90808 -18606085.20108  20824821.78608  20824822.49808
 93 07 18 00 43 00.0000000  0  7 31 28 21 03 23 22 17
  -2756943.00107  -2148264.68208  24505003.30907  24505005.74508
 -21122773.41108 -16459283.27508  21435837.80608  21435837.96708
  -9323786.55508  -7265272.53408  23815304.68308  23815307.60908
 -15717042.43408 -12247027.86408  22575476.39008  22575478.53908
 -17513549.51008 -13646902.06608  22039916.54108  22039917.83408
 -20326459.69208 -15838786.60108  21331423.56908  21331424.30008
 -23763205.72008 -18516759.88108  20846635.92908  20846636.65608
 93 07 18 00 44 00.0000000  0  7 31 28 21 03 23 22 17
  -2967550.78707  -2312374.44808  24464925.78307  24464928.10208
 -21269205.79508 -16573386.37008  21407972.58408  21407972.77808
  -9545121.98508  -7437741.43708  23773185.73708  23773188.65608
 -15536709.22008 -12106508.54008  22609792.62908  22609794.87408
 -17650056.81508 -13753271.29208  22013940.07708  22013941.36508
 -20214863.24708 -15751828.36708  21352659.71008  21352660.40408
 -23646800.32408 -18426054.38608  20868787.10808  20868787.85108
 93 07 18 00 45 00.0000000  0  7 31 28 21 03 23 22 17
  -3177902.02408  -2476284.31008  24424897.21008  24424899.37108
 -21414447.87608 -16686561.95308  21380334.04908  21380334.23408
  -9766087.67408  -7609922.22708  23731137.12708  23731139.97208
 -15355533.30508 -11965332.55908  22644269.28608  22644271.58408
 -17784843.52008 -13858299.78608  21988290.90608  21988292.19808
 -20101440.35808 -15663446.92208  21374243.45608  21374244.10908
 -23528690.02808 -18334020.38908  20891262.78608  20891263.54508
 93 07 18 00 46 00.0000000  0  8 31 28 21 03 26 23 22 17
  -3387911.40908  -2639927.81908  24384933.80208  24384935.98508
 -21558426.47408 -16798753.01108  21352935.75308  21352935.98108
  -9986667.83708  -7781802.61508  23689161.79608  23689164.68208
 -15173441.08808 -11823442.58608  22678920.44708  22678922.59508
        -0.37018         0.48618  24654796.06318  24654798.43218
 -17917853.94208 -13961944.17508  21962979.79008  21962981.03108
 -19986050.42308 -15573532.71808  21396201.42808  21396202.10208
 -23408818.93208 -18240614.34908  20914073.48308  20914074.26608
 93 07 18 00 47 00.0000000  0  8 31 28 21 03 26 23 22 17
  -3597569.89508  -2803297.90108  24345037.00908  24345039.08408
 -21701155.75808 -16909970.58008  21325775.05708  21325775.26508
 -10206649.34108  -7953216.52608  23647300.50208  23647303.36608
 -14990439.38908 -11680843.92108  22713744.56608  22713746.72608
    -96581.85508    -75257.72208  24636417.17708  24636419.48108
 -18049054.04208 -14064177.93208  21938013.13308  21938014.34408
 -19868605.20808 -15482017.00108  21418550.59008  21418551.27408
 -23287254.08908 -18145888.50608  20937206.52308  20937207.28008
 93 07 18 00 48 00.0000000  0  8 31 28 21 03 26 23 22 17
  -3806960.52308  -2966459.24808  24305191.28808  24305193.24308
 -21842679.22108 -17020248.54008  21298843.99808  21298844.18008
 -10425888.26308  -8124051.79708  23605580.59308  23605583.31008
 -14806588.60708 -11537583.63108  22748730.20808  22748732.38208
   -191500.49108   -149220.19408  24618354.56308  24618356.91508
 -18178445.86108 -14165002.63808  21913390.57908  21913391.82908
 -19749142.96708 -15388929.56608  21441283.52008  21441284.21708
 -23164076.24008 -18049905.77108  20960646.53508  20960647.33008
 93 07 18 00 49 00.0000000  0  8 31 28 21 03 26 23 22 17
  -4016141.19908  -3129457.01308  24265385.36308  24265387.20108
 -21982984.43008 -17129577.22508  21272144.75908  21272144.87008
 -10644370.16808  -8294297.21808  23564004.64708  23564007.39808
 -14621891.11108 -11393663.58008  22783876.99808  22783879.17208
   -284631.20408   -221789.47208  24600632.40708  24600634.73208
 -18305975.54008 -14264376.34408  21889122.47908  21889123.74808
 -19627743.61308 -15294332.70908  21464385.03008  21464385.74008
 -23039242.65508 -17952632.86608  20984401.56908  20984402.33808
 93 07 18 00 50 00.0000000  0  8 31 28 21 03 26 23 22 17
  -4225101.59608  -3292283.07908  24225621.15808  24225623.11108
 -22122031.77908 -17237925.75008  21245685.06008  21245685.08408
 -10862219.37008  -8464049.63508  23522549.17408  23522551.83208
 -14436347.87008 -11249084.49808  22819184.79708  22819187.04508
   -375854.15208   -292872.19608  24583273.15708  24583275.46108
 -18431566.63408 -14362239.45508  21865223.24208  21865224.46408
 -19504470.25608 -15198275.57208  21487843.19708  21487843.89608
 -22912779.83108 -17854090.40708  21008466.59308  21008467.37408
 93 07 18 00 51 00.0000000  0  8 31 28 21 03 26 23 22 17
  -4433715.37808  -3454839.05708  24185923.18708  24185925.00608
 -22259757.03608 -17345244.07508  21219476.76808  21219476.80208
 -11079462.62308  -8633329.88208  23481208.93508  23481211.58008
 -14249946.14308 -11103836.45808  22854655.91008  22854658.21508
   -465172.56708   -362470.88808  24566276.46008  24566278.70708
 -18555207.80708 -14458583.14608  21841695.05908  21841696.23708
 -19379262.17908 -15100710.86108  21511669.52008  21511670.24408
 -22784717.27608 -17754301.40008  21032836.06308  21032836.86108
 93 07 18 00 52 00.0000000  0  8 31 28 21 03 26 23 22 17
  -4641955.38808  -3617103.80808  24146296.18708  24146297.87908
 -22396208.55008 -17451569.87608  21193510.99408  21193511.04408
 -11296043.77308  -8802094.21308  23439994.70908  23439997.41808
 -14062723.94708 -10957949.09408  22890283.11608  22890285.49508
   -552715.86208   -430686.37208  24549617.52408  24549619.78008
 -18677019.16308 -14553501.00008  21818515.01808  21818516.21008
 -19252120.68308 -15001639.59708  21535863.78608  21535864.50008
 -22655034.71108 -17653250.04808  21057513.88308  21057514.69808
 93 07 18 00 53 00.0000000  0  8 31 28 21 03 26 23 22 17
  -4849856.86408  -3779104.82708  24106733.77908  24106735.43508
 -22531475.07908 -17556972.34908  21167770.49208  21167770.52208
 -11511877.57208  -8970276.23708  23398922.92108  23398925.49908
 -13874741.69708 -10811469.51908  22926055.03408  22926057.37408
   -638582.11708   -497595.10908  24533277.59208  24533279.83108
 -18797055.57208 -14647035.81108  21795672.84508  21795673.98008
 -19123157.60208 -14901148.95008  21560404.65608  21560405.36808
 -22523767.21908 -17550963.72608  21082493.18908  21082493.99308
 93 07 18 00 54 00.0000000  0  8 31 28 21 03 26 23 22 17
  -5057368.57408  -3940802.09408  24067245.41008  24067247.25608
 -22665387.44208 -17661319.58908  21142287.83308  21142287.90108
 -11726789.12508  -9137739.60208  23358026.44608  23358028.92608
 -13685910.88708 -10664328.70108  22961988.39508  22961990.70508
   -722652.02508   -563104.04508  24517279.61708  24517281.75608
 -18915155.98408 -14739062.01608  21773199.08808  21773200.15608
 -18992409.00108 -14799266.95508  21585285.28608  21585286.08508
 -22390822.05508 -17447370.09208  21107791.89508  21107792.69708
 93 07 18 00 55 00.0000000  0  8 31 28 21 03 26 23 22 17
  -5264510.52508  -4102211.19408  24027827.44908  24027829.19608
 -22797810.88208 -17764506.59908  21117088.34408  21117088.45508
 -11940812.46908  -9304510.82508  23317299.01408  23317301.39208
 -13496257.44508 -10516546.85008  22998078.29708  22998080.71608
   -804824.85308   -627134.70508  24501642.54108  24501644.46808
 -19031273.38308 -14829542.99508  21751102.68808  21751103.70708
 -18859888.28208 -14696004.06708  21610503.13308  21610503.96008
 -22256275.55608 -17342528.64208  21133395.16508  21133396.00508
 93 07 18 00 56 00.0000000  0  8 31 28 21 03 26 23 22 17
  -5471288.05308  -4263336.39708  23988478.80408  23988480.70108
 -22928779.54308 -17866560.09208  21092165.79508  21092165.90008
 -12154116.54908  -9470721.66108  23276708.45408  23276710.81708
 -13305849.50708 -10368177.14808  23034311.85008  23034314.32008
   -885067.48608   -689661.36908  24486372.89708  24486374.85608
 -19145439.31508 -14918503.41908  21729377.47808  21729378.47108
 -18725506.57108 -14591291.12608  21636075.19208  21636075.96608
 -22120187.05908 -17236485.70908  21159291.98508  21159292.87508
 93 07 18 00 57 00.0000000  0  8 31 28 21 03 26 23 22 17
  -5677619.95808  -4424114.32708  23949215.06608  23949216.90408
 -23058380.99308 -17967548.19108  21067503.42708  21067503.56308
 -12366680.45008  -9636355.70408  23236258.83508  23236261.12008
 -13114651.30908 -10219191.63008  23070695.74908  23070698.09708
   -963307.96408   -750627.85308  24471484.13908  24471486.11008
 -19257651.59408 -15005941.48108  21708024.10108  21708025.09308
 -18589121.18908 -14485016.84908  21662028.51608  21662029.28208
 -21982575.51608 -17129255.95508  21185478.62308  21185479.46708
 93 07 18 00 58 00.0000000  0  8 31 28 21 03 26 23 22 17
  -5883528.97608  -4584562.68208  23910031.80108  23910033.42408
 -23186761.86508 -18067585.14708  21043073.26208  21043073.37608
 -12578502.12408  -9801411.35708  23195950.37008  23195952.58708
 -12922693.48008 -10069614.15008  23107224.17708  23107226.52608
  -1039688.96208   -810145.31808  24456949.07508  24456951.15908
 -19367956.90008 -15091893.54308  21687033.64408  21687034.60908
 -18450856.42208 -14377278.07108  21688339.47308  21688340.28208
 -21843531.60308 -17020910.02408  21211937.83608  21211938.71608
 93 07 18 00 59 00.0000000  0  8 31 28 21 03 26 23 22 17
  -6089100.94908  -4744748.46308  23870912.72008  23870914.21908
 -23313892.61708 -18166648.03908  21018881.11808  21018881.19108
 -12789499.44408  -9965824.69108  23155798.77308  23155800.99708
 -12729974.50208  -9919443.61108  23143897.35408  23143899.82608
  -1114244.45808   -868240.36608  24442761.68308  24442763.67308
 -19476274.43008 -15176296.74608  21666421.40008  21666422.35308
 -18310901.87308 -14268222.63508  21714971.98908  21714972.77208
 -21703037.28008 -16911433.96008  21238672.99808  21238673.85008
 93 07 18 01 00 00.0000000  0  8 31 21 03 26 23 22 28 17
  -6294244.12408  -4904600.11708  23831875.13808  23831876.48308
 -12999491.47308 -10129454.67808  23115838.58908  23115840.66308
 -12536420.95508  -9768622.74008  23180729.44308  23180731.92408
  -1186780.61308   -924761.90908  24428958.30808  24428960.23408
 -19582437.84508 -15259021.40608  21646219.12208  21646220.10408
 -18169254.01108 -14157847.72708  21741926.67208  21741927.49308
 -23439571.06008 -18264579.24708  20994965.27808  20994965.36208
 -21561012.74508 -16800765.51008  21265699.36508  21265700.22508
 93 07 18 01 01 00.0000000  0  8 31 21 03 26 23 22 28 17
  -6498882.20308  -5064058.19708  23792933.69308  23792934.95508
 -13208434.25108 -10292267.08008  23076077.92208  23076079.98308
 -12342021.06008  -9617142.40908  23217722.45008  23217725.07408
  -1257194.40608   -979629.67008  24415558.99808  24415560.76208
 -19686459.55208 -15340077.20808  21626424.43008  21626425.38308
 -18025839.26508 -14046096.03108  21769217.69308  21769218.51508
 -23563682.39708 -18361289.33608  20971347.71908  20971347.75308
 -21417441.34908 -16688891.71408  21293020.17708  21293020.99008
 93 07 18 01 02 00.0000000  0  8 31 21 03 26 23 22 28 17
  -6703025.83808  -5223130.99208  23754086.32308  23754087.60708
 -13416491.16408 -10454389.19408  23036485.91108  23036487.92808
 -12146888.34008  -9465091.02708  23254855.13308  23254857.66708
  -1325591.37308  -1032925.88608  24402543.47808  24402545.18908
 -19788526.38308 -15419609.72708  21607001.74808  21607002.66008
 -17880651.32708 -13932962.62108  21796845.98608  21796846.88408
 -23686241.55708 -18456789.92908  20948025.48808  20948025.44808
 -21272437.31708 -16575901.57208  21320613.47108  21320614.34308
 93 07 18 01 03 00.0000000  0  8 31 21 03 26 23 22 28 17
  -6906678.47908  -5381821.20808  23715332.43608  23715333.83608
 -13623746.92508 -10615887.04808  22997046.31008  22997048.41508
 -11951048.69008  -9312488.80108  23292122.34008  23292124.79608
  -1392082.85808  -1084737.33308  24389890.48308  24389892.19808
 -19888670.96908 -15497644.41608  21587944.79408  21587945.67908
 -17733641.96308 -13818409.92608  21824821.04908  21824821.95908
 -23807291.80308 -18551114.77008  20924990.27008  20924990.24808
 -21126022.55308 -16461812.18308  21348475.36208  21348476.19808
 93 07 18 01 04 00.0000000  0  8 31 21 03 26 23 22 28 17
  -7109881.11208  -5540160.74608  23676664.19608  23676665.55108
 -13830128.25908 -10776703.51708  22957773.15908  22957775.14908
 -11754532.09508  -9159359.06408  23329518.25808  23329520.75308
  -1456725.50608  -1135108.10508  24377589.25008  24377590.90108
 -19986823.92408 -15574127.16608  21569266.85908  21569267.70308
 -17584938.38708 -13702537.07008  21853118.37208  21853119.33008
 -23926944.76908 -18644350.79808  20902221.11408  20902221.06008
 -20978163.47608 -16346597.33508  21376612.03408  21376612.91108
 93 07 18 01 05 00.0000000  0  8 31 21 03 26 23 22 28 17
  -7312597.55708  -5698121.46808  23638088.32108  23638089.54908
 -14035481.82608 -10936719.15408  22918695.54008  22918697.52608
 -11557319.86308  -9005687.31708  23367046.58608  23367049.21408
  -1519428.96708  -1183967.86508  24365657.04908  24365658.71208
 -20082828.16908 -15648935.62808  21550997.83508  21550998.67808
 -17434675.14608 -13585448.89708  21881712.57608  21881713.54008
 -24045224.95408 -18736517.15008  20879713.12708  20879713.08008
 -20828822.18608 -16230227.54108  21405030.82908  21405031.64808
 93 07 18 01 06 00.0000000  0  8 31 21 03 26 23 28 22 17
  -7514733.13608  -5855629.54608  23599623.08408  23599624.16208
 -14239723.35508 -11095868.24308  22879829.60408  22879831.48108
 -11359342.90808  -8851419.65508  23404720.43508  23404722.98508
  -1580057.71308  -1231210.95108  24354119.70208  24354121.37108
 -20176552.88508 -15721967.80708  21533162.57508  21533163.33208
 -24161984.23308 -18827498.35708  20857494.47208  20857494.41608
 -17282817.20208 -13467118.09908  21910610.22608  21910611.24008
 -20678015.91208 -16112716.16608  21433728.24908  21433729.07108
 93 07 18 01 07 00.0000000  0  8 31 21 03 26 23 28 22 17
  -7716336.97308  -6012723.29808  23561258.93608  23561260.09208
 -14442943.88308 -11254221.75608  22841157.87908  22841159.74608
 -11160667.58608  -8696607.81908  23442527.17808  23442529.75808
  -1638646.94908  -1276864.80008  24342970.33508  24342972.04208
 -20268128.06708 -15793325.04408  21515736.34908  21515737.12808
 -24277161.10008 -18917246.53208  20835577.03308  20835577.00508
 -17129319.57008 -13347509.62508  21939819.95908  21939820.98508
 -20525918.19608 -15994198.48708  21462671.47208  21462672.35808
 93 07 18 01 08 00.0000000  0  8 31 21 03 26 23 28 22 17
  -7917486.78408  -6169463.25608  23522981.20708  23522982.35808
 -14645107.18208 -11411751.45408  22802687.36108  22802689.23808
 -10961333.93808  -8541282.99908  23480459.22508  23480461.67308
  -1695223.50908  -1320950.33208  24332204.29208  24332205.92408
 -20357758.01408 -15863166.50108  21498680.35308  21498681.13508
 -24390820.02208 -19005811.89008  20813948.29208  20813948.27208
 -16974107.52608 -13226565.23008  21969355.84308  21969356.89808
 -20372570.73808 -15874706.97708  21491852.50608  21491853.36508
 93 07 18 01 09 00.0000000  0  8 31 21 03 26 23 28 22 17
  -8118131.51408  -6325809.65508  23484799.94208  23484800.93308
 -14846087.45808 -11568359.30208  22764441.95708  22764443.87008
 -10761296.57908  -8385409.83208  23518525.08408  23518527.72008
  -1749673.99808  -1363379.18408  24321842.66408  24321844.29208
 -20445362.32508 -15931429.53808  21482009.68108  21482010.45608
 -24502976.48708 -19093206.50808  20792605.65608  20792605.59908
 -16817172.90408 -13104278.57008  21999219.59608  21999220.60908
 -20217848.69308 -15754144.35908  21521295.16908  21521296.01508
 93 07 18 01 10 00.0000000  0  8 31 21 03 26 23 28 22 17
  -8318223.11708  -6481725.05408  23446723.77308  23446724.76008
 -15046007.56308 -11724141.04808  22726398.26608  22726400.17508
 -10560569.29508  -8228999.06508  23556722.27208  23556724.84508
  -1801967.36208  -1404127.15508  24311891.44708  24311892.95808
 -20530761.00608 -15997973.90208  21465758.80208  21465759.56508
 -24613621.88008 -19179423.66508  20771550.49608  20771550.43508
 -16658627.04508 -12980736.40108  22029389.89908  22029390.93008
 -20061785.43008 -15632536.63908  21550993.05808  21550993.91108
 93 07 18 01 11 00.0000000  0  8 31 21 03 26 23 28 22 17
  -8517710.14208  -6637169.35208  23408762.37508  23408763.38708
 -15244943.48408 -11879155.89308  22688541.88408  22688543.73908
 -10359185.77108  -8072076.96008  23595044.29308  23595047.05208
  -1852211.69608  -1443278.49308  24302330.16308  24302331.73908
 -20613879.22608 -16062741.29508  21449941.93108  21449942.65008
 -24722718.69408 -19264434.14008  20750790.22108  20750790.16308
 -16498552.55108 -12856003.08708  22059851.08408  22059852.11408
 -19904456.32208 -15509942.54708  21580931.81508  21580932.67708
 93 07 18 01 12 00.0000000  0  8 31 21 03 26 23 28 22 17
  -8716598.87108  -6792147.44408  23370914.95308  23370915.89108
 -15442761.91408 -12033299.97208  22650898.13708  22650899.89108
 -10157127.89008  -7914629.36508  23633494.70808  23633497.46608
  -1900421.70108  -1480844.64108  24293156.06408  24293157.72608
 -20694834.17308 -16125823.01408  21434536.66708  21434537.41408
 -24830186.01308 -19348174.87508  20730339.87708  20730339.79708
 -16336892.68608 -12730034.42108  22090613.99008  22090615.05608
 -19745849.82608 -15386353.08208  21611113.60708  21611114.45708
 93 07 18 01 13 00.0000000  0  8 31 21 03 26 23 28 22 17
  -8914909.05708  -6946674.78508  23333177.74708  23333178.66108
 -15639353.47708 -12186488.11208  22613487.94608  22613489.65108
  -9954392.13708  -7756653.61608  23672074.14808  23672076.95908
  -1946513.65308  -1516760.39508  24284385.03208  24284386.67608
 -20773763.44808 -16187326.33508  21419516.86308  21419517.56508
 -24936022.87508 -19430645.17308  20710199.71008  20710199.58708
 -16173679.31708 -12602855.28008  22121672.51208  22121673.65408
 -19585893.36408 -15261711.74608  21641552.36608  21641553.22208
 93 07 18 01 14 00.0000000  0  8 31 21 03 26 23 28 22 17
  -9112592.98608  -7100714.06208  23295559.77008  23295560.67908
 -15834740.83308 -12338737.83208  22576306.87408  22576308.61108
  -9751010.80108  -7598174.74208  23710776.48208  23710779.12908
  -1990425.03808  -1550976.96408  24276028.88408  24276030.42908
 -20850652.43808 -16247239.75308  21404885.32408  21404886.00108
 -25040267.81409 -19511874.94508  20690362.47609  20690362.27808
 -16008959.15608 -12474501.94808  22153017.75208  22153018.94508
 -19424616.59808 -15136041.53608  21672242.29508  21672243.12408
 93 07 18 01 15 00.0000000  0  8 31 21 03 26 28 23 22 17
  -9309588.23408  -7254216.74008  23258072.67108  23258073.58808
 -16028964.39308 -12490080.75008  22539347.30508  22539348.92608
  -9546987.79808  -7439195.92308  23749600.84608  23749603.62708
  -2032177.63608  -1583511.42508  24268083.58108  24268084.97908
 -25142885.56309 -19591836.82608  20670834.99909  20670834.82408
 -20925349.04008 -16305444.87108  21390671.01408  21390671.65608
 -15842694.74408 -12344945.35308  22184656.87008  22184658.04308
 -19262065.55008 -15009378.43108  21703174.74608  21703175.55608
 93 07 18 01 16 00.0000000  0  8 31 21 03 26 23 28 22 17
  -9505924.13008  -7407205.59008  23220711.01008  23220711.94708
 -16221998.20408 -12640496.56108  22502614.09108  22502615.66408
  -9342350.93508  -7279738.73608  23788542.00108  23788545.02108
  -2071860.61408  -1614433.12908  24260532.14408  24260533.48908
 -20997746.05708 -16361858.05708  21376894.28008  21376894.92508
 -25243850.54409 -19670510.78708  20651621.97809  20651621.79208
 -15674952.34908 -12214237.03908  22216577.20708  22216578.34108
 -19098336.04108 -14881797.00208  21734331.42308  21734332.25408
 93 07 18 01 17 00.0000000  0  8 31 21 03 26 23 28 22 17
  -9701733.30408  -7559784.03208  23183449.61008  23183450.59708
 -16413838.88008 -12789982.65808  22466107.95308  22466109.55608
  -9137152.82608  -7119844.21908  23827590.08108  23827592.82408
  -2109575.82608  -1643821.52008  24253355.05908  24253356.43808
 -21067838.17308 -16416475.22808  21363556.13008  21363556.80708
 -25343164.85309 -19747898.51808  20632723.02109  20632722.80808
 -15505786.00608 -12082419.16308  22248768.51608  22248769.63608
 -18933464.77708 -14753325.90608  21765705.47708  21765706.31708
 93 07 18 01 18 00.0000000  0  8 31 21 03 26 23 28 22 17
  -9896960.83808  -7711909.26908  23146298.92708  23146299.83208
 -16604438.10208 -12938501.41908  22429838.02308  22429839.54108
  -8931356.27508  -6959483.41608  23866751.96608  23866754.86308
  -2145244.13908  -1671614.95808  24246567.38008  24246568.98608
 -21135658.04208 -16469321.84408  21350650.41408  21350651.10708
 -25440816.88109 -19823990.99508  20614140.49109  20614140.27208
 -15335142.72008 -11949450.44708  22281240.97008  22281242.06108
 -18767389.22008 -14623916.43108  21797308.65208  21797309.52108
 93 07 18 01 19 00.0000000  0  8 31 21 03 26 28 23 22 17
 -10091452.70808  -7863461.23408  23109288.36508  23109289.06908
 -16793789.53708 -13086047.84908  22393805.51908  22393806.99708
  -8724949.42008  -6798646.99707  23906030.02908  23906032.71507
  -2178727.20208  -1697705.57708  24240195.58708  24240197.23408
 -25536859.85809 -19898829.62909  20595864.12309  20595863.87809
 -21201362.27708 -16520519.87808  21338147.22208  21338147.92908
 -15162998.05408 -11815311.79508  22313999.05108  22314000.20108
 -18600131.24808 -14493585.55808  21829136.80408  21829137.68308
 93 07 18 01 20 00.0000000  0  8 31 21 03 26 23 28 22 17
 -10285131.46008  -8014379.66308  23072432.50708  23072433.19508
 -16981879.46908 -13232611.35008  22358013.16108  22358014.61708
  -8517938.18608  -6637339.67107  23945422.94508  23945425.80607
  -2209918.26108  -1722010.27008  24234260.17408  24234261.77708
 -21265006.84008 -16570113.02108  21326036.10408  21326036.76008
 -25631293.79209 -19972414.51309  20577893.87109  20577893.64609
 -14989405.48108 -11680044.94608  22347032.66908  22347033.83908
 -18431712.48508 -14362350.22008  21861185.80808  21861186.76708
 93 07 18 01 21 00.0000000  0  8 31 21 03 26 23 28 22 17
 -10478056.17708  -8164710.50808  23035719.88708  23035720.73008
 -17168652.58308 -13378148.73808  22322471.32508  22322472.70908
  -8310337.12308  -6475572.73607  23984928.17608  23984931.02207
  -2238855.01408  -1744558.36108  24228753.79408  24228755.36608
 -21326459.60808 -16617998.25708  21314341.97008  21314342.63608
 -25724048.69009 -20044691.04109  20560243.19609  20560242.94209
 -14814455.73508 -11543720.54308  22380324.57508  22380325.76308
 -18262100.86208 -14230185.36508  21893461.93608  21893462.71708
 93 07 18 01 22 00.0000000  0  8 31 21 03 26 28 23 22 17
 -10670247.15708  -8314469.59908  22999147.13308  22999147.81008
 -17354056.78408 -13522619.41908  22287190.00808  22287191.37408
  -8102138.31408  -6313340.00807  24024547.19208  24024550.12907
  -2265583.70608  -1765385.86308  24223667.56608  24223669.02908
 -25815009.01609 -20115569.18109  20542933.91909  20542933.69909
 -21385583.67408 -16664068.90008  21303090.99208  21303091.61408
 -14638196.44308 -11406375.70408  22413865.65908  22413866.82908
 -18091294.09908 -14097089.20908  21925965.40608  21925966.19408
 93 07 18 01 23 00.0000000  0  8 31 21 03 26 23 28 22 17
 -10861707.50608  -8463659.38608  22962713.35908  22962714.00108
 -17538036.72808 -13665980.30708  22252179.76408  22252181.04808
  -7893347.14408  -6150645.70007  24064278.89308  24064281.87207
  -2290155.24808  -1784532.47608  24218991.57808  24218993.01708
 -21442393.47808 -16708336.23008  21292280.32908  21292280.98608
 -25904119.30009 -20185005.73409  20525976.89109  20525976.66009
 -14460615.42608 -11268000.94308  22447658.25308  22447659.44008
 -17919399.86308 -13963145.67708  21958675.83908  21958676.66608
 93 07 18 01 24 00.0000000  0  8 23 31 21 03 26 28 22 17
 -21496934.53308 -16750835.71308  21281901.59208  21281902.19408
 -11052500.44708  -8612329.11108  22926406.58308  22926407.22608
 -17720590.08308 -13808229.57408  22217440.88608  22217442.22408
  -7684030.11808  -5987541.66407  24104110.80608  24104113.66007
  -2312680.09508  -1802084.25308  24214705.27308  24214706.72808
 -25991485.12309 -20253082.97909  20509351.64109  20509351.39109
 -14281708.01208 -11128592.62608  22481703.25508  22481704.48208
 -17746508.04608 -13828424.82308  21991576.03208  21991576.97208
 93 07 18 01 25 00.0000000  0  8 23 31 21 03 26 28 22 17
 -21549171.82008 -16791540.05908  21271961.14508  21271961.73808
 -11242574.21508  -8760438.44008  22890236.76008  22890237.42108
 -17901711.80508 -13949363.29008  22182974.47708  22182975.84308
  -7474159.26008  -5824006.05507  24144047.91208  24144051.03407
  -2333109.85608  -1818003.49408  24210817.54608  24210818.95508
 -26077135.92509 -20319823.85009  20493052.91609  20493052.68309
 -14101382.95108 -10988079.65508  22516018.03408  22516019.24808
 -17572465.69508 -13692807.45308  22024695.18908  22024696.17108
 93 07 18 01 26 00.0000000  0  8 23 31 21 03 26 28 22 17
 -21599183.55608 -16830510.19708  21262444.17008  21262444.76308
 -11431805.64208  -8907891.39108  22854227.08308  22854227.75208
 -18081419.08208 -14089394.82808  22148777.25908  22148778.57808
  -7263737.66708  -5660041.31407  24184090.01308  24184093.17207
  -2351354.50408  -1832220.02008  24207345.57708  24207346.97708
 -26161078.30509 -20385233.47209  20477079.06109  20477078.79809
 -13919658.10408 -10846475.94708  22550599.18308  22550600.36108
 -17397201.90208 -13556238.30008  22058046.78208  22058047.77008
 93 07 18 01 27 00.0000000  0  8 23 31 21 03 26 28 22 17
 -21647018.87208 -16867784.42308  21253341.35308  21253341.97608
 -11620161.28508  -9054661.92308  22818384.13708  22818384.74708
 -18259747.13108 -14228351.64008  22114842.42008  22114843.70608
  -7052802.53908  -5495676.41207  24224229.72508  24224232.86307
  -2367348.78908  -1844683.00708  24204301.95608  24204303.36508
 -26243291.54709 -20449295.71309  20461434.47909  20461434.21109
 -13736633.79908 -10703859.66808  22585427.63908  22585428.81008
 -17220903.22708 -13418862.74608  22091595.31908  22091596.31908
 93 07 18 01 28 00.0000000  0  8 23 31 21 03 26 28 22 17
 -21692618.17308 -16903316.29408  21244664.11508  21244664.70508
 -11807682.61208  -9200782.34408  22782699.83208  22782700.50308
 -18436692.21508 -14366230.81808  22081170.81308  22081172.11508
  -6841383.20308  -5330934.21207  24264461.54308  24264464.69207
  -2381100.82608  -1855398.79508  24201684.88008  24201686.30608
 -26323725.93609 -20511971.84009  20446128.37209  20446128.06809
 -13552431.93608 -10560325.81608  22620480.08208  22620481.32708
 -17043711.15108 -13280791.03408  22125313.89608  22125314.92508
 93 07 18 01 29 00.0000000  0  8 23 31 21 03 26 28 22 17
 -21735887.79708 -16937032.83208  21236430.11408  21236430.65308
 -11994388.94108  -9346267.69608  22747170.70708  22747171.34208
 -18612271.88608 -14503046.04008  22047759.03308  22047760.27908
  -6629467.17408  -5165804.98207  24304787.84708  24304791.06307
  -2392651.73708  -1864399.42208  24199486.88008  24199488.23808
 -26402323.78509 -20573216.89209  20431171.50109  20431171.27109
 -13367061.89908 -10415881.70508  22655754.93008  22655756.19708
 -16865528.75708 -13141947.64408  22159220.93208  22159221.91108
 93 07 18 01 30 00.0000000  0  8 23 31 21 03 26 28 22 17
 -21776796.93408 -16968910.04008  21228645.31908  21228645.84908
 -12180265.97108  -9491106.85008  22711799.57808  22711800.10208
 -18786425.31708 -14638749.92208  22014618.66008  22014619.90308
  -6417039.95908  -5000277.40807  24345211.59608  24345214.85707
  -2402046.92208  -1871720.30208  24197698.98008  24197700.20208
 -26479110.35109 -20633050.56009  20416559.67809  20416559.43209
 -13180483.16908 -10270495.76408  22691259.74408  22691261.05608
 -16686237.07108 -13002239.88208  22193339.05208  22193340.01808
 93 07 18 01 31 00.0000000  0  8 23 31 21 03 26 28 22 17
 -21815401.34808 -16998991.34808  21221299.13308  21221299.64508
 -12365347.71108  -9635326.28408  22676579.72408  22676580.17808
 -18959033.19308 -14773249.46008  21981772.37508  21981773.64008
  -6204096.16408  -4834347.32407  24385733.49408  24385736.84707
  -2409267.83408  -1877346.93308  24196325.01508  24196326.16408
 -26554132.71109 -20691509.51109  20402283.25509  20402282.96509
 -12992692.68608 -10124165.59308  22726995.13008  22726996.52308
 -16505881.66708 -12861703.23408  22227659.51908  22227660.56608
 93 07 18 01 32 00.0000000  0  8 31 21 03 26 23 28 22 17
 -12549625.48808  -9778919.28208  22641512.55808  22641512.99708
 -19130059.65508 -14906516.75208  21949227.02408  21949228.30408
  -5990651.60108  -4668027.00907  24426350.71108  24426354.20207
  -2414190.78808  -1881182.97908  24195388.17408  24195389.41308
 -21851812.32908 -17027363.50708  21214370.31008  21214370.81808
 -26627344.30509 -20748557.49309  20388351.61409  20388351.39709
 -12803735.54608  -9976926.35808  22762952.41608  22762953.93408
 -16324583.54908 -12720432.02808  22262159.50108  22262160.54008
 93 07 18 01 33 00.0000000  0  8 31 21 03 26 28 23 22 17
 -12733024.92808  -9921827.83008  22606612.72108  22606613.35608
 -19299490.97008 -15038541.05908  21916985.29708  21916986.52808
  -5776718.08508  -4501325.70607  24467061.11608  24467064.41707
  -2416743.32908  -1883171.94908  24194902.41308  24194903.66108
 -26698650.98309 -20804121.10109  20374782.34509  20374782.12109
 -21886063.30008 -17054052.52708  21207852.54008  21207853.02108
 -12613635.05308  -9828796.18108  22799127.39908  22799128.82908
 -16142365.63008 -12578444.07808  22296834.39108  22296835.49408
 93 07 18 01 34 00.0000000  0  8 31 21 03 26 28 23 22 17
 -12915477.35308 -10063998.43908  22571893.16108  22571893.69408
 -19467346.80508 -15169337.71508  21885043.30008  21885044.55108
  -5562281.93508  -4334232.71607  24507866.97308  24507870.30407
  -2417001.91708  -1883373.42108  24194853.21808  24194854.52908
 -26768006.35109 -20858164.20709  20361584.49709  20361584.25009
 -21918023.20308 -17078956.30008  21201770.74708  21201771.21408
 -12422342.18008  -9679736.86908  22835529.27508  22835530.70008
 -15959210.59708 -12435725.90608  22331687.69108  22331688.78908
 93 07 18 01 35 00.0000000  0  8 31 21 03 26 28 23 22 17
 -13096970.08008 -10205421.30008  22537356.18108  22537356.57408
 -19633651.00408 -15298925.35208  21853396.65308  21853397.83708
  -5347365.62108  -4166765.62107  24548764.41308  24548767.70207
  -2415167.68108  -1881944.17208  24195202.22308  24195203.49908
 -26835475.01009 -20910737.20709  20348745.57809  20348745.27609
 -21947554.26308 -17101967.52408  21196151.11508  21196151.57308
 -12229845.50708  -9529739.58708  22872160.27208  22872161.71208
 -15775139.48608 -12292293.96108  22366715.31208  22366716.37808
 93 07 18 01 36 00.0000000  0  8 31 21 03 26 28 23 22 17
 -13277505.64908 -10346098.26208  22503001.28008  22503001.69708
 -19798350.39108 -15427262.42408  21822055.37608  21822056.48908
  -5132009.59708  -3998955.83807  24589745.33808  24589748.71907
  -2411289.11308  -1878921.85808  24195940.18608  24195941.59308
 -26901108.57809 -20961880.20009  20336255.89909  20336255.57909
 -21974684.73108 -17123108.09608  21190988.37208  21190988.80008
 -12036217.36908  -9378860.57908  22909006.62608  22909008.07508
 -15590166.11908 -12148158.89308  22401914.70308  22401915.68608
 93 07 18 01 37 00.0000000  0  8 31 21 03 26 28 23 22 17
 -13457080.50508 -10486026.64808  22468829.28608  22468829.74608
 -19961371.94008 -15554292.11708  21791033.30808  21791034.41108
  -4916210.13808  -3830800.55107  24630810.72008  24630814.16107
  -2405222.82308  -1874194.86008  24197094.56208  24197095.97808
 -26964845.83009 -21011545.58709  20324127.19309  20324126.87409
 -21999503.96508 -17142447.74508  21186265.37408  21186265.80908
 -11841519.78308  -9227148.27708  22946056.35508  22946057.82908
 -15404277.22608 -12003310.46408  22437288.19608  22437289.14008
 93 07 18 01 38 00.0000000  0  8 31 21 03 26 28 23 22 17
 -13635695.23308 -10625206.91508  22434839.96008  22434840.37808
 -20122765.94208 -15680053.63608  21760321.03808  21760322.11908
  -4699958.79107  -3662293.20307  24671962.07607  24671965.65007
  -2396793.72808  -1867626.75008  24198698.54308  24198699.95908
 -27026664.64909 -21059716.12209  20312363.49709  20312363.15409
 -22022058.11408 -17160022.42408  21181973.53308  21181973.97308
 -11645806.66208  -9074644.67608  22983299.48308  22983300.94008
 -15217414.13108 -11857702.94808  22472847.09408  22472848.18608
 93 07 18 01 39 00.0000000  0  8 31 21 03 28 26 23 22 17
 -13813373.90008 -10763657.73308  22401028.84208  22401029.28708
 -20282680.69408 -15804662.44508  21729890.20108  21729891.22408
  -4483333.71507  -3493494.55107  24713184.57707  24713188.09107
 -27086651.90109 -21106459.40809  20300948.26509  20300947.89809
  -2386067.95908  -1859268.97608  24200739.57908  24200741.03808
 -22042447.56308 -17175910.26808  21178093.45408  21178093.93608
 -11449200.40608  -8921445.07608  23020712.45308  23020713.96908
 -15029685.68108 -11711421.08308  22508570.70608  22508571.78408
 93 07 18 01 40 00.0000000  0  8 31 21 03 28 26 23 22 17
 -13989983.63708 -10901275.65608  22367421.00708  22367421.40208
 -20440963.21508 -15927999.41608  21699770.01508  21699770.98008
  -4266262.74507  -3324348.51507  24754491.88807  24754495.49407
 -27144704.65609 -21151695.32509  20289901.11809  20289900.77509
  -2373048.75308  -1849124.14208  24203217.06008  24203218.50208
 -22060530.10208 -17190000.55408  21174652.43908  21174652.90708
 -11251609.02508  -8767477.86908  23058312.86308  23058314.37608
 -14841112.34908 -11564480.90208  22544455.06608  22544456.17008
 93 07 18 01 41 00.0000000  0  8 31 21 03 26 28 23 22 17
 -14165543.52308 -11038075.49208  22334013.06308  22334013.49308
 -20597542.21308 -16050008.95808  21669973.99408  21669974.97808
  -4048766.09707  -3154870.79407  24795880.22907  24795883.92807
  -2357856.63408  -1837286.12008  24206108.05308  24206109.48308
 -27200759.93609 -21195374.75509  20279234.14309  20279233.79209
 -22076233.04208 -17202236.59408  21171664.23908  21171664.72908
 -11052988.12108  -8612708.42208  23096109.26908  23096110.75108
 -14651759.56608 -11416933.34408  22580487.71108  22580488.82708
 93 07 18 01 42 00.0000000  0  8 31 21 03 26 28 23 22 17
 -14340147.34108 -11174130.34708  22300786.95908  22300787.24508
 -20752388.81408 -16170668.58708  21640507.56508  21640508.61008
  -3830845.34007  -2985062.55007  24837349.21607  24837352.88707
  -2340523.20508  -1823779.56708  24209406.39808  24209407.81108
 -27254820.82209 -21237500.11809  20268946.76009  20268946.43609
 -22089535.30608 -17212601.97908  21169132.96208  21169133.45908
 -10853334.29108  -8457134.10208  23134102.34508  23134103.76008
 -14461553.77008 -11268721.10608  22616682.72208  22616683.83408
 93 07 18 01 43 00.0000000  0  8 31 21 03 26 28 23 22 17
 -14513843.31608 -11309477.77608  22267733.58008  22267733.96908
 -20905497.66208 -16289974.10208  21611371.88708  21611372.91608
  -3612552.66107  -2814964.51207  24878889.06407  24878892.84807
  -2321074.38608  -1808624.64508  24213107.42108  24213108.78608
 -27306954.17909 -21278123.48709  20259026.03209  20259025.68709
 -22100576.42608 -17221205.41308  21167031.88108  21167032.30608
 -10652716.49408  -8300808.63908  23172278.64608  23172280.16308
 -14270538.78508 -11119878.31008  22653031.67108  22653032.78108
 93 07 18 01 44 00.0000000  0  8 31 21 03 28 26 23 22 17
 -14686462.05708 -11443985.80908  22234885.35608  22234885.70808
 -21056767.16408 -16407846.37708  21582586.14008  21582587.14608
  -3393833.31507  -2644534.01907  24920510.01207  24920513.93207
 -27357110.40409 -21317206.24609  20249481.61109  20249481.25809
  -2299389.96408  -1791727.70708  24217233.87708  24217235.25808
 -22109385.67308 -17228069.74208  21165355.52808  21165355.95108
 -10451096.70508  -8143702.42008  23210645.65308  23210647.24308
 -14078686.46908 -10970383.05708  22689540.00008  22689541.08308
 93 07 18 01 45 00.0000000  0  8 31 21 03 28 26 23 22 17
 -14857917.07508 -11577587.04808  22202258.56608  22202258.89808
 -21206197.11408 -16524285.22408  21554150.49308  21554151.49808
  -3174688.29207  -2473771.77907  24962212.27507  24962215.84707
 -27405284.14609 -21354744.20609  20240314.49309  20240314.15509
  -2275365.03408  -1773006.98308  24221805.65608  24221806.86308
 -22115951.11908 -17233185.64608  21164106.09808  21164106.54908
 -10248510.49208  -7985843.13608  23249196.56708  23249198.23808
 -13885959.21908 -10820206.02508  22726214.86808  22726215.88308
 93 07 18 01 46 00.0000000  0  8 31 21 03 26 28 23 22 17
 -15028288.96508 -11710344.31108  22169837.72408  22169838.07108
 -21353849.12108 -16639338.67208  21526053.19408  21526054.21608
  -2955197.22607  -2302739.89007  25003980.00207  25003983.58207
  -2249033.21708  -1752488.69308  24226816.26008  24226817.72308
 -27451498.98609 -21390755.76809  20231519.93209  20231519.56209
 -22120245.34708 -17236531.78708  21163288.94808  21163289.40508
 -10045116.25508  -7827354.24608  23287901.28408  23287902.99008
 -13692388.29008 -10669371.60008  22763050.26508  22763051.34508
 93 07 18 01 47 00.0000000  0  8 31 21 03 28 26 23 22 17
 -15197603.54008 -11842277.68008  22137618.26508  22137618.57608
 -21499658.48008 -16752956.27408  21498306.57608  21498307.52008
  -2735345.09107  -2131426.68207  25045816.52407  25045820.43007
 -27495680.79709 -21425183.13109  20223112.22309  20223111.86109
  -2220449.67408  -1730215.79108  24232255.66208  24232257.08408
 -22122120.99108 -17237993.30208  21162932.05808  21162932.46608
  -9840924.19008  -7668243.67908  23326757.84408  23326759.62808
 -13498037.92408 -10517929.80608  22800033.91808  22800035.08708
 93 07 18 01 48 00.0000000  0  8 31 21 03 28 26 23 22 17
 -15365879.21408 -11973401.52108  22105596.33008  22105596.63808
 -21643734.89208 -16865223.54008  21470889.70308  21470890.63508
  -2515202.83308  -1959887.39307  25087708.45508  25087712.36907
 -27537907.38609 -21458086.96309  20215076.83909  20215076.49709
  -2189710.60108  -1706263.27008  24238105.07608  24238106.54008
 -22121625.09908 -17237606.88208  21163026.39008  21163026.79908
  -9635946.42708  -7508520.85208  23365763.92008  23365765.70008
 -13303099.52208 -10366029.82408  22837129.58508  22837130.73508
 93 07 18 01 49 00.0000000  0  8 31 21 03 28 26 23 22 17
 -15532915.40208 -12103559.53708  22073810.48508  22073810.60808
 -21786133.41008 -16976183.35808  21443792.13308  21443793.05708
  -2294714.90507  -1788078.76207  25129665.91407  25129670.03807
 -27578141.79909 -21489438.44909  20207420.58409  20207420.25809
  -2156751.62208  -1680580.95708  24244377.15008  24244378.51108
 -22118804.72408 -17235409.17608  21163563.08608  21163563.44608
  -9430079.61608  -7348105.25208  23404939.16808  23404940.93308
 -13107540.29608 -10213646.08308  22874343.24308  22874344.50208
 93 07 18 01 50 00.0000000  0  8 31 21 03 28 26 23 22 17
 -15698680.28308 -12232726.95108  22042266.48408  22042266.69708
 -21926773.02808 -17085772.62908  21417029.28208  21417030.16008
  -2073847.77507  -1615974.63207  25171695.71007  25171699.51807
 -27616301.66009 -21519173.42609  20200159.05209  20200158.71009
  -2121549.48008  -1653150.75508  24251075.81408  24251077.12508
 -22113746.18808 -17231467.47008  21164525.67108  21164526.00208
  -9223325.62108  -7186998.38308  23444283.12308  23444285.01908
 -12911203.21508 -10060656.24508  22911704.97508  22911706.27708
 93 07 18 01 51 00.0000000  0  7 31 21 26 28 23 22 17
 -15863365.91908 -12361053.35808  22010927.69508  22010927.96208
 -22065646.68508 -17193985.79408  21390602.42308  21390603.26808
  -2084240.36008  -1624078.72108  24258175.42308  24258176.85908
 -27652448.90909 -21547340.09909  20193280.46809  20193280.12609
 -22106526.46508 -17225841.69008  21165899.52408  21165899.90308
  -9015891.38408  -7025361.42008  23483756.71208  23483758.47108
 -12714105.27008  -9907073.49508  22949211.52608  22949212.92608
 93 07 18 01 52 00.0000000  0  7 31 21 26 28 23 22 17
 -16026969.28408 -12488536.46508  21979795.01408  21979795.22708
 -22202650.45808 -17300741.93608  21364531.43708  21364532.23408
  -2044778.90108  -1593329.57108  24265684.61308  24265685.96708
 -27686567.72509 -21573926.19509  20186787.83009  20186787.49809
 -22097010.77808 -17218426.86808  21167710.27908  21167710.65108
  -8807735.94308  -6863162.49308  23523367.51508  23523369.37108
 -12516269.56408  -9752915.89908  22986858.44408  22986859.84108
 93 07 18 01 53 00.0000000  0  8 31 21 19 28 26 23 22 17
 -16189337.24408 -12615056.90108  21948897.36208  21948897.65408
 -22337697.44408 -17405973.29308  21338832.78608  21338833.60908
         0.17718         0.42117  24919771.07318  24919773.55617
 -27718631.28509 -21598910.77809  20180686.36009  20180686.06909
  -2003043.87908  -1560808.79208  24273626.50108  24273627.78908
 -22085092.86308 -17209140.16208  21169978.11608  21169978.50808
  -8598792.86508  -6700349.81908  23563128.21808  23563129.98608
 -12317762.26708  -9598234.96508  23024633.19108  23024634.60408
 93 07 18 01 54 00.0000000  0  8 31 21 19 28 26 23 22 17
 -16350394.79908 -12740556.23608  21918249.13408  21918249.42608
 -22470748.36708 -17509649.27508  21313513.96608  21313514.77708
    104158.62308     81162.77107  24939591.87608  24939594.38807
 -27748605.97509 -21622267.66809  20174982.32409  20174982.04009
  -1959060.44308  -1526535.98808  24281996.28808  24281997.65908
 -22070824.65908 -17198022.05608  21172693.32808  21172693.73008
  -8389058.85508  -6536920.84008  23603039.20308  23603041.14208
 -12118650.82608  -9443083.26208  23062522.81308  23062524.28908
 93 07 18 01 55 00.0000000  0  8 31 21 19 28 26 23 22 17
 -16510117.05408 -12865015.06708  21887854.90408  21887855.12008
 -22601822.59208 -17611784.95408  21288571.35808  21288572.13808
    210052.66108    163677.52707  24959742.90208  24959745.58707
 -27776492.84409 -21643997.66709  20169675.63309  20169675.37509
  -1912928.13908  -1490588.72708  24290775.10608  24290776.43008
 -22054243.31608 -17185101.48908  21175848.61408  21175848.97408
  -8178576.70508  -6372908.88808  23643092.79708  23643094.72608
 -11918921.47608  -9287450.05008  23100530.13408  23100531.53008
 93 07 18 01 56 00.0000000  0  8 31 21 19 28 26 23 22 17
 -16668578.71108 -12988491.63808  21857700.55208  21857700.79908
 -22730983.61108 -17712429.85808  21263992.75508  21263993.53808
    317524.87908    247422.04007  24980194.29408  24980196.60807
 -27802289.07409 -21664098.63209  20164766.82409  20164766.51609
  -1864674.51508  -1452988.50708  24299957.41308  24299958.84908
 -22035438.72408 -17170448.55008  21179427.07108  21179427.40208
  -7967405.75708  -6208360.23908  23683277.38208  23683279.34508
 -11718539.89608  -9131308.64008  23138661.44708  23138662.90108
 93 07 18 01 57 00.0000000  0  8 31 21 19 28 26 23 22 17
 -16825841.17608 -13111033.76908  21827774.57408  21827774.75308
 -22858196.09408 -17811556.41508  21239785.02808  21239785.78808
    426640.53708    332447.13007  25000958.18008  25000961.08807
 -27825947.50609 -21682533.77609  20160264.79209  20160264.48209
  -1814204.73708  -1413661.41208  24309561.50508  24309562.97208
 -22014433.23408 -17154080.62208  21183424.24108  21183424.59908
  -7755531.32108  -6043263.41708  23723595.84308  23723597.84108
 -11517380.57508  -8974561.19508  23176940.88608  23176942.31208
 93 07 18 01 58 00.0000000  0  8 31 21 19 28 26 23 22 17
 -16982018.51708 -13232730.35508  21798054.95608  21798055.17308
 -22983598.56408 -17909272.57508  21215921.71208  21215922.47208
    537383.16108    418739.98607  25022031.97308  25022034.80307
 -27847588.57109 -21699396.94709  20156146.45509  20156146.09409
  -1761607.78008  -1372676.80008  24319570.53108  24319571.69708
 -21991301.89408 -17136056.19508  21187825.91508  21187826.33308
  -7543134.90708  -5877759.85608  23764013.62608  23764015.62008
 -11315585.75808  -8817318.55708  23215341.15208  23215342.60508
 93 07 18 01 59 00.0000000  0  8 31 21 19 28 26 23 22 17
 -17136967.14508 -13353469.51708  21768569.15908  21768569.30408
 -23107121.65408 -18005524.29408  21192415.98608  21192416.73608
    649780.17807    506322.00507  25043420.30107  25043423.23407
 -27867151.28709 -21714640.63409  20152423.91109  20152423.53709
  -1706857.08908  -1330013.95108  24329989.27108  24329990.57308
 -21965944.16108 -17116296.92808  21192651.32108  21192651.70508
  -7330224.13608  -5711855.51408  23804529.23908  23804531.31508
 -11113217.94108  -8659629.44308  23253850.61208  23253852.10708
 93 07 18 02 00 00.0000000  0  8 31 21 19 28 26 23 22 17
 -17290523.70408 -13473123.93708  21739348.27608  21739348.37808
 -23228669.46708 -18100236.81808  21169286.17408  21169286.89708
    763767.31107    595143.00007  25065111.58007  25065114.72207
 -27884531.00609 -21728183.26809  20149116.74109  20149116.41609
  -1649945.37908  -1285667.18708  24340819.14708  24340820.52708
 -21938297.68608 -17094754.21508  21197912.32408  21197912.70408
  -7116680.61308  -5545458.09708  23845165.28908  23845167.38908
 -10910325.94508  -8501531.87108  23292459.76108  23292461.24708
 93 07 18 02 01 00.0000000  0  8 31 21 19 28 26 23 22 17
 -17442599.57308 -13591624.57508  21710409.13608  21710409.25208
 -23348143.71008 -18193333.58308  21146550.88408  21146551.66308
    879325.71707    685188.42007  25087101.68007  25087104.65407
 -27899652.23609 -21739966.05009  20146239.21009  20146238.88209
  -1590844.30708  -1239614.44308  24352065.73408  24352067.09208
 -21908345.12308 -17071414.55908  21203612.07808  21203612.47708
  -6902428.80108  -5378508.80808  23885936.34808  23885938.46908
 -10706930.06808  -8343041.66708  23331164.78808  23331166.26308
 93 07 18 02 02 00.0000000  0  8 31 21 19 28 26 23 22 17
 -17593350.97308 -13709093.15608  21681722.01708  21681722.09308
 -23465573.78908 -18284837.49108  21124204.69808  21124205.46308
    996379.77507    776399.29007  25109376.30407  25109379.50607
 -27912683.65109 -21750120.40309  20143759.36709  20143759.04709
  -1529609.07908  -1191898.71308  24363718.34708  24363719.54208
 -21876147.77308 -17046325.71908  21209739.07508  21209739.45508
  -6687704.37808  -5211191.24008  23926797.16908  23926799.41908
 -10503038.69108  -8184165.35808  23369964.11008  23369965.55008
 93 07 18 02 03 00.0000000  0  7 31 21 26 28 23 22 17
 -17742831.44008 -13825571.39508  21653276.85308  21653276.96008
 -23580914.57108 -18374713.37808  21102255.98108  21102256.75308
  -1466198.38608  -1142487.81308  24375785.12608  24375786.44408
 -27923668.44409 -21758679.98409  20141669.06809  20141668.75809
 -21841659.04308 -17019451.38508  21216302.02508  21216302.37608
  -6472559.59508  -5043546.11708  23967737.86208  23967740.08208
 -10298529.36208  -8024807.53208  23408880.99708  23408882.52408
 93 07 18 02 04 00.0000000  0  8 31 21 27 28 26 23 22 17
 -17890917.48908 -13940963.07308  21625096.97208  21625097.01108
 -23694117.15008 -18462923.14108  21080714.21008  21080714.96908
        -0.02218        -0.01117  24599316.83018  24599318.61217
 -27932546.83209 -21765598.21309  20139979.58709  20139979.25709
  -1400637.47308  -1091401.42308  24388261.07608  24388262.42508
 -21804875.36408 -16990788.78308  21223301.81308  21223302.12208
  -6256920.14408  -4875515.54308  24008772.75808  24008774.97408
 -10093363.63608  -7864938.24008  23447922.79608  23447924.41308
 93 07 18 02 05 00.0000000  0  8 31 21 23 27 28 26 22 17
 -18037497.64208 -14055181.32208  21597203.68908  21597203.65808
 -23805265.55108 -18549532.23408  21059563.34508  21059564.06508
 -21765914.40408 -16960429.58108  21230715.78708  21230716.11908
     32412.81708     25256.75207  24605484.65808  24605486.58507
 -27939289.77709 -21770852.45109  20138696.46709  20138696.12509
  -1332987.54108  -1038687.19408  24401134.34608  24401135.60408
  -6040697.08608  -4707030.20608  24049918.70108  24049920.88208
  -9887619.98208  -7704618.60008  23487074.63908  23487076.07308
 93 07 18 02 06 00.0000000  0  8 31 21 23 27 28 26 22 17
 -18182605.35208 -14168252.21808  21569590.64308  21569590.57808
 -23914506.21908 -18634654.78808  21038775.50808  21038776.23308
 -21724828.17608 -16928414.33408  21238534.21408  21238534.58408
     67082.09508     52271.77807  24612082.00708  24612083.86507
 -27943964.26909 -21774494.91709  20137806.85109  20137806.53109
  -1263208.17908   -984313.69708  24414412.94408  24414414.25808
  -5823966.02208  -4538149.02408  24091161.60508  24091163.64408
  -9681418.03708  -7543941.84208  23526313.76608  23526315.09808
 93 07 18 02 07 00.0000000  0  8 31 21 23 27 28 26 22 17
 -18326293.09808 -14280216.64408  21542247.70908  21542247.69308
 -24021752.07608 -18718222.94508  21018367.27208  21018367.97408
 -21681471.28508 -16894629.73808  21246784.74708  21246785.05508
    104118.54207     81131.35207  24619129.63007  24619131.73807
 -27946436.84809 -21776421.60709  20137336.49909  20137336.19209
  -1191228.03408   -928225.30208  24428110.50308  24428111.79108
  -5606783.81408  -4368916.31108  24132490.22108  24132492.36108
  -9474764.74308  -7382913.37308  23565638.59408  23565640.14808
 93 07 18 02 08 00.0000000  0  8 31 21 23 27 28 26 22 17
 -18468759.06208 -14391229.02008  21515137.32908  21515137.24508
 -24126960.90508 -18800203.79508  20998346.68808  20998347.35308
 -21635900.22108 -16859119.79808  21255456.66908  21255457.02308
    143509.45807    111825.59107  24626625.59307  24626627.33607
 -27946711.72509 -21776635.78509  20137284.24009  20137283.93409
  -1117247.76908   -870578.35608  24442188.43708  24442189.85408
  -5389262.16208  -4199419.10108  24173883.30908  24173885.58208
  -9267746.28308  -7221600.36408  23605032.93608  23605034.57408
 93 07 18 02 09 00.0000000  0  7 31 23 26 22 17 28 21
 -18609910.82008 -14501217.39708  21488276.98208  21488276.95408
 -21588154.16708 -16821915.11408  21264542.49108  21264542.85108
  -1041314.58308   -811409.70608  24456638.00908  24456639.44208
  -5171354.58108  -4029621.20308  24215349.76808  24215352.17008
  -9060238.77708  -7059906.32908  23644520.36608  23644521.88208
 -27944805.62509 -21775150.54609  20137646.89909  20137646.55709
 -24229979.99208 -18880478.39808  20978742.83908  20978743.43008
 93 07 18 02 10 00.0000000  0  7 31 23 28 21 26 22 17
 -18749477.97108 -14609970.98108  21461718.19708  21461718.21308
 -21538218.32208 -16783004.07308  21274044.89908  21274045.24908
 -27940692.13209 -21771945.22909  20138429.70109  20138429.32609
 -24330756.30108 -18959005.35608  20959565.68008  20959566.24208
   -963249.51408   -750579.80108  24471493.29008  24471494.79508
  -4952997.81408  -3859473.27008  24256901.81208  24256904.35908
  -8852166.86308  -6897772.46008  23684115.15508  23684116.69808
 93 07 18 02 11 00.0000000  0  8 31 23 28 21 15 26 22 17
 -18887383.16008 -14717429.55708  21435475.63308  21435475.65408
 -21486100.56508 -16742392.85608  21283962.53908  21283962.91008
 -27934421.53609 -21767059.07709  20139622.96909  20139622.60209
 -24429454.06208 -19035912.68908  20940784.10408  20940784.69708
        -0.99517        -0.62617  25283152.16317  25283156.29717
   -882943.07208   -688003.39008  24486775.02408  24486776.65708
  -4734198.86608  -3688980.81408  24298538.03808  24298540.62208
  -8643657.78808  -6735297.98108  23723793.16908  23723794.91708
 93 07 18 02 12 00.0000000  0  8 31 23 28 21 15 26 22 17
 -19023735.54208 -14823678.13308  21409528.49408  21409528.58708
 -21431819.73308 -16700096.10708  21294291.78008  21294292.22808
 -27925998.12709 -21760495.39009  20141225.93409  20141225.54109
 -24526141.90808 -19111253.83408  20922384.95308  20922385.52708
   -217388.55307   -169393.28907  25241784.58507  25241788.39207
   -800511.99008   -623771.39408  24502461.13408  24502462.78408
  -4514994.48308  -3518172.40908  24340251.43508  24340254.03808
  -8434744.62708  -6572508.61408  23763548.10908  23763549.91608
 93 07 18 02 13 00.0000000  0  8 31 23 28 21 15 26 22 17
 -19158623.73808 -14928785.77108  21383860.22808  21383860.29308
 -21375419.53408 -16656147.89008  21305024.43108  21305024.81508
 -27915434.53209 -21752264.01009  20143236.05109  20143235.66609
 -24620802.05908 -19185014.94608  20904371.70108  20904372.29408
   -434665.69607   -338699.93907  25200438.08707  25200441.45507
   -716181.73508   -558059.54408  24518508.67908  24518510.17908
  -4295508.41208  -3347144.50908  24382018.36808  24382021.08308
  -8225379.34308  -6409366.93508  23803389.10308  23803390.87208
 93 07 18 02 14 00.0000000  0  8 31 23 28 21 15 26 22 17
 -19291948.99108 -15032675.55108  21358489.18808  21358489.23008
 -21316930.02108 -16610571.65808  21316154.58408  21316154.95508
 -27902659.20209 -21742309.22109  20145667.15309  20145666.76609
 -24713339.44608 -19257121.97508  20886762.42608  20886763.03608
   -651805.89207   -507899.82907  25159117.34207  25159120.84707
   -629976.31408   -490886.54308  24534913.05408  24534914.71708
  -4075814.72908  -3175954.84908  24423824.90208  24423827.67408
  -8015507.16108  -6245830.28008  23843326.48708  23843328.26508
 93 07 18 02 15 00.0000000  0  8 31 23 28 21 15 26 22 17
 -19423713.68808 -15135349.31208  21333415.26308  21333415.32208
 -21256319.25708 -16563342.50208  21327688.47608  21327688.85408
 -27887639.67009 -21730605.70309  20148525.15009  20148524.78009
 -24803644.73208 -19327489.70608  20869577.85008  20869578.48108
   -868781.17407   -676971.13607  25117828.11507  25117831.99207
   -541771.75008   -422155.76808  24551697.92708  24551699.60208
  -3855929.97708  -3004616.31008  24465667.68008  24465670.37708
  -7805209.82308  -6081962.33208  23883344.84108  23883346.55508
 93 07 18 02 16 00.0000000  0  8 31 23 28 21 15 26 22 17
 -19553993.25808 -15236865.81908  21308623.94408  21308623.89708
 -21193546.46108 -16514428.63408  21339633.72808  21339634.11808
 -27870448.15509 -21717209.72009  20151796.61209  20151796.28809
 -24891696.56208 -19396101.48408  20852822.11908  20852822.73908
  -1085574.92607   -845901.10207  25076573.50907  25076576.80907
   -451494.18908   -351809.67808  24568877.24208  24568878.94808
  -3635803.99208  -2833089.78708  24507556.47008  24507559.16608
  -7594576.88308  -5917832.87008  23923427.05108  23923428.81808
 93 07 18 02 17 00.0000000  0  8 31 23 28 21 15 26 22 17
 -19682793.07208 -15337229.29308  21284114.06208  21284113.95108
 -21128638.40608 -16463850.95308  21351985.32208  21351985.73108
 -27851130.19509 -21702156.79109  20155472.62609  20155472.31209
 -24977499.60108 -19462960.98008  20836494.34008  20836494.94208
  -1302196.29107  -1014696.69207  25035351.60607  25035354.71407
   -359212.68108   -279902.08308  24586438.03708  24586439.53308
  -3415429.79708  -2661369.84808  24549492.54308  24549495.29008
  -7383596.84708  -5753432.97008  23963575.31508  23963577.08708
 93 07 18 02 18 00.0000000  0  8 31 23 28 21 15 26 22 17
 -19809946.71808 -15436310.00708  21259917.62308  21259917.53108
 -21061596.88208 -16411610.79108  21364742.90908  21364743.29708
 -27829666.09609 -21685431.51309  20159557.24709  20159556.93109
 -25061091.48808 -19528097.46408  20820587.31108  20820587.92008
  -1518615.95307  -1183335.14707  24994168.23107  24994170.99207
   -264858.03208   -206379.02508  24604393.06308  24604394.54108
  -3194851.15608  -2489490.58008  24591467.33508  24591470.04108
  -7172266.10108  -5588759.75308  24003790.22408  24003792.27808
 93 07 18 02 19 00.0000000  0  8 31 23 28 21 15 26 22 17
 -19935376.67208 -15534047.59908  21236049.06008  21236049.00308
 -20992438.67608 -16357721.28008  21377903.37808  21377903.72908
 -27806003.52309 -21666993.15209  20164060.01809  20164059.69609
 -25142477.63708 -19591515.21008  20805100.04308  20805100.61408
  -1734806.33407  -1351794.81607  24953028.34807  24953031.22007
   -168405.37708   -131221.16908  24622747.19208  24622748.98708
  -2974061.94908  -2317447.27808  24633482.37208  24633485.30108
  -6960604.27308  -5423828.56208  24044068.24108  24044070.17608
 93 07 18 02 20 00.0000000  0  8 31 23 28 21 15 26 22 17
 -20059686.70408 -15630912.54008  21212393.61908  21212393.41708
 -20921654.41308 -16302564.72608  21391373.11208  21391373.48608
 -27780601.25709 -21647199.19309  20168893.97009  20168893.70709
 -25222230.42408 -19653660.21808  20789923.53408  20789924.14508
  -1951287.59707  -1520481.30607  24911832.93207  24911836.45507
    -70475.76208    -54912.45108  24641382.81908  24641384.32208
  -2753565.26408  -2145631.91408  24675441.58808  24675444.67008
  -6749131.79508  -5259044.94008  24084310.25708  24084312.02908
 93 07 18 02 21 00.0000000  0  8 31 23 28 21 15 26 22 17
 -20182571.33108 -15726666.78608  21189009.43508  21189009.34808
 -20849021.38808 -16245967.58508  21405194.75008  21405195.13408
 -27753113.36509 -21625780.07709  20174124.77309  20174124.49409
 -25300037.43708 -19714289.04508  20775117.32708  20775117.92508
  -2167752.10707  -1689154.69607  24870640.96207  24870644.25107
     29121.27008     22695.54508  24660335.64608  24660337.14308
  -2533117.36508  -1973854.59008  24717391.62208  24717394.80808
  -6537534.20208  -5094163.81008  24124576.04308  24124577.93708
 93 07 18 02 22 00.0000000  0  8 31 23 28 21 15 26 22 17
 -20302997.12208 -15820505.01508  21166093.09108  21166092.93608
 -20773622.92108 -16187215.51808  21419542.53308  21419542.96108
 -27722588.59209 -21601994.52909  20179933.36509  20179933.09809
 -25374855.75608 -19772588.98408  20760879.80708  20760880.37708
  -2383202.93207  -1857038.15007  24829641.73307  24829644.63307
    131394.84308    102389.18708  24679797.67708  24679799.42008
  -2311754.98208  -1801364.64208  24759515.61208  24759518.92508
  -6324809.65308  -4928404.49708  24165056.26608  24165058.09508
 93 07 18 02 23 00.0000000  0  8 31 23 28 21 15 26 22 17
 -20421593.74708 -15912917.96608  21143524.95508  21143524.71508
 -20696089.31208 -16126799.74308  21434296.70108  21434297.16608
 -27689724.22409 -21576385.95809  20186187.01209  20186186.77209
 -25447300.22008 -19829039.20208  20747094.07008  20747094.61308
  -2598278.74708  -2024629.48707  24788714.26508  24788716.85007
    235732.18808    183690.93108  24699652.45308  24699654.07408
  -2090078.94908  -1628630.34608  24801699.35208  24801702.70108
  -6111547.06308  -4762225.97708  24205638.73908  24205640.75308
 93 07 18 02 24 00.0000000  0  8 31 23 28 21 15 26 22 17
 -20538481.58308 -16003999.35908  21121281.86008  21121281.71308
 -20616449.54208 -16064742.77908  21449451.65008  21449452.14608
 -27654673.66509 -21549073.83409  20192856.96509  20192856.73209
 -25517528.00608 -19883762.11308  20733730.23308  20733730.75808
  -2813101.71508  -2192023.79407  24747834.55308  24747837.19207
    341939.10208    266449.52408  24719862.99608  24719864.56808
  -1868229.97708  -1455761.28408  24843916.11908  24843919.58608
  -5897861.52808  -4595717.88208  24246301.83408  24246303.88708
 93 07 18 02 25 00.0000000  0  7 31 23 15 28 21 22 17
 -20653787.08408 -16093847.76308  21099339.91108  21099339.76708
 -20534873.13308 -16001176.74708  21464975.10008  21464975.58908
  -3027797.43208  -2359318.98107  24706979.13208  24706981.96207
 -27617542.13409 -21520140.18009  20199922.92609  20199922.68109
 -25585665.05808 -19936855.87908  20720764.13208  20720764.63208
  -1646467.17507  -1282959.36207  24886116.32307  24886119.53907
  -5684007.57108  -4429078.53308  24286996.91308  24286999.00208
 93 07 18 02 26 00.0000000  0  7 31 23 28 21 15 22 17
 -20767518.23808 -16182469.43008  21077697.56008  21077697.39508
 -20451423.77008 -15936151.29608  21480855.09508  21480855.57108
 -27578313.86909 -21489572.72409  20207387.99209  20207387.74409
 -25651675.81408 -19988292.81308  20708202.61008  20708203.14608
  -3242387.63308  -2526531.95607  24666143.75708  24666146.42307
  -1424851.73207  -1110272.28007  24928288.43607  24928291.80307
  -5470120.63608  -4262413.51208  24327698.43508  24327700.45208
 93 07 18 02 27 00.0000000  0  7 31 23 28 21 15 22 17
 -20879436.02208 -16269678.06708  21056400.44208  21056400.28008
 -20365935.84308 -15869537.34308  21497122.87708  21497123.33208
 -27536804.47909 -21457227.76009  20215287.06709  20215286.79009
 -25715329.45008 -20037893.02008  20696089.79808  20696090.33708
  -3456645.99407  -2693486.26407  24625371.47107  24625374.41407
  -1203168.39507   -937532.33507  24970473.66107  24970477.03307
  -5255919.56108  -4095503.70008  24368459.67408  24368461.72908
 93 07 18 02 28 00.0000000  0  7 31 23 15 28 21 22 17
 -20989583.93308 -16355507.54608  21035440.00808  21035439.91508
 -20278488.69708 -15801396.68808  21513763.52308  21513763.99608
  -3670608.88907  -2860210.34707  24584655.41407  24584658.43807
 -27493090.68009 -21423165.04209  20223605.32809  20223605.08809
 -25776707.83008 -20085720.26408  20684409.83608  20684410.36908
   -981433.61607   -764752.19107  25012668.34307  25012671.92607
  -5041409.95508  -3928353.43808  24409279.63908  24409281.77208
 93 07 18 02 29 00.0000000  0  7 31 23 28 21 15 22 17
 -21097982.52008 -16439973.95208  21014812.22108  21014812.14508
 -20189064.27808 -15731715.34708  21530780.44408  21530780.92008
 -27447169.03309 -21387381.96509  20232343.95609  20232343.69409
 -25835834.07608 -20131792.64408  20673158.49708  20673159.02708
  -3884269.72307  -3026699.10908  24543997.11507  24544000.01508
   -759675.47407   -591953.97207  25054867.79407  25054871.61407
  -4826691.59808  -3761040.56508  24450139.33008  24450141.31208
 93 07 18 02 30 00.0000000  0  7 23 31 28 21 15 22 17
 -20097636.65908 -15660473.07708  21548178.51408  21548179.04508
 -21204593.72408 -16523047.60308  20994524.71608  20994524.55808
 -27399003.25309 -21349850.22009  20241509.61709  20241509.37309
 -25892701.43408 -20176104.85808  20662336.99708  20662337.48808
  -4097625.18608  -3192949.92707  24503396.79508  24503399.56407
   -537971.65107   -419198.06607  25097057.15207  25097060.87207
  -4611823.91608  -3593611.34108  24491027.31508  24491029.45408
 93 07 18 02 31 00.0000000  0  7 23 31 28 21 15 22 17
 -20004213.80608 -15587676.09608  21565956.32108  21565956.81308
 -21309331.25508 -16604661.27208  20974593.86008  20974593.72908
 -27348576.27009 -21310556.51709  20251105.75009  20251105.54809
 -25947309.16308 -20218656.34008  20651945.43608  20651945.96408
  -4310668.40508  -3358957.49907  24462855.94708  24462858.60007
   -316342.90408   -246500.71007  25139231.99208  25139235.62807
  -4396642.33708  -3425937.53308  24531975.16708  24531977.24308
 93 07 18 02 32 00.0000000  0  7 23 31 28 21 15 22 17
 -19908978.14108 -15513466.50908  21584079.10808  21584079.55408
 -21412266.04408 -16684870.18208  20955005.95808  20955005.85508
 -27296051.65209 -21269628.26409  20261100.74309  20261100.57209
 -25999733.26608 -20259506.27108  20641969.37608  20641969.90608
  -4523474.31908  -3524780.15208  24422360.16308  24422362.79008
    -94827.55908    -73891.69207  25181385.22308  25181389.08907
  -4181189.69208  -3258052.46408  24572974.41908  24572976.54708
 93 07 18 02 33 00.0000000  0  7 23 15 31 28 21 22 17
 -19811890.63408 -15437813.93008  21602554.23808  21602554.69608
  -4735970.09407  -3690361.10408  24381923.20407  24381926.09008
 -21513401.12608 -16763676.72908  20935760.68408  20935760.53508
 -27241430.59709 -21227066.42509  20271494.82109  20271494.61109
 -26049890.45008 -20298589.77608  20632424.79808  20632425.29608
    126668.74107     98702.50507  25223534.67807  25223538.81807
  -3965558.73008  -3090028.46608  24614007.68808  24614009.96908
 93 07 18 02 34 00.0000000  0  7 23 15 31 28 21 22 17
 -19712866.18308 -15360652.03208  21621398.01908  21621398.44408
  -4948099.11308  -3855656.24908  24341556.28808  24341559.16608
 -21612707.83508 -16841058.56308  20916863.37008  20916863.20608
 -27184641.97209 -21182815.56809  20282301.38309  20282301.14409
 -26097732.76108 -20335869.47908  20623320.75308  20623321.23808
    348076.22507    271227.51107  25265667.24807  25265671.44807
  -3749815.93908  -2921917.31807  24655062.30108  24655064.54207
 93 07 18 02 35 00.0000000  0  7 23 15 31 28 21 22 17
 -19611984.85208 -15282043.21108  21640595.14808  21640595.59008
  -5159899.14008  -4020695.03908  24301252.04708  24301254.90608
 -21710236.21608 -16917054.68508  20898304.14908  20898303.99308
 -27125663.31409 -21136858.19009  20293524.67809  20293524.46409
 -26143276.72008 -20371358.25208  20614653.97708  20614654.46208
    569252.98607    443572.71407  25307756.14307  25307760.19807
  -3533968.69708  -2753724.75908  24696136.69408  24696139.11608
 93 07 18 02 36 00.0000000  0  7 23 15 31 28 21 22 17
 -19509188.14908 -15201941.90608  21660156.71308  21660157.15308
  -5371292.97108  -4185417.31808  24261025.03208  24261027.85808
 -21805912.93708 -16991607.96408  20880097.46908  20880097.33008
 -27064356.14909 -21089086.40109  20305190.88909  20305190.67609
 -26186430.72108 -20404984.73108  20606442.06308  20606442.51008
    790298.66907    615815.64507  25349819.99207  25349824.09207
  -3317825.00408  -2585301.23907  24737267.64808  24737269.83907
 93 07 18 02 37 00.0000000  0  7 23 15 31 28 21 22 17
 -19404483.02408 -15120353.47708  21680081.38208  21680081.89008
  -5582317.54808  -4349851.81808  24220868.32808  24220870.83608
 -21899659.94408 -17064657.53008  20862258.00408  20862257.79008
 -27000760.69009 -21039531.48309  20317292.72809  20317292.50909
 -26227275.66708 -20436811.90508  20598669.53408  20598669.97708
   1011223.56807    787964.47607  25391861.08507  25391864.92207
  -3101359.01307  -2416626.49307  24778459.71407  24778462.24607
 93 07 18 02 38 00.0000000  0  7 23 15 31 28 21 22 17
 -19297953.76808 -15037343.68808  21700353.27808  21700353.79108
  -5793047.00808  -4514056.39908  24180767.75108  24180770.03408
 -21991461.16808 -17136190.93508  20844788.77908  20844788.57308
 -26934992.50909 -20988283.57209  20329808.21409  20329807.99909
 -26265917.87408 -20466922.69408  20591316.18708  20591316.57108
   1231931.20107    959944.04907  25433860.66307  25433864.94007
  -2884696.73207  -2247798.86507  24819689.19707  24819691.75207
 93 07 18 02 39 00.0000000  0  6 23 15 17 31 28 21
 -19189684.02808 -14952977.69208  21720956.27808  21720956.78608
  -6003433.00908  -4677993.37608  24140732.50308  24140734.74808
  -2667942.41007  -2078899.52407  24860936.30807  24860938.90807
 -22081359.14908 -17206241.30208  20827681.88108  20827681.67008
 -26867045.03509 -20935337.52509  20342738.12109  20342737.90209
 -26302316.35808 -20495285.13808  20584389.77808  20584390.15908
 93 07 18 02 40 00.0000000  0  6 23 15 17 31 28 21
 -19079669.02808 -14867251.75408  21741891.50208  21741891.99008
  -6213461.84408  -4841652.03208  24100765.09508  24100767.49608
  -2451189.02107  -1910000.89807  24902183.27007  24902185.44807
 -22169435.11308 -17274871.91608  20810921.43108  20810921.25208
 -26796965.41409 -20880730.06909  20356073.76909  20356073.55709
 -26336422.82908 -20521861.60108  20577899.49708  20577899.89208
 93 07 18 02 41 00.0000000  0  7 23 15 22 31 28 21 17
 -18967849.63608 -14780119.78608  21763170.06408  21763170.53408
  -6423080.92008  -5004991.36708  24060875.74308  24060878.17208
         0.46917        -0.29417  25559553.91617  25559558.43117
 -22255590.43408 -17342005.91608  20794526.60808  20794526.42708
 -26724731.97209 -20824444.29709  20369819.30609  20369819.10409
 -26368156.77808 -20546589.33908  20571860.68408  20571861.12408
  -2234315.12507  -1741008.35307  24943453.01407  24943455.48207
 93 07 18 02 42 00.0000000  0  6 23 15 31 28 21 17
 -18854145.78408 -14691519.42408  21784807.25908  21784807.72208
  -6632227.50908  -5167962.56308  24021076.43408  24021078.62808
 -22339647.29908 -17407504.77308  20778531.07108  20778530.91608
 -26650253.47109 -20766409.14209  20383992.06909  20383991.84509
 -26397484.32708 -20569441.97708  20566279.74808  20566280.22308
  -2017159.34707  -1571796.19807  24984776.48207  24984778.99907
 93 07 18 02 43 00.0000000  0  5 23 15 31 28 21
 -18738612.93908 -14601493.86808  21806792.39208  21806792.90108
  -6840986.58508  -5330631.82208  23981350.79908  23981352.82408
 -22421717.92409 -17471455.90908  20762913.61709  20762913.44808
 -26573561.17009 -20706648.94509  20398586.38009  20398586.18309
 -26424534.71208 -20590520.19608  20561132.28608  20561132.68708
 93 07 18 02 44 00.0000000  0  6 23 15 26 31 28 21
 -18621241.15208 -14510035.36408  21829127.52008  21829127.98808
  -7049340.82008  -5492985.62008  23941702.10608  23941704.11208
         0.01917         0.39817  25194909.02417  25194911.11717
 -22501866.28708 -17533909.17308  20747661.79708  20747661.63308
 -26494661.14909 -20645168.44209  20413600.47609  20413600.28809
 -26449326.07508 -20609838.13208  20556414.63408  20556415.01708
 93 07 18 02 45 00.0000000  0  6 23 15 26 31 28 21
 -18502199.40408 -14417275.58908  21851780.45708  21851780.94008
  -7257349.22208  -5655069.93108  23902119.26508  23902121.34708
    142446.92607    110997.90107  25222015.97207  25222017.98907
 -22580136.07809 -17594898.60808  20732767.57209  20732767.41408
 -26413680.71809 -20582066.83109  20429010.62709  20429010.45109
 -26471916.73008 -20627441.22408  20552115.66708  20552116.05608
 93 07 18 02 46 00.0000000  0  6 23 15 26 31 28 21
 -18381573.50308 -14323281.39608  21874734.80008  21874735.31408
  -7464935.79108  -5816825.54608  23862616.75708  23862618.68608
    286473.68807    223226.43707  25249423.38507  25249425.52707
 -22656402.46009 -17654326.95108  20718254.56809  20718254.38208
 -26330604.50009 -20517332.14209  20444819.46209  20444819.27509
 -26492245.66208 -20643281.93308  20548247.25808  20548247.64408
 93 07 18 02 47 00.0000000  0  6 23 15 26 31 28 21
 -18259372.46308 -14228059.86108  21897988.82408  21897989.42308
  -7672051.41608  -5978214.24408  23823203.80808  23823205.83308
    431944.20907    336579.96807  25277105.62207  25277107.78107
 -22730595.93409 -17712140.06508  20704135.98109  20704135.80108
 -26245423.33809 -20450957.26209  20461028.98209  20461028.78109
 -26510278.35008 -20657333.38608  20544815.78208  20544816.14008
 93 07 18 02 48 00.0000000  0  6 23 15 26 31 28 21
 -18135449.27008 -14131496.35608  21921570.66808  21921571.19008
  -7878667.53108  -6139213.66808  23783885.91508  23783888.05008
    578843.41707    451046.77107  25305059.50807  25305061.81807
 -22802680.06209 -17768309.49408  20690418.86109  20690418.67608
 -26158094.22609 -20382908.61809  20477647.20609  20477647.05509
 -26525973.96108 -20669563.70308  20541829.00708  20541829.39108
 93 07 18 02 49 00.0000000  0  6 23 15 26 31 28 21
 -18009675.22608 -14033490.63408  21945504.63808  21945505.21608
  -8084749.07808  -6299796.54508  23744669.71208  23744671.91308
    727277.92007    566709.90907  25333305.99007  25333308.03107
 -22872660.33509 -17822839.56408  20677102.03909  20677101.82608
 -26068522.90809 -20313112.81309  20494691.84509  20494691.75409
 -26539267.53208 -20679922.31408  20539299.22508  20539299.65908
 93 07 18 02 50 00.0000000  0  6 23 15 26 31 28 21
 -17882136.80508 -13934110.09908  21969774.49808  21969775.05208
  -8290319.80608  -6459981.40508  23705550.93308  23705552.92308
    877254.84807    683574.92707  25361845.77107  25361848.02107
 -22940663.46009 -17875829.01708  20664161.47809  20664161.26708
 -25976726.77409 -20241583.40009  20512160.24609  20512160.16709
 -26550185.54708 -20688429.86108  20537221.56008  20537222.01408
 93 07 18 02 51 00.0000000  0  6 23 15 26 31 28 21
 -17752969.64308 -13833460.40008  21994354.31408  21994354.85408
  -8495415.82708  -6619796.38108  23666522.42608  23666524.35008
   1028716.56007    801596.93307  25390667.96407  25390670.22207
 -23006744.60509 -17927320.82408  20651586.66809  20651586.46108
 -25882806.24909 -20168398.61908  20530032.82209  20530032.74408
 -26558816.95508 -20695155.63808  20535579.07908  20535579.53108
 93 07 18 02 52 00.0000000  0  6 23 15 26 31 28 21
 -17622246.21008 -13731598.00908  22019230.14208  22019230.70908
  -8700026.10408  -6779232.83508  23627586.29008  23627588.33208
   1181616.59107    920739.66507  25419763.74207  25419765.90107
 -23070769.63109 -17977210.44808  20639403.11109  20639402.87508
 -25786762.12009 -20093559.06808  20548309.37809  20548309.30708
 -26565165.03608 -20700102.18508  20534371.08708  20534371.50508
 93 07 18 02 53 00.0000000  0  6 23 15 26 31 28 21
 -17489907.90108 -13628477.27908  22044413.27908  22044413.82608
  -8904118.52308  -6938265.74308  23588748.63508  23588750.61908
   1335984.28007   1041026.04207  25449138.92607  25449141.33607
 -23132591.91409 -18025383.64808  20627638.73409  20627638.50708
 -25688551.60809 -20017031.43008  20566998.22209  20566998.17608
 -26569203.70308 -20703249.18708  20533602.60108  20533603.01008
 93 07 18 02 54 00.0000000  0  6 23 15 26 31 28 21
 -17355976.16508 -13524114.92708  22069899.70108  22069900.22808
  -9107731.62708  -7096925.17408  23550002.36508  23550004.18708
   1491773.73107   1162420.32707  25478784.79407  25478787.08707
 -23192316.53509 -18071922.32108  20616273.53309  20616273.31108
 -25588255.71009 -19938878.82208  20586083.92109  20586083.81608
 -26570965.38408 -20704621.93108  20533267.39108  20533267.76508
 93 07 18 02 55 00.0000000  0  6 23 15 26 31 28 21
 -17220475.98108 -13418530.41108  22095684.52508  22095685.07008
  -9310850.48308  -7255199.49508  23511350.02708  23511351.78608
   1648931.52007   1284880.81707  25508691.28507  25508693.66507
 -23250011.95009 -18116879.79508  20605294.41409  20605294.16508
 -25486010.27709 -19859207.09908  20605540.59809  20605540.51308
 -26570455.57308 -20704224.68208  20533364.35908  20533364.73408
 93 07 18 02 56 00.0000000  0  6 23 15 26 31 28 21
 -17083448.55208 -13311755.82808  22121759.97008  22121760.52708
  -9513447.15008  -7413066.89308  23472796.98208  23472798.82508
   1807385.71008   1408351.50207  25538844.42908  25538846.71607
 -23305564.22109 -18160167.27508  20594723.11409  20594722.88808
 -25381807.47209 -19778010.14508  20625369.78409  20625369.73508
 -26567663.97408 -20702049.40608  20533895.51508  20533895.93108
 93 07 18 02 57 00.0000000  0  6 23 15 26 31 28 21
 -16944864.72808 -13203768.46908  22148131.66508  22148132.19108
  -9715446.23708  -7570468.65108  23434357.83708  23434359.48408
   1967192.45207   1532876.13007  25569254.51407  25569256.93107
 -23358834.10509 -18201676.27008  20584586.24409  20584586.03208
 -25275440.08909 -19695126.50908  20645610.91209  20645610.85908
 -26562547.61208 -20698062.62708  20534869.15008  20534869.57508
 93 07 18 02 58 00.0000000  0  6 23 15 31 28 21 26
 -16804749.24808 -13094587.60608  22174794.83408  22174795.41208
  -9916877.83908  -7727428.21508  23396026.54708  23396028.21608
 -23409868.16509 -18241443.05808  20574874.79809  20574874.55808
 -25166841.39608 -19610504.18608  20666276.61908  20666276.54208
 -26555187.14608 -20692327.18708  20536269.78808  20536270.21908
   2128403.23407   1658494.73707  25599931.91407  25599934.25507
 93 07 18 02 59 00.0000000  0  6 23 15 31 28 21 26
 -16663137.94308 -12984241.18408  22201742.60008  22201743.14908
 -10117749.52608  -7883951.49108  23357801.78608  23357803.57808
 -23458773.06609 -18279550.77708  20565568.51209  20565568.28408
 -25056106.94008 -19524217.63808  20687348.65008  20687348.58508
 -26545509.70708 -20684786.33308  20538111.33708  20538111.75708
   2290968.08507   1785168.55707  25630867.11907  25630869.76007
 93 07 18 03 00 00.0000000  0  6 23 15 31 28 21 26
 -16520085.65208 -12872771.93508  22228964.58108  22228965.12408
 -10318106.86808  -8040074.00808  23319675.03508  23319676.70108
 -23505636.29508 -18316067.60908  20556650.68508  20556650.50108
 -24943390.99708 -19436387.10608  20708797.75608  20708797.71108
 -26533511.43608 -20675437.06408  20540394.59308  20540394.98408
   2454683.61307   1912738.98207  25662021.19607  25662023.68707
 93 07 18 03 01 00.0000000  0  6 23 15 02 31 28 21
 -16375549.31908 -12760146.22208  22256468.88808  22256469.48008
 -10517895.76608  -8195753.51808  23281656.27008  23281657.93908
        -0.55217        -0.46817  25493113.47017  25493116.15517
 -23550418.81909 -18350963.03509  20548128.88309  20548128.70609
 -24828698.63308 -19347016.43208  20730623.13508  20730623.09408
 -26519206.13708 -20664290.04108  20543116.74708  20543117.17408
 93 07 18 03 02 00.0000000  0  6 23 15 02 31 28 21
 -16229488.85508 -12646332.91308  22284263.32308  22284263.95608
 -10717086.88208  -8350967.25208  23243751.41208  23243753.04808
   -175902.83507   -137067.13707  25459640.48407  25459643.35507
 -23593066.58409 -18384195.04808  20540013.23509  20540013.02108
 -24711940.22108 -19256035.89008  20752841.62708  20752841.56808
 -26502739.57108 -20651458.94508  20546250.22208  20546250.67508
 93 07 18 03 03 00.0000000  0  6 23 15 02 31 28 21
 -16081959.80308 -12531375.26308  22312337.17808  22312337.80608
 -10915691.29508  -8505723.83308  23205958.26608  23205959.81308
   -350425.73507   -273058.85907  25426429.91007  25426432.13307
 -23633545.54309 -18415737.10208  20532310.35609  20532310.13208
 -24593083.08808 -19163419.99808  20775459.24008  20775459.20008
 -26484114.81408 -20636946.15708  20549794.38508  20549794.82408
 93 07 18 03 04 00.0000000  0  6 23 15 02 31 28 21
 -15933048.26108 -12415340.31208  22340674.23708  22340674.90308
 -11113670.05108  -8659992.87208  23168284.08708  23168285.56208
   -523647.35707   -408036.64507  25393466.79207  25393469.52907
 -23671821.64909 -18445562.61208  20525026.68509  20525026.46408
 -24472182.30508 -19069211.61608  20798466.01608  20798465.99808
 -26463134.35008 -20620597.71808  20553786.82108  20553787.27208
 93 07 18 03 05 00.0000000  0  6 23 15 02 31 28 21
 -15782870.26108 -12298318.53708  22369252.13808  22369252.74708
 -11311067.77508  -8813809.18608  23130720.39608  23130721.93508
   -695666.09907   -542077.09707  25360732.56107  25360735.08707
 -23707944.14809 -18473710.02008  20518152.92609  20518152.65308
 -24349358.26108 -18973504.61908  20821838.63108  20821838.61408
 -26439833.53808 -20602441.24708  20558220.85408  20558221.30608
 93 07 18 03 06 00.0000000  0  6 23 15 02 31 28 21
 -15631341.15608 -12180243.97808  22398087.23008  22398087.80408
 -11507786.34908  -8967096.30408  23093285.90708  23093287.59108
   -866322.34207   -675055.88107  25328257.65607  25328260.36507
 -23741773.09209 -18500070.26109  20511715.50609  20511715.26009
 -24224534.48008 -18876239.40908  20845591.87808  20845591.88008
 -26414283.42608 -20582532.09608  20563082.92208  20563083.37208
 93 07 18 03 07 00.0000000  0  6 15 23 02 31 28 21
 -11703821.75008  -9119851.03208  23055981.59308  23055983.18908
 -15478409.02508 -12061076.09308  22427189.22608  22427189.93608
  -1035648.18907   -806997.97007  25296036.02507  25296038.63807
 -23773300.49309 -18524637.03109  20505715.91909  20505715.66309
 -24097670.14508 -18777384.10308  20869733.27708  20869733.28808
 -26386562.67508 -20560931.48408  20568357.97908  20568358.41208
 93 07 18 03 08 00.0000000  0  6 15 23 02 31 28 21
 -11899186.83408  -9272083.47708  23018804.82208  23018806.25808
 -15323998.81008 -11940756.49008  22456572.46308  22456573.17408
  -1203675.67508   -937928.35707  25264061.41808  25264063.80407
 -23802598.43109 -18547466.59609  20500140.65309  20500140.40009
 -23968782.08308 -18676951.90208  20894259.89508  20894259.89208
 -26356614.89808 -20537595.56708  20574056.82208  20574057.30208
 93 07 18 03 09 00.0000000  0  6 15 23 02 31 28 21
 -12093845.80908  -9423765.70308  22981762.39108  22981763.83808
 -15168052.42708 -11819239.87408  22486248.08108  22486248.90208
  -1370327.56207  -1067786.88307  25232348.38507  25232350.98407
 -23829710.06909 -18568592.54709  20494981.53709  20494981.27609
 -23837895.85908 -18574962.68608  20919166.69308  20919166.70108
 -26324330.52008 -20512438.91508  20580200.34508  20580200.79908
 93 07 18 03 10 00.0000000  0  6 15 23 02 31 28 21
 -12287881.99008  -9574962.64408  22944838.43708  22944839.89508
 -15010799.60608 -11696705.26708  22516172.30508  22516173.13908
  -1535559.45607  -1196538.90007  25200905.76707  25200908.03407
 -23854716.36409 -18588077.98809  20490223.03109  20490222.73309
 -23705126.19208 -18471505.86508  20944432.09208  20944432.16608
 -26289829.98508 -20485555.40308  20586765.61208  20586766.05208
 93 07 18 03 11 00.0000000  0  6 15 23 02 31 28 21
 -12481259.06208  -9725645.96908  22908039.97708  22908041.34108
 -14852369.48808 -11573253.25008  22546320.61708  22546321.51508
  -1699230.42908  -1324074.58307  25169760.28208  25169762.57107
 -23877464.04409 -18605803.43609  20485894.26109  20485893.98109
 -23570464.50708 -18366574.71408  20970057.50808  20970057.54708
 -26253187.67408 -20457002.94208  20593738.39908  20593738.83108
 93 07 18 03 12 00.0000000  0  6 28 15 23 02 31 21
 -23433854.16808 -18260125.14108  20996053.54508  20996053.56208
 -12673925.26708  -9875775.37508  22871376.64608  22871378.12208
 -14692732.58708 -11448860.89808  22576698.53808  22576699.42008
  -1861370.52508  -1450417.40207  25138905.95708  25138908.26607
 -23897844.93109 -18621684.63209  20482015.91109  20482015.65009
 -26214348.36208 -20426738.53308  20601129.30408  20601129.75608
 93 07 18 03 13 00.0000000  0  6 28 15 23 02 31 21
 -23295289.71108 -18152152.89108  21022421.64808  21022421.69908
 -12865858.97308 -10025334.00508  22834852.81408  22834854.32808
 -14531795.80508 -11323455.65608  22607323.99908  22607324.71208
  -2022037.90907  -1575612.68507  25108331.65307  25108334.12207
 -23915843.08909 -18635709.16309  20478590.97209  20478590.72209
 -26173254.62108 -20394717.43308  20608949.16908  20608949.60308
 93 07 18 03 14 00.0000000  0  6 28 15 23 02 31 21
 -23154783.32108 -18042667.49408  21049159.15008  21049159.22908
 -13057116.92508 -10174366.11708  22798457.53108  22798459.07808
 -14369645.40308 -11197104.78308  22638180.18508  22638180.95508
  -2181285.19108  -1699701.39408  25078027.87208  25078030.57708
 -23931630.47109 -18648011.06209  20475586.69209  20475586.48509
 -26129929.63508 -20360957.74908  20617193.67608  20617194.09408
 93 07 18 03 15 00.0000000  0  6 28 15 23 02 31 21
 -23012264.49308 -17931613.92208  21076279.54408  21076279.66308
 -13247647.11908 -10322831.10708  22762200.76508  22762202.24208
 -14206249.25508 -11069783.15508  22669273.47508  22669274.26208
  -2338987.63908  -1822586.29507  25048018.12308  25048020.41407
 -23945232.17709 -18658609.79209  20472998.36909  20472998.13509
 -26084429.58508 -20325503.16408  20625852.07208  20625852.49308
 93 07 18 03 16 00.0000000  0  6 28 15 23 02 31 21
 -22867808.30108 -17819050.74008  21103768.70608  21103768.84508
 -13437468.22508 -10470743.59008  22726079.00908  22726080.38308
 -14041556.83208 -10941451.46308  22700613.38208  22700614.14108
  -2495144.42308  -1944266.85007  25018302.35208  25018304.65807
 -23956670.86809 -18667523.08009  20470821.68309  20470821.47109
 -26036859.47008 -20288435.56608  20634904.35408  20634904.78708
 93 07 18 03 17 00.0000000  0  6 28 15 23 02 31 21
 -22721546.46908 -17705080.52208  21131601.46908  21131601.59508
 -13626566.90608 -10618093.09508  22690094.69108  22690096.02908
 -13875644.72008 -10812169.32808  22732185.41208  22732186.19808
  -2649799.98508  -2064777.55607  24988872.43908  24988874.58507
 -23965882.26309 -18674700.77309  20469068.80809  20469068.58409
 -25987190.61508 -20249732.54508  20644356.02408  20644356.43708
 93 07 18 03 18 00.0000000  0  6 28 15 23 02 31 21
 -22573512.07008 -17589729.11608  21159771.66108  21159771.82108
 -13814884.43108 -10764833.94408  22654258.98508  22654260.32608
 -13708611.93108 -10682013.97508  22763970.70208  22763971.54108
  -2802884.40808  -2184064.03308  24959741.27608  24959743.64308
 -23972702.37609 -18680015.16509  20467771.04309  20467770.81609
 -25935310.10708 -20209306.19608  20654228.59008  20654229.01208
 93 07 18 03 19 00.0000000  0  6 28 15 23 02 31 21
 -22423698.86608 -17472991.61808  21188280.02808  21188280.27108
 -14002426.24208 -10910970.32008  22618570.87108  22618572.07808
 -13540524.40808 -10551036.73408  22795956.80608  22795957.64908
  -2954335.71708  -2302077.90308  24930920.86008  24930923.35608
 -23977118.38709 -18683456.22109  20466930.69609  20466930.44609
 -25881213.56808 -20167153.05108  20664522.80708  20664523.22708
 93 07 18 03 20 00.0000000  0  6 28 15 23 02 31 21
 -22272006.80008 -17354790.08008  21217145.96608  21217146.21208
 -14189140.56008 -11056461.91408  22583040.21708  22583041.45808
 -13371243.26508 -10419129.41008  22828169.96908  22828170.83908
  -3104038.07208  -2418729.01107  24902433.52508  24902435.54707
 -23979141.70709 -18685032.85809  20466545.67509  20466545.39609
 -25824919.53408 -20123287.58708  20675235.19708  20675235.60608
 93 07 18 03 21 00.0000000  0  6 28 15 23 02 31 21
 -22118552.36508 -17235215.26008  21246347.60708  21246347.90708
 -14375107.17308 -11201370.85808  22547651.85608  22547653.17608
 -13200816.02508 -10286329.01308  22860601.22108  22860602.13908
  -3252118.96908  -2534116.64207  24874254.53508  24874256.68707
 -23978954.58109 -18684887.05009  20466581.33509  20466581.10309
 -25766524.97408 -20077785.33608  20686347.31508  20686347.75608
 93 07 18 03 22 00.0000000  0  6 28 15 23 02 31 21
 -21963930.60908 -17114730.84708  21275771.17508  21275771.43908
 -14560842.97908 -11346099.96508  22512307.57308  22512308.70508
 -13029819.50908 -10153085.03208  22893140.84808  22893141.81508
  -3399197.04508  -2648722.85608  24846266.43008  24846268.63808
 -23977110.01409 -18683449.73609  20466932.33609  20466932.07609
 -25706565.32708 -20031063.54708  20697757.29908  20697757.75908
 93 07 18 03 23 00.0000000  0  6 28 15 23 02 31 21
 -21807697.26508 -16992990.66308  21305501.49008  21305501.78908
 -14745936.54408 -11490328.63308  22477085.31708  22477086.41108
 -12857880.23908 -10019106.44808  22925859.81108  22925860.83708
  -3544920.63308  -2762273.59608  24818536.00908  24818538.45508
 -23973178.83009 -18680386.48809  20467680.32209  20467680.08109
 -25644694.93008 -19982852.86108  20709530.82508  20709531.29808
 93 07 18 03 24 00.0000000  0  6 28 15 23 02 31 21
 -21648745.84008 -16869132.50108  21335749.00808  21335749.35208
 -14929352.20708 -11633249.84408  22442182.38108  22442183.47508
 -12683973.20008  -9883594.54608  22958953.27208  22958954.26908
  -3688185.86308  -2873908.76108  24791273.36008  24791275.61408
 -23966064.28009 -18674842.70109  20469034.20309  20469033.98509
 -25579951.65708 -19932403.57908  20721851.04408  20721851.54908
 93 07 18 03 25 00.0000000  0  6 28 15 23 02 31 21
 -21487727.01808 -16743663.37708  21366389.96608  21366390.30708
 -15111725.69008 -11775358.96108  22407477.84208  22407478.96308
 -12508696.95608  -9747015.72408  22992307.29808  22992308.22608
  -3829499.83508  -2984023.48208  24764382.27308  24764384.32108
 -23956394.43509 -18667307.77109  20470874.36009  20470874.10509
 -25512950.48208 -19880194.88708  20734600.95408  20734601.48408
 93 07 18 03 26 00.0000000  0  6 28 15 23 02 31 21
 -21324983.38808 -16616850.22308  21397359.04808  21397359.37208
 -15293341.21508 -11916877.44708  22372917.52108  22372918.56208
 -12332449.15108  -9609679.81808  23025846.20508  23025847.12408
  -3969064.73108  -3092775.23808  24737823.74408  24737826.00308
 -23944497.18409 -18658037.18309  20473138.36209  20473138.12709
 -25443920.21808 -19826405.06508  20747736.98908  20747737.50708
 93 07 18 03 27 00.0000000  0  6 28 15 23 02 31 21
 -21160554.57408 -16488723.97308  21428648.90708  21428649.22708
 -15474187.12808 -12057796.28708  22338503.64108  22338504.61708
 -12155417.35808  -9471733.04908  23059534.27108  23059535.20908
  -4106894.34508  -3200174.86908  24711595.68008  24711597.95508
 -23930360.31408 -18647021.47809  20475828.51708  20475828.30909
 -25372827.69708 -19771008.33008  20761265.46108  20761265.95208
 93 07 18 03 28 00.0000000  0  6 28 15 23 02 31 21
 -20994500.34408 -16359331.16508  21460248.01208  21460248.39508
 -15654303.12108 -12198146.34708  22304228.63008  22304229.67808
 -11977648.59908  -9333212.01608  23093362.70508  23093363.58508
  -4243085.37508  -3306297.68408  24685679.32508  24685681.42808
 -23913997.56508 -18634271.31809  20478942.34608  20478942.12209
 -25299789.52708 -19714095.50108  20775164.17708  20775164.65508
 93 07 18 03 29 00.0000000  0  6 28 15 23 02 31 21
 -20826748.15908 -16228615.25008  21492170.23308  21492170.59508
 -15833512.38808 -12337789.83908  22270126.13308  22270127.23608
 -11798837.29308  -9193878.58808  23127389.33708  23127390.25208
  -4377469.21808  -3411012.24708  24660107.05308  24660109.25208
 -23895290.84709 -18619694.66309  20482502.06909  20482501.84509
 -25224701.83408 -19655585.61208  20789452.88708  20789453.37108
 93 07 18 03 30 00.0000000  0  6 28 15 23 02 31 21
 -20657473.41908 -16096712.94008  21524382.18508  21524382.60408
 -16011834.92708 -12476742.38208  22236192.44608  22236193.45608
 -11618968.96608  -9053721.52308  23161617.13608  23161618.22808
  -4510086.83208  -3514350.58908  24634870.63008  24634872.68108
 -23874330.43109 -18603361.89809  20486490.73209  20486490.53109
 -25147590.47908 -19595498.85808  20804126.69408  20804127.17808
 93 07 18 03 31 00.0000000  0  6 28 15 23 02 31 21
 -20486627.84608 -15963586.61708  21556893.10008  21556893.52608
 -16189228.27108 -12614970.89208  22202435.64108  22202436.52108
 -11438086.64608  -8912774.34408  23196038.02508  23196039.15708
  -4640864.66208  -3616255.28708  24609984.29708  24609986.42608
 -23851056.72908 -18585226.57709  20490919.64108  20490919.44909
 -25068418.68108 -19533806.57008  20819192.61808  20819193.08208
 93 07 18 03 32 00.0000000  0  6 28 15 23 02 31 21
 -20314063.83908 -15829121.22308  21589731.04908  21589731.51008
 -16365691.27608 -12752474.42708  22168855.69908  22168856.66508
 -11256223.73108  -8771063.05208  23230645.52108  23230646.50508
  -4769729.32608  -3716669.22808  24585462.06008  24585464.24908
 -23825447.21508 -18565271.11709  20495792.90208  20495792.68909
 -24987180.90908 -19470504.40808  20834651.70308  20834652.13308
 93 07 18 03 33 00.0000000  0  6 28 15 23 02 31 21
 -20139771.99608 -15693309.47208  21622897.73908  21622898.26208
 -16541292.60408 -12889306.54108  22135439.75308  22135440.75408
 -11073473.86408  -8628660.62508  23265421.68208  23265422.69208
  -4896731.53508  -3815631.87808  24561294.10708  24561296.39108
 -23797585.24308 -18543560.50109  20501094.89408  20501094.69609
 -24903953.39308 -19405651.80508  20850489.36108  20850489.81808
 93 07 18 03 34 00.0000000  0  6 28 15 23 02 31 21
 -19963927.96508 -15556288.21808  21656359.56908  21656360.07108
 -16716059.15308 -13025488.16708  22102182.71408  22102183.67808
 -10889916.74508  -8485629.15608  23300351.54908  23300352.45008
  -5021925.97908  -3913185.87508  24537470.45208  24537472.53608
 -23767496.34809 -18520114.61109  20506820.59809  20506820.43909
 -24818799.68408 -19339298.26308  20866693.58608  20866694.01608
 93 07 18 03 35 00.0000000  0  6 28 15 23 02 31 21
 -19786588.91108 -15418102.02408  21690106.36908  21690106.82608
 -16889883.93808 -13160935.97308  22069104.91908  22069105.81708
 -10705467.76408  -8341902.74808  23335451.05308  23335452.06908
  -5145263.04008  -4009292.63808  24514000.04408  24514002.35808
 -23735049.62409 -18494831.47109  20512994.97509  20512994.83709
 -24731738.31808 -19271458.25308  20883260.78008  20883261.25908
 93 07 18 03 36 00.0000000  0  6 28 15 23 02 31 21
 -19607687.28508 -15278698.25308  21724150.25408  21724150.75908
 -17062721.32008 -13295614.38808  22036214.99608  22036215.89408
 -10520054.15708  -8197424.69708  23370734.03608  23370735.19308
  -5266706.85408  -4103924.11708  24490890.09508  24490892.12008
 -23700202.98109 -18467678.27009  20519626.16209  20519626.04109
 -24642789.09308 -19202147.19708  20900187.25408  20900187.78108
 93 07 18 03 37 00.0000000  0  6 28 15 23 02 31 21
 -19427134.82908 -15138008.09508  21758508.38808  21758508.85808
 -17234581.00708 -13429530.93908  22003511.12208  22003511.98308
 -10333737.78708  -8052243.18408  23406188.96308  23406190.06908
  -5386282.50708  -4197099.85908  24468135.69608  24468137.60508
 -23663032.62608 -18438714.36609  20526699.35908  20526699.23509
 -24551917.67308 -19131338.30708  20917479.53708  20917480.06408
 93 07 18 03 38 00.0000000  0  6 28 15 23 02 31 21
 -19244895.88808 -14996003.82708  21793187.25508  21793187.82108
 -17405459.79108 -13562683.18408  21970993.87508  21970994.75108
 -10146709.34808  -7906506.83208  23441779.27008  23441780.54808
  -5503950.40808  -4288789.10308  24445744.12608  24445746.02708
 -23623539.16708 -18407940.27709  20534214.73308  20534214.56809
 -24459091.86108 -19059006.54208  20935143.71608  20935144.22808
 93 07 18 03 39 00.0000000  0  6 28 15 23 02 31 21
 -19061109.98808 -14852794.18808  21828160.69908  21828161.26608
 -17575356.64208 -13695070.34108  21938663.54508  21938664.40408
  -9958965.70908  -7760213.25208  23477505.83808  23477507.11408
  -5619681.53508  -4378969.20908  24423721.27308  24423722.98308
 -23581719.34008 -18375353.48508  20542172.81008  20542172.64408
 -24364316.64608 -18985155.81608  20953178.94308  20953179.40308
 93 07 18 03 40 00.0000000  0  6 28 15 23 02 31 21
 -18875879.47708 -14708458.79908  21863408.89208  21863409.51708
 -17744258.35808 -13826681.98408  21906522.62408  21906523.45808
  -9770338.61008  -7613231.17008  23513400.54408  23513401.77608
  -5733453.82408  -4467622.87308  24402071.16508  24402073.02208
 -23537641.69308 -18341007.27108  20550560.54908  20550560.38508
 -24267608.39708 -18909798.74708  20971581.91708  20971582.41808
 93 07 18 03 41 00.0000000  0  7 21 28 15 23 02 09 31
 -24168969.74208 -18832937.43508  20990352.25608  20990352.74708
 -18689126.37908 -14562936.94808  21898946.88308  21898947.54208
 -17912114.11308 -13957478.56708  21874580.71108  21874581.51508
  -9580735.48408  -7465488.52308  23549480.84408  23549482.00008
  -5845209.59908  -4554705.18708  24380804.51908  24380806.26908
        -0.48317        -0.87817  25369615.94317  25369618.42317
 -23491299.11108 -18304896.14308  20559379.23208  20559379.09808
 93 07 18 03 42 00.0000000  0  7 21 28 15 23 02 09 31
 -24068525.98708 -18754669.57408  21009466.01208  21009466.56208
 -18500873.79808 -14416246.69108  21934770.15608  21934770.87608
 -18078971.67608 -14087497.36208  21842828.67208  21842829.48508
  -9390310.50908  -7317105.48008  23585717.59608  23585718.69808
  -5954904.27108  -4640181.48408  24359930.27208  24359932.20008
   -103707.65007    -80811.53707  25349881.14907  25349883.33407
 -23442684.62009 -18267014.72408  20568630.33709  20568630.18008
 93 07 18 03 43 00.0000000  0  7 21 28 15 23 02 09 31
 -23966272.77708 -18674991.78208  21028924.21208  21028924.74708
 -18311172.87408 -14268427.89308  21970869.23508  21970869.86108
 -18244835.33608 -14216741.71708  21811265.83908  21811266.59108
  -9199193.12308  -7168182.94708  23622086.11508  23622087.21808
  -6062529.61208  -4724045.33908  24339449.84108  24339451.75208
   -205724.98607   -160305.52607  25330467.84307  25330470.24807
 -23391706.29108 -18227291.39308  20578331.28408  20578331.08608
 93 07 18 03 44 00.0000000  0  7 28 21 15 23 02 09 31
 -18120170.56208 -14119595.03108  22007215.79408  22007216.48608
 -23862119.75608 -18593833.62508  21048743.87108  21048744.40308
 -18409699.26908 -14345207.08608  21779893.22308  21779894.00108
  -9007455.15008  -7018776.84008  23658572.73808  23658573.93508
  -6168121.58508  -4806324.74708  24319356.24108  24319358.11308
   -306040.10107   -238473.12707  25311378.49907  25311380.86007
 -23338418.28108 -18185768.31508  20588471.57808  20588471.42008
 93 07 18 03 45 00.0000000  0  7 28 21 15 23 02 31 09
 -17927811.25408 -13969704.74408  22043820.62208  22043821.28908
 -23756037.56608 -18511172.18608  21068930.64308  21068931.15108
 -18573505.10508 -14472847.92308  21748721.98808  21748722.67808
  -8815087.98708  -6868880.41908  23695178.94708  23695180.16108
  -6271681.54408  -4887020.73508  24299649.67108  24299651.29008
 -23282884.21008 -18142495.02008  20599039.38808  20599039.17108
   -404588.82807   -315264.30407  25292625.36807  25292627.44607
 93 07 18 03 46 00.0000000  0  8 28 21 15 01 23 31 02 09
 -17733898.16708 -13818603.70208  22080721.00008  22080721.79608
 -23648066.27408 -18427038.70208  21089476.83108  21089477.40808
 -18736189.88708 -14599615.20208  21717763.98308  21717764.72608
        -0.53118        -0.36018  22414303.53318  22414304.76418
  -8622009.63908  -6718429.81608  23731920.55208  23731921.80408
 -23225051.85809 -18097430.84008  20610044.50309  20610044.33608
  -6373204.45808  -4966129.42308  24280330.39708  24280332.04008
   -501302.60608   -390625.60507  25274221.26008  25274223.53807
 93 07 18 03 47 00.0000000  0  8 28 21 15 01 23 31 02 09
 -17538504.06608 -13666348.66408  22117903.39108  22117904.22508
 -23538352.06208 -18341547.14608  21110354.81108  21110355.39308
 -18897842.45708 -14725578.20408  21687002.52608  21687003.24508
   -136646.49208   -106477.67508  22388300.60008  22388301.83008
  -8428237.09908  -6567438.32708  23768794.42608  23768795.69808
 -23165012.24909 -18050646.76508  20621469.72509  20621469.56908
  -6472837.52408  -5043765.53008  24261370.70308  24261372.43708
   -596266.26008   -464623.23207  25256150.22708  25256152.29107
 93 07 18 03 48 00.0000000  0  8 28 21 15 01 23 31 02 09
 -17341747.16908 -13513031.72508  22155345.16008  22155345.99708
 -23426917.73808 -18254715.25108  21131560.05808  21131560.62308
 -19058406.12508 -14850692.72608  21656448.27808  21656448.87408
   -271415.71808   -211492.60908  22362654.93908  22362656.01108
  -8233721.00208  -6415867.45308  23805809.59908  23805810.88608
 -23102677.05308 -18002073.92608  20633331.84208  20633331.70808
  -6570449.65908  -5119826.91508  24242795.67608  24242797.23608
   -689417.01408   -537208.23307  25238424.17008  25238426.23907
 93 07 18 03 49 00.0000000  0  8 28 21 15 01 23 31 02 09
 -17143624.64608 -13358650.60508  22193046.72908  22193047.58908
 -23313735.37308 -18166521.19408  21153097.94908  21153098.58208
 -19217802.41408 -14974897.55408  21626116.07108  21626116.75108
   -404315.28408   -315050.61508  22337365.04208  22337366.04208
  -8038470.31808  -6263724.13508  23842964.44508  23842966.00108
 -23037907.89109 -17951604.44308  20645656.87909  20645656.75808
  -6665808.04408  -5194132.06208  24224649.50708  24224651.16808
   -780671.98608   -608315.92807  25221058.88708  25221061.11707
 93 07 18 03 50 00.0000000  0  8 28 21 15 01 23 31 02 09
 -16944213.67208 -13203265.50808  22230993.30908  22230994.21608
 -23198867.44208 -18077013.71808  21174956.59608  21174957.22808
 -19376173.10508 -15098303.22408  21595979.14408  21595979.76408
   -535448.26408   -417232.06808  22312411.20108  22312412.13608
  -7842649.16608  -6111136.30908  23880228.11808  23880229.62508
 -22970879.60909 -17899374.61508  20658411.96409  20658411.85408
  -6759026.86408  -5266770.03008  24206910.53808  24206912.36008
   -870168.96808   -678053.77407  25204028.21408  25204030.17407
 93 07 18 03 51 00.0000000  0  8 28 21 15 01 23 31 02 09
 -16743433.05908 -13046813.19808  22269200.73508  22269201.65408
 -23082150.21308 -17986065.27308  21197167.16208  21197167.82008
 -19533449.83408 -15220856.50208  21566050.37908  21566050.99708
   -664679.88208   -517931.97608  22287819.14908  22287820.13308
  -7646151.76708  -5958021.56508  23917620.42208  23917621.92508
 -22901678.61908 -17845451.81008  20671580.46508  20671580.36908
  -6850163.11908  -5337785.25508  24189567.81908  24189569.61308
   -957835.70808   -746365.49107  25187345.60208  25187347.91107
 93 07 18 03 52 00.0000000  0  8 28 21 15 01 23 02 31 09
 -16541339.83908 -12889338.09108  22307657.86508  22307658.68708
 -22963595.52008 -17893685.05408  21219727.43308  21219728.07708
 -19689558.70108 -15342499.77408  21536343.82708  21536344.45108
   -791917.98908   -617078.51708  22263606.49908  22263607.49708
  -7448948.14708  -5804356.54708  23955147.01908  23955148.73208
  -6939254.25608  -5407206.91608  24172614.31708  24172616.20908
 -22830319.04408 -17789847.01008  20685159.77408  20685159.64108
  -1043594.67307   -813190.63907  25171026.20807  25171028.48607
 93 07 18 03 53 00.0000000  0  8 28 21 15 01 23 02 31 09
 -16338108.26608 -12730975.90308  22346331.68808  22346332.53808
 -22843439.04008 -17800056.63208  21242592.43008  21242593.10708
 -19844533.85608 -15463259.57708  21506852.98308  21506853.63008
   -917289.61408   -714770.60708  22239748.94208  22239749.94508
  -7251179.65008  -5650251.31908  23992781.31108  23992782.91508
  -7026270.80808  -5475011.96008  24156055.63408  24156057.31608
 -22756744.17308 -17732515.94808  20699160.67808  20699160.60508
  -1127476.41307   -878552.93907  25155063.87207  25155066.06307
 93 07 18 03 54 00.0000000  0  8 28 21 15 01 23 02 31 09
 -16133673.84708 -12571676.49108  22385234.35408  22385235.28608
 -22721667.97708 -17705170.14308  21265764.77008  21265765.38308
 -19998322.40608 -15583094.79208  21477587.94508  21477588.66308
  -1040800.66108   -811012.95008  22216245.55408  22216246.56608
  -7052857.73208  -5495714.89308  24030520.76708  24030522.30708
  -7111089.41208  -5541104.38808  24139915.15208  24139916.86908
 -22680877.62608 -17673399.21208  20713597.57108  20713597.51408
  -1209425.70507   -942409.48308  25139469.53107  25139471.72908
 93 07 18 03 55 00.0000000  0  8 28 21 15 01 23 02 31 09
 -15927875.62308 -12411314.33908  22424396.44008  22424397.37708
 -22598142.20708 -17608916.32708  21289270.95808  21289271.55808
 -20150905.42108 -15701990.60608  21448552.39308  21448553.01508
  -1162429.19508   -905788.37808  22193100.38208  22193101.39308
  -6853965.52308  -5340734.04208  24068368.76208  24068370.31208
  -7193615.15708  -5605410.11708  24124211.10808  24124212.72708
 -22602781.82608 -17612545.37108  20728458.76708  20728458.73408
  -1289419.20507  -1004742.01508  25124247.32107  25124249.49608
 93 07 18 03 56 00.0000000  0  8 28 21 15 01 23 02 31 09
 -15720665.12408 -12249851.69108  22463827.44308  22463828.35908
 -22472734.56708 -17511196.09808  21313135.28208  21313135.83808
 -20302253.89008 -15819924.41008  21419751.66508  21419752.25608
  -1282042.90308   -998993.79008  22170338.59208  22170339.59708
  -6654474.80308  -5185286.81308  24106330.65608  24106332.34008
  -7273804.27308  -5667895.08408  24108951.48708  24108953.23808
 -22522453.56108 -17549951.91808  20743744.70708  20743744.68208
  -1367426.25407  -1065526.63708  25109402.97007  25109405.09508
 93 07 18 03 57 00.0000000  0  8 28 21 15 01 23 31 02 09
 -15512236.44808 -12087439.82608  22503490.10608  22503491.14908
 -22345595.57708 -17412126.76008  21337329.03608  21337329.62008
 -20452422.07708 -15936938.50608  21391175.54208  21391176.18808
  -1399555.61608  -1090562.06108  22147976.67908  22147977.61708
  -6454415.02808  -5029396.16808  24144400.95208  24144402.57108
 -22439833.23008 -17485572.44508  20759466.81208  20759466.81808
  -7351774.44508  -5728651.00708  24094114.15608  24094115.91408
  -1443498.73607  -1124803.77508  25094926.81007  25094928.90408
 93 07 18 03 58 00.0000000  0  8 28 21 15 01 23 31 02 09
 -15302791.64408 -11924236.20208  22543346.24908  22543347.32508
 -22217015.89708 -17311934.82908  21361796.90308  21361797.51408
 -20601495.74608 -16053099.75608  21362807.71108  21362808.34408
  -1515042.52608  -1180551.80808  22126000.23108  22126001.17208
  -6253933.00508  -4873176.51808  24182551.43908  24182553.06308
 -22354968.39608 -17419444.03308  20775616.11508  20775616.10508
  -7427715.28508  -5787825.65908  24079662.96708  24079664.72708
  -1517720.47407  -1182638.83208  25080802.69407  25080804.95608
 93 07 18 03 59 00.0000000  0  8 28 21 15 01 23 02 31 09
 -15092283.40508 -11760203.95208  22583404.78908  22583405.80608
 -22086992.25608 -17210617.76508  21386539.71208  21386540.29508
 -20749401.19208 -16168350.73108  21334662.26708  21334662.81008
  -1628573.32308  -1269017.33708  22104395.96908  22104396.85408
  -6053066.49308  -4716657.29208  24220775.25908  24220776.82208
  -7501566.95708  -5845372.40908  24065609.50908  24065611.14308
 -22267909.92908 -17351606.32308  20792182.83208  20792182.82508
  -1590015.99807  -1238972.98208  25067045.46807  25067047.53108
 93 07 18 04 00 00.0000000  0  8 28 21 15 01 23 02 31 09
 -14880471.41808 -11595155.75708  22623711.24108  22623712.28508
 -21955219.91108 -17107938.03908  21411615.16308  21411615.77808
 -20895950.87508 -16282545.24408  21306774.70708  21306775.32308
  -1740055.83008  -1355886.76208  22083181.49908  22083182.41708
  -5851620.05208  -4559686.14008  24259109.24508  24259110.96208
  -7573090.68508  -5901105.15808  24051998.98908  24052000.68308
 -22178605.24108 -17282018.28508  20809176.93808  20809176.93708
  -1660196.07708  -1293658.71508  25053690.53908  25053692.77008
 93 07 18 04 01 00.0000000  0  8 28 21 15 01 23 02 31 09
 -14667394.89808 -11429122.21308  22664258.51408  22664259.65008
 -21821705.98908 -17003901.23208  21437021.99808  21437022.64808
 -21041185.80608 -16395715.26908  21279137.32808  21279137.98108
  -1849433.26808  -1441115.86708  22062367.59808  22062368.49908
  -5649523.03408  -4402208.03008  24297567.10408  24297568.89208
  -7642298.76708  -5955033.48608  24038829.11408  24038830.82508
 -22087153.58608 -17210757.27008  20826579.65808  20826579.71508
  -1728301.60908  -1346727.90708  25040730.51808  25040732.65008
 93 07 18 04 02 00.0000000  0  8 28 21 15 01 23 02 31 09
 -14453224.38008 -11262236.23508  22705013.97608  22705015.09308
 -21686734.07908 -16898728.35708  21462706.31108  21462707.02108
 -21185248.15508 -16507971.62108  21251723.18608  21251723.83508
  -1956709.46308  -1524707.67208  22041953.59708  22041954.51108
  -5446899.76708  -4244319.90008  24336125.08708  24336126.96808
  -7709335.06908  -6007269.54408  24026072.53808  24026074.32708
 -21993656.11108 -17137902.13808  20844371.66308  20844371.70308
  -1794473.73508  -1398290.55607  25028138.30808  25028140.28207
 93 07 18 04 03 00.0000000  0  8 28 21 15 01 23 02 31 09
 -14238018.26808 -11094543.29208  22745966.41008  22745967.46408
 -21550366.97108 -16792468.31708  21488656.17308  21488656.85808
 -21328093.66608 -16619279.78208  21224540.55308  21224541.20908
  -2061937.07808  -1606703.17608  22021929.41008  22021930.31808
  -5243884.45708  -4086126.28208  24374757.76908  24374759.60508
  -7774186.87808  -6057803.40608  24013731.76308  24013733.33408
 -21898000.46808 -17063365.31508  20862574.35508  20862574.40908
  -1858667.79107  -1448311.86707  25015922.60107  25015924.59107
 93 07 18 04 04 00.0000000  0  8 28 21 15 01 23 02 31 09
 -14021735.21008 -10926011.15108  22787123.74908  22787124.87508
 -21412414.87308 -16684973.20108  21514907.56708  21514908.27008
 -21469628.11408 -16729566.32208  21197607.39708  21197607.99408
  -2165173.44208  -1687147.04608  22002284.11208  22002284.95308
  -5040512.26208  -3927654.54708  24413458.17608  24413459.99508
  -7836775.29008  -6106573.57908  24001821.49908  24001823.10108
 -21800025.82708 -16987021.46708  20881218.34408  20881218.36808
  -1920789.16407  -1496718.08207  25004101.18507  25004103.06907
 93 07 18 04 05 00.0000000  0  8 28 21 15 01 23 02 31 09
 -13804415.90508 -10756671.57008  22828478.28608  22828479.52708
 -21272737.14408 -16576133.45308  21541487.39808  21541488.12208
 -21609848.83408 -16838829.19008  21170924.32908  21170924.84708
  -2266420.10508  -1766040.51208  21983017.53408  21983018.37208
  -4836795.68708  -3768914.48108  24452224.32208  24452226.10808
  -7897065.51408  -6153552.95408  23990348.71208  23990350.19708
 -21699762.03308 -16908893.87708  20900297.91808  20900297.94808
  -1980836.45607  -1543508.14707  24992674.45507  24992676.37207
 93 07 18 04 06 00.0000000  0  8 28 21 15 01 23 02 09 31
 -13586086.22208 -10586544.65608  22870025.21308  22870026.45308
 -21131370.13108 -16465977.35908  21568388.70308  21568389.43708
 -21748752.53008 -16947065.78208  21144491.81308  21144492.34708
  -2365519.42608  -1843260.70208  21964159.51808  21964160.38808
  -4632650.73308  -3609840.58808  24491071.88408  24491073.66408
  -7954961.99608  -6198667.06208  23979331.22908  23979332.78308
  -2038806.29307  -1588679.38607  24981643.25107  24981645.06007
 -21597389.21608 -16829122.87008  20919778.84008  20919778.87608
 93 07 18 04 07 00.0000000  0  8 28 21 15 01 23 02 09 31
 -13366744.47008 -10415629.21008  22911764.65708  22911765.96708
 -20988532.70208 -16354675.56808  21595569.82208  21595570.53408
 -21886343.38208 -17054279.45008  21118309.14808  21118309.66408
  -2462337.54008  -1918703.40808  21945735.62608  21945736.46508
  -4428029.86708  -3450395.92908  24530010.05108  24530011.85208
  -8010500.24108  -6241943.65508  23968762.66508  23968764.37008
  -2094703.07607  -1632235.34607  24971006.27707  24971008.23807
 -21493029.00908 -16747803.32908  20939637.96608  20939638.04008
 93 07 18 04 08 00.0000000  0  7 28 21 15 01 23 02 31
 -13146427.88008 -10243954.02908  22953689.52208  22953690.89108
 -20844394.65508 -16242360.19908  21622998.35008  21622999.07208
 -22022636.95608 -17160482.14808  21092373.36708  21092373.68308
  -2556912.02908  -1992397.72408  21927738.62808  21927739.48308
  -4222976.34208  -3290614.02508  24569030.47108  24569032.35608
  -8063813.83208  -6283486.64208  23958617.50508  23958618.97308
 -21386640.33408 -16664903.05008  20959883.10808  20959883.20108
 93 07 18 04 09 00.0000000  0  7 31 28 21 15 01 23 02
 -21278076.82208 -16580308.09208  20980542.09408  20980542.15408
 -12925124.74508 -10071510.11908  22995802.33808  22995803.74408
 -20698868.72208 -16128963.36108  21650691.05108  21650691.74408
 -22157605.32908 -17265652.22608  21066689.64808  21066690.02808
  -2649290.02408  -2064380.48708  21910159.64608  21910160.50308
  -4017586.73308  -3130570.23707  24608114.97408  24608116.79107
  -8114907.09208  -6323299.50608  23948894.74608  23948896.25808
 93 07 18 04 10 00.0000000  0  7 31 28 21 15 01 23 02
 -21167305.00008 -16493992.45208  21001621.21808  21001621.33508
 -12702825.75108  -9898290.28408  23038104.50108  23038105.88308
 -20551858.25908 -16014409.81608  21678666.29708  21678666.94208
 -22291226.65708 -17369772.72708  21041262.32008  21041262.79608
  -2739504.07608  -2134677.13408  21892992.44908  21892993.32508
  -3811921.99008  -2970312.12307  24647251.82808  24647253.58907
  -8163728.08108  -6361341.84408  23939604.32908  23939606.00508
 93 07 18 04 11 00.0000000  0  8 31 28 21 15 01 23 02 14
 -21054398.31208 -16406013.25408  21023106.68808  21023106.80908
 -12479505.78108  -9724274.84508  23080601.06008  23080602.51708
 -20403316.22308 -15898662.81008  21706932.93908  21706933.65308
 -22423448.48808 -17472802.68008  21016101.32408  21016101.78408
  -2827556.64408  -2203289.48108  21876236.56308  21876237.42408
  -3605929.48108  -2809798.57907  24686450.88308  24686452.92207
  -8210213.12008  -6397563.92708  23930758.53708  23930760.03208
         0.37918        -0.17217  25310998.53318  25311002.41117
 93 07 18 04 12 00.0000000  0  8 31 28 21 01 23 02 14 15
 -20939451.51408 -16316444.37808  21044980.38908  21044980.54208
 -12255220.85208  -9549507.52108  23123280.99008  23123282.56308
 -20253291.07808 -15781760.15208  21735481.83708  21735482.59908
  -2913499.67208  -2270258.04908  21859882.13708  21859882.99108
  -3399578.03708  -2649005.38807  24725718.27908  24725720.34407
  -8254384.94708  -6431983.52408  23922352.84608  23922354.45008
   -220998.38507   -172206.82407  25268943.44707  25268947.44207
 -22554260.98208 -17574734.47708  20991208.52308  20991208.94708
 93 07 18 04 13 00.0000000  0  8 31 28 21 01 23 02 14 15
 -20822489.68008 -16225305.32808  21067237.48908  21067237.59608
 -12030020.20508  -9374026.63008  23166135.24708  23166136.78308
 -20101851.20608 -15663755.09708  21764299.82708  21764300.66608
  -2997280.52508  -2335541.79008  21843939.10208  21843939.89008
  -3192886.98908  -2487947.53807  24765050.45408  24765052.48407
  -8296273.51908  -6464623.94408  23914381.73008  23914383.20508
   -441781.94308   -344245.65607  25226929.44008  25226933.16307
 -22683678.43208 -17675579.21108  20966581.08608  20966581.56408
 93 07 18 04 14 00.0000000  0  8 31 21 28 01 23 02 14 15
 -20703544.56508 -16132620.87408  21089872.07608  21089872.15908
 -19948961.63208 -15544620.42008  21793393.74008  21793394.54708
 -11803922.29008  -9197846.57408  23209160.54808  23209162.09808
  -3078745.19108  -2399020.72408  21828436.89508  21828437.61308
  -2985849.37508  -2326619.63307  24804448.41808  24804450.47307
  -8335819.19408  -6495438.75408  23906856.31908  23906857.81008
   -662332.69507   -516103.13807  25184960.02007  25184963.48007
 -22811698.50208 -17775335.09208  20942219.66808  20942220.12408
 93 07 18 04 15 00.0000000  0  8 31 21 28 01 23 02 14 15
 -20582647.99708 -16038415.81008  21112877.99408  21112878.06708
 -19794631.98508 -15424363.61308  21822761.71708  21822762.50308
 -11576970.06308  -9021000.84308  23252348.21108  23252349.94208
  -3157823.90808  -2460640.48108  21813388.66008  21813389.39508
  -2778474.95808  -2165029.29307  24843910.61708  24843912.64107
  -8372971.60808  -6524388.70308  23899786.41608  23899787.90708
   -882666.41608   -687791.55407  25143031.73208  25143035.45107
 -22938323.99308 -17874004.29108  20918123.58108  20918124.08208
 93 07 18 04 16 00.0000000  0  8 31 21 28 01 23 02 14 15
 -20459738.20108 -15942641.98408  21136266.96408  21136267.06708
 -19638946.18508 -15303050.04308  21852387.80108  21852388.54108
 -11349204.02708  -8843520.95608  23295690.85708  23295692.45508
  -3234541.79708  -2520420.61408  21798789.70808  21798790.48108
  -2570750.86707  -2003166.44407  24883439.13907  24883441.36607
  -8407686.90808  -6551439.56508  23893180.36508  23893181.94808
  -1102768.55608   -859299.48707  25101147.58408  25101151.16507
 -23063513.46108 -17971554.49208  20894300.80708  20894301.29308
 93 07 18 04 17 00.0000000  0  8 31 21 28 01 23 02 15 14
 -20334934.44608 -15845392.34208  21160016.35108  21160016.46408
 -19482146.14608 -15180868.23208  21882225.90308  21882226.67708
 -11120777.90908  -8665526.72608  23339158.93708  23339160.67108
  -3309133.46008  -2578543.94608  21784595.42108  21784596.17608
  -2362881.19508  -1841190.16507  24922995.49308  24922997.83207
  -8440189.02408  -6576765.86408  23886995.44008  23886996.91208
 -23187409.80308 -18068097.05808  20870724.06708  20870724.59508
  -1322806.07008  -1030757.14707  25059275.63808  25059279.11007
 93 07 18 04 18 00.0000000  0  8 31 21 28 01 23 02 14 15
 -20208048.71908 -15746520.38008  21184162.10008  21184162.22608
 -19324063.63508 -15057687.08508  21912308.08908  21912308.84808
 -10891563.53808  -8486918.25808  23382777.02808  23382778.83108
  -3381451.27008  -2634895.44808  21770833.73208  21770834.52908
  -2154798.57108  -1679047.91507  24962592.33908  24962594.60907
  -8470412.01308  -6600316.22608  23881244.27608  23881245.81708
  -1542570.97707  -1202002.32207  25017455.59307  25017459.31007
 -23309859.95608 -18163512.72008  20847422.58708  20847423.06008
 93 07 18 04 19 00.0000000  0  8 31 21 28 01 23 02 15 14
 -20079500.63608 -15646353.09508  21208623.85708  21208624.01308
 -19165032.00908 -14933766.38908  21942570.84908  21942571.67008
 -10661989.47808  -8308029.55108  23426463.71808  23426465.53008
  -3451908.83208  -2689797.42008  21757426.06908  21757426.89308
  -1946987.96507  -1517117.67107  25002137.49307  25002139.67507
  -8498711.07808  -6622367.44508  23875859.14208  23875860.72408
 -23431274.62708 -18258121.53208  20824318.13208  20824318.58008
  -1762415.43208  -1373309.48807  24975620.52408  24975623.81907
 93 07 18 04 20 00.0000000  0  8 31 21 28 01 23 02 15 14
 -19949156.54408 -15544786.33708  21233427.57308  21233427.77508
 -19004907.31608 -14808993.96508  21973041.53008  21973042.45008
 -10431874.66908  -8128719.49608  23470253.19308  23470255.00608
  -3520369.78308  -2743143.60108  21744398.38408  21744399.14608
  -1739246.53207  -1355241.31507  25041669.44407  25041671.63707
  -8524912.54008  -6642784.18708  23870873.06408  23870874.64508
 -23551460.08708 -18351772.52408  20801447.56408  20801448.05208
  -1982196.37508  -1544567.16707  24933797.50008  24933800.66707
 93 07 18 04 21 00.0000000  0  8 31 21 28 01 23 02 15 14
 -19816115.56308 -15441118.06308  21258744.40208  21258744.60808
 -18842746.81208 -14682635.15308  22003899.73108  22003900.61008
 -10200208.20008  -7948200.30008  23514337.97708  23514339.79208
  -3585819.28208  -2794143.15208  21731943.75708  21731944.45308
  -1530500.68207  -1192582.26307  25081392.52407  25081394.72607
  -8548018.94108  -6660789.15008  23866475.97708  23866477.56708
 -23669398.42608 -18443672.47408  20779004.64008  20779005.10708
  -2200953.66608  -1715027.18707  24892169.04508  24892172.48307
 93 07 18 04 22 00.0000000  0  8 31 21 28 01 23 15 02 14
 -19681067.32308 -15335885.71308  21284443.24708  21284443.42608
 -18679218.92408 -14555210.87208  22035018.13908  22035018.93508
  -9967631.24208  -7766971.65908  23558596.03308  23558597.85908
  -3648839.07108  -2843249.44808  21719951.49408  21719952.20008
  -1321404.41907  -1029650.19107  25121182.32207  25121184.58007
 -23785709.48208 -18534304.43608  20756871.35508  20756871.80408
  -8568638.51308  -6676856.34508  23862552.26108  23862553.81008
  -2419320.60208  -1885183.06708  24850615.20408  24850618.54808
 93 07 18 04 23 00.0000000  0  8 31 21 01 28 23 02 15 14
 -19544111.60408 -15229167.03208  21310505.16408  21310505.37008
 -18514429.87008 -14426803.87308  22066376.47108  22066377.28408
  -3709455.37008  -2890482.90508  21708416.54508  21708417.21408
  -9734368.62308  -7585208.74508  23602984.50808  23602986.38508
  -1112102.65807   -866557.98107  25161011.18507  25161013.45307
  -8586863.12408  -6691057.35208  23859084.23208  23859085.82808
 -23900475.07508 -18623732.15408  20735032.20808  20735032.61308
  -2637349.23208  -2055075.33308  24809125.60008  24809128.94708
 93 07 18 04 24 00.0000000  0  8 31 21 28 01 23 15 02 14
 -19405303.60708 -15121005.04008  21336919.55308  21336919.72208
 -18348451.86308 -14297470.45508  22097961.09408  22097961.93608
  -9500534.03408  -7403000.17708  23647481.93608  23647483.85308
  -3767716.77608  -2935881.41408  21697329.72808  21697330.46708
   -902659.77407   -703355.83207  25200866.88307  25200869.08007
 -24013764.76508 -18712009.85108  20713473.88308  20713474.28608
  -8602806.26008  -6703480.62808  23856050.30608  23856051.99708
  -2855083.50908  -2224738.23608  24767691.88008  24767694.96908
 93 07 18 04 25 00.0000000  0  8 31 21 01 28 23 15 02 14
 -19264599.58908 -15011365.59108  21363694.65708  21363694.84708
 -18181301.44808 -14167223.43008  22129768.82408  22129769.61308
  -3823616.99608  -2979440.00008  21686692.26408  21686692.93808
  -9266092.19208  -7220318.39708  23692094.85508  23692096.72708
   -693084.66607   -540050.60307  25240747.62107  25240749.85807
 -24125600.57208 -18799154.61608  20692192.23008  20692192.60508
  -8616463.93408  -6714122.97708  23853451.36108  23853452.99208
  -3072447.59808  -2394112.63808  24726328.75608  24726331.84608
 93 07 18 04 26 00.0000000  0  8 31 21 01 28 23 15 02 14
 -19121961.66008 -14900219.21308  21390837.71908  21390837.90608
 -18012936.33708 -14036029.90108  22161807.65608  22161808.54108
  -3877139.24708  -3021145.63708  21676507.29908  21676507.96508
  -9030972.99908  -7037108.81808  23736836.73808  23736838.62608
   -483376.41107   -376641.63607  25280653.86707  25280655.87607
 -24235932.35408 -18885127.42608  20671196.80708  20671197.17508
  -8627786.47508  -6722945.75508  23851296.91808  23851298.32308
  -3289354.92708  -2563131.15808  24685052.66708  24685055.55808
 93 07 18 04 27 00.0000000  0  8 31 21 01 28 23 15 02 14
 -18977540.62708 -14787683.40908  21418320.19908  21418320.43308
 -17843442.91308 -13903957.16708  22194061.19208  22194062.09808
  -3928438.16008  -3061118.79508  21666745.43108  21666746.10408
  -8795300.18508  -6853467.85208  23781683.91308  23781685.91808
   -273619.20407   -213194.48507  25320569.33007  25320571.61707
 -24344800.15008 -18969959.46008  20650479.93708  20650480.26608
  -8636865.01408  -6730019.94208  23849569.26108  23849570.62208
  -3505967.37708  -2731919.89508  24643832.45308  24643835.47408
 93 07 18 04 28 00.0000000  0  8 31 21 01 28 15 23 02 14
 -18831430.48708 -14673831.45308  21446124.00708  21446124.35408
 -17672895.82708 -13771063.42608  22226515.31108  22226516.20508
  -3977560.39508  -3099395.86708  21657397.83608  21657398.42408
  -8559110.89908  -6669424.47108  23826629.28308  23826631.35608
 -24452185.17808 -19053636.11508  20630045.25108  20630045.60108
    -63737.56807    -49650.44807  25360508.63807  25360510.97407
  -8643692.03508  -6735339.73308  23848270.26608  23848271.60508
  -3722366.28608  -2900542.29408  24602652.95808  24602655.91808
 93 07 18 04 29 00.0000000  0  8 31 21 01 28 15 23 02 14
 -18683525.66508 -14558580.99308  21474269.43708  21474269.74408
 -17501283.84608 -13637339.85408  22259172.00508  22259172.96308
  -4024337.06108  -3135845.18008  21648496.50108  21648497.09108
  -8322338.41408  -6484926.59908  23871685.77208  23871687.82308
 -24557994.92508 -19136085.23708  20609910.27808  20609910.64608
    146319.92507    114030.76707  25400481.24507  25400483.62807
  -8648118.50108  -6738788.92008  23847427.90008  23847429.47408
  -3938435.68008  -3068907.84208  24561536.18708  24561538.88708
 93 07 18 04 30 00.0000000  0  7 31 21 28 01 15 02 14
 -18533709.66308 -14441841.29108  21502778.48008  21502778.77808
 -17328570.68508 -13502758.20508  22292038.26708  22292039.16808
  -8084970.09108  -6299964.44108  23916855.68208  23916857.77508
  -4068675.40608  -3170394.49108  21640059.17608  21640059.77408
 -24662182.15708 -19217270.05108  20590084.07308  20590084.45608
  -8650080.39808  -6740317.63608  23847054.45408  23847056.19908
  -4154085.07008  -3236946.10408  24520499.40508  24520502.19508
 93 07 18 04 31 00.0000000  0  8 31 21 28 01 15 12 02 14
 -18382021.45308 -14323642.72508  21531643.86308  21531644.19908
 -17154706.06108 -13367279.30108  22325123.64408  22325124.49508
  -7847056.42708  -6114577.34208  23962129.33708  23962131.47908
  -4110618.98008  -3203077.73908  21632077.46608  21632078.11808
 -24764773.45809 -19297211.27108  20570561.56809  20570561.96308
        -0.75118        -0.23917  24745843.87518  24745846.72217
  -8649686.61108  -6740010.76708  23847129.27108  23847131.11408
  -4369331.69908  -3404670.51208  24479539.19608  24479542.06408
 93 07 18 04 32 00.0000000  0  8 31 21 28 01 15 12 02 14
 -18228592.06008 -14204087.44108  21560840.49408  21560840.83208
 -16979685.10608 -13230899.40708  22358429.08408  22358429.97308
  -7608654.07408  -5928809.48908  24007496.04108  24007498.20108
  -4150114.03208  -3233853.09908  21624561.79608  21624562.41208
 -24865765.22508 -19375906.15209  20551343.44608  20551343.85909
   -105448.17108    -82166.99707  24725777.84808  24725780.74407
  -8646985.53008  -6737906.06108  23847643.48908  23847645.10608
  -4584223.98008  -3572118.87008  24438646.29208  24438649.07508
 93 07 18 04 33 00.0000000  0  8 31 21 28 01 15 12 02 14
 -18073446.67108 -14083195.00808  21590363.78708  21590364.14608
 -16803532.88908 -13093637.99908  22391949.76108  22391950.64208
  -7369746.13408  -5742647.68008  24052958.58108  24052960.93208
  -4187035.15208  -3262622.78708  21617536.01108  21617536.58608
 -24965092.65709 -19453304.13709  20532442.04209  20532442.44109
   -208572.08708   -162523.24607  24706154.11308  24706157.03307
  -8641892.71508  -6733937.66108  23848612.61708  23848614.35708
  -4798707.51908  -3739248.73308  24397831.29908  24397833.96808
 93 07 18 04 34 00.0000000  0  8 31 21 28 15 01 12 02 14
 -17916563.21108 -13960948.22208  21620217.79908  21620218.23908
 -16626254.91008 -12955499.37708  22425684.67808  22425685.67508
  -7130366.21208  -5556118.08608  24098511.35108  24098513.66908
 -25062744.85009 -19529396.73609  20513859.43609  20513859.83209
  -4221439.88008  -3289431.64408  21610988.93008  21610989.52008
   -309354.20208   -241054.68808  24686975.82708  24686978.83108
  -8634401.78808  -6728100.58708  23850038.05808  23850039.63308
  -5012666.74008  -3905970.01308  24357116.11108  24357118.78608
 93 07 18 04 35 00.0000000  0  8 31 21 28 15 01 12 02 14
 -17757941.54208 -13837346.99608  21650402.43708  21650402.81208
 -16447904.24308 -12816524.90808  22459623.77508  22459624.83208
  -6890576.77708  -5369269.39908  24144141.76908  24144144.19108
 -25158808.71208 -19604251.68909  20495579.07208  20495579.44609
  -4253571.67308  -3314469.39408  21604874.43908  21604875.00808
   -407873.79307   -317823.13708  24668227.82307  24668231.23308
  -8624624.40008  -6720481.87508  23851898.51208  23851900.13808
  -5226056.10008  -4072247.25808  24316509.19308  24316511.81608
 93 07 18 04 36 00.0000000  0  8 31 21 28 15 01 12 02 14
 -17597640.42008 -13712437.11308  21680906.83808  21680907.21108
 -16268532.24508 -12676754.60308  22493757.18108  22493758.18608
  -6650326.08108  -5182061.29108  24189860.09608  24189862.69308
 -25253285.14308 -19677869.68309  20477600.86008  20477601.18909
  -4283463.52308  -3337761.73808  21599186.22108  21599186.80208
   -504125.28107   -392824.19708  24649911.66607  24649915.02808
  -8612647.26408  -6711149.05908  23854177.69208  23854179.47508
  -5438941.59108  -4238131.89908  24275998.37608  24276000.77508
 93 07 18 04 37 00.0000000  0  8 31 21 28 15 01 12 02 14
 -17435663.10708 -13586221.11108  21711730.28808  21711730.66608
 -16088102.31108 -12536159.93208  22528091.90108  22528092.92008
  -6409493.47008  -4994399.77108  24235689.23408  24235691.80608
 -25346074.29308 -19750172.92509  20459943.65908  20459944.00309
  -4310971.28308  -3359196.35908  21593951.67408  21593952.25208
   -598002.09007   -465974.89408  24632047.48307  24632050.84708
  -8598360.75908  -6700016.75808  23856896.44708  23856898.05308
  -5651369.69208  -4403660.14308  24235574.52108  24235577.13408
 93 07 18 04 38 00.0000000  0  8 31 21 28 15 01 12 02 14
 -17272003.42508 -13458694.14108  21742873.78408  21742874.11508
 -15906678.81708 -12394791.03608  22562615.66508  22562616.85608
  -6168227.41608  -4806400.45108  24281600.91408  24281603.47208
 -25437183.53808 -19821167.11809  20442606.13108  20442606.43109
  -4335982.52408  -3378685.61008  21589192.06708  21589192.67508
   -689505.01808   -537275.82007  24614635.37008  24614638.28007
  -8581671.35408  -6687012.04008  23860072.33308  23860073.88408
  -5863361.23908  -4568848.18708  24195233.63708  24195236.30608
 93 07 18 04 39 00.0000000  0  8 31 21 28 15 01 12 02 14
 -17106558.98008 -13329776.48108  21774356.89308  21774357.36308
 -15724252.47808 -12252640.73608  22597330.34008  22597331.40608
  -5926683.73208  -4618184.84008  24327565.52508  24327567.96208
 -25526591.16308 -19890835.40809  20425592.43508  20425592.76609
  -4358379.56408  -3396137.85808  21584930.12808  21584930.71008
   -778605.58108   -606704.82107  24597680.05608  24597682.87907
  -8562560.66008  -6672120.63308  23863709.24508  23863710.66608
  -6074875.79308  -4733664.56908  24154983.73308  24154986.39908
 93 07 18 04 40 00.0000000  0  8 31 21 28 15 01 12 02 14
 -16939493.37108 -13199595.55708  21806148.46908  21806148.92508
 -15540955.13208 -12109811.67808  22632210.64508  22632211.82008
  -5684979.30008  -4429843.91608  24373560.34108  24373562.76408
 -25614397.46008 -19959255.87009  20408883.46608  20408883.73909
  -4378376.10608  -3411719.55808  21581124.93608  21581125.47208
   -865398.49208   -674335.59907  24581163.84308  24581166.69307
  -8541222.81108  -6655493.74008  23867769.70808  23867771.13108
  -6285999.30308  -4898176.17808  24114808.21008  24114810.75908
 93 07 18 04 41 00.0000000  0  8 31 21 28 15 01 12 02 14
 -16770872.89008 -13068203.05308  21838235.89108  21838236.28908
 -15356691.64908 -11966229.82208  22667274.91408  22667276.03308
  -5442930.44408  -4241234.64708  24419620.96308  24419623.46208
 -25700502.24008 -20026350.49809  20392498.29308  20392498.53109
  -4396081.13108  -3425515.68108  21577755.80908  21577756.33208
   -949778.03508   -740085.84008  24565106.81308  24565109.83208
  -8517637.41708  -6637115.53508  23872257.69908  23872259.28708
  -6496577.92408  -5062263.25508  24074736.19408  24074738.77808
 93 07 18 04 42 00.0000000  0  8 31 21 28 15 01 12 02 14
 -16600717.51508 -12935614.52408  21870615.50808  21870615.95108
 -15171505.37008 -11821928.88208  22702514.73508  22702515.80308
  -5200500.60508  -4052328.48508  24465753.70508  24465756.51608
 -25784900.79008 -20092115.58709  20376437.75108  20376438.02309
  -4411523.01308  -3437548.30108  21574817.31408  21574817.84708
  -1031735.25608   -803948.54808  24549510.81808  24549513.74808
  -8491779.42908  -6616966.47508  23877178.35308  23877180.04708
  -6706554.98608  -5225881.55908  24034778.68808  24034781.19208
 93 07 18 04 43 00.0000000  0  8 31 21 28 15 01 12 02 14
 -16428960.99708 -12801778.37808  21903299.78008  21903300.24408
 -14985401.76608 -11676913.17008  22737929.09908  22737930.20308
  -4957724.43807  -3863152.48808  24511952.58407  24511955.57908
 -25867570.76408 -20156533.74609  20360706.15308  20360706.42609
  -4424532.80908  -3447685.80408  21572341.64508  21572342.19208
  -1111241.76608   -865901.61508  24534381.08408  24534384.06708
  -8463619.67908  -6595023.86708  23882536.93108  23882538.60708
  -6915984.67108  -5389073.38108  23994925.55508  23994927.85708
 93 07 18 04 44 00.0000000  0  8 31 21 28 15 01 12 02 14
 -16255603.37008 -12666694.56008  21936288.62208  21936289.14008
 -14798394.09908 -11531192.95708  22773515.53708  22773516.73908
  -4714626.55108  -3673725.76008  24558213.01208  24558215.90508
 -25948485.95209 -20219584.50709  20345308.50209  20345308.78109
  -4434973.52008  -3455821.39108  21570354.82908  21570355.44308
  -1188267.12708   -925921.29808  24519723.62608  24519726.62308
  -8433134.67008  -6571269.33708  23888337.99508  23888339.77408
  -7124900.39308  -5551864.67808  23955170.02608  23955172.38208
 93 07 18 04 45 00.0000000  0  7 31 21 28 15 01 02 14
 -16080722.06708 -12530423.46108  21969567.37908  21969567.93008
 -14610488.60808 -11384773.14608  22809272.78008  22809274.06308
  -4471269.58307  -3484097.16908  24604522.38507  24604525.36608
 -26027637.20809 -20281260.77309  20330246.47609  20330246.82009
  -4442851.07708  -3461959.70508  21568855.72108  21568856.32808
  -8400318.73508  -6545698.48108  23894582.82908  23894584.49708
  -7333274.35808  -5714233.83608  23915517.69308  23915520.14408
 93 07 18 04 46 00.0000000  0  7 31 21 28 15 01 02 14
 -15904410.04908 -12393037.56608  22003118.58908  22003119.06508
 -14421686.02508 -11237654.35608  22845200.78008  22845202.07308
  -4227703.15807  -3294305.41908  24650871.76707  24650874.99208
 -26105053.01809 -20341584.79809  20315514.73409  20315515.09109
  -4448256.96208  -3466172.09508  21567827.01608  21567827.59708
  -8365262.67708  -6518382.13408  23901253.77108  23901255.45808
  -7541087.63508  -5876166.11608  23875972.04108  23875974.39108
 93 07 18 04 47 00.0000000  0  8 31 21 28 15 01 07 02 14
 -15726528.67008 -12254428.78808  22036968.35008  22036968.88708
 -14231879.79708 -11089753.48608  22881319.76108  22881321.13708
  -3983849.27507  -3104289.67908  24697275.76207  24697278.91408
 -26180646.36009 -20400488.70209  20301129.81309  20301130.12809
  -4451128.00008  -3468409.26208  21567280.63308  21567281.21108
         0.00317         0.49117  25380725.73417  25380727.53917
  -8327985.60708  -6489335.09708  23908347.42608  23908349.02108
  -7748201.80008  -6037553.59508  23836559.44008  23836561.81908
 93 07 18 04 48 00.0000000  0  8 31 21 28 15 01 07 02 14
 -15547027.93108 -12114558.15908  22071126.25708  22071126.83508
 -14041172.09108 -10941150.17108  22917610.32508  22917611.66508
  -3739779.23707  -2914105.48208  24743720.86207  24743724.24808
 -26254488.27009 -20458027.85109  20287078.15009  20287078.47509
  -4451559.13008  -3468745.20108  21567198.57908  21567199.16008
   -214875.39107   -167434.86207  25339836.04707  25339838.92807
  -8288528.24108  -6458589.12608  23915855.89908  23915857.45508
  -7954663.01808  -6198432.29508  23797271.10308  23797273.21108
 93 07 18 04 49 00.0000000  0  8 31 21 28 15 01 07 02 14
 -15365956.23508 -11973463.40808  22105583.12008  22105583.73708
 -13849719.46508 -10791966.38208  22954042.64108  22954043.95608
  -3495583.68107  -2723823.48407  24790189.94607  24790193.28407
 -26326622.01809 -20514235.95109  20273351.51509  20273351.89009
  -4449699.81708  -3467296.37108  21567552.36808  21567552.97708
   -429168.75007   -334416.66307  25299057.69407  25299059.50007
  -8246833.13708  -6426099.45508  23923790.17308  23923791.79708
  -8160569.83008  -6358878.98608  23758088.19108  23758090.22308
 93 07 18 04 50 00.0000000  0  8 31 28 21 15 01 07 02 14
 -15183455.03108 -11831254.74608  22140311.99308  22140312.67308
  -3251271.79507  -2533450.75507  24836681.24007  24836684.30807
 -13657490.53108 -10642177.65708  22990622.63108  22990624.02508
 -26396971.09809 -20569053.38409  20259964.53409  20259964.89209
  -4445522.72508  -3464041.46208  21568347.26208  21568347.90008
   -642920.26707   -500975.99807  25258381.54107  25258383.67907
  -8202741.01408  -6391741.96008  23932180.63108  23932182.33208
  -8365938.68408  -6518906.49608  23719007.74508  23719009.87408
 93 07 18 04 51 00.0000000  0  8 31 28 21 15 01 07 02 14
 -14999642.80608 -11688024.58408  22175290.34808  22175291.04108
  -3006888.77007  -2343022.72907  24883185.87207  24883189.18107
 -13464504.87408 -10491799.35308  23027346.61208  23027348.07508
 -26465536.79009 -20622481.23309  20246916.93509  20246917.22909
  -4438977.89508  -3458941.63308  21569592.67408  21569593.28508
   -856164.49507   -667140.17107  25217802.61107  25217804.75407
  -8156356.14908  -6355597.99008  23941007.37508  23941009.11408
  -8570797.01208  -6678536.27108  23680024.25108  23680026.47908
 93 07 18 04 52 00.0000000  0  8 31 01 28 21 15 07 02 14
 -14814443.43908 -11543713.46408  22210532.67308  22210533.39208
  -4429930.70708  -3451891.86908  21571314.33208  21571314.93108
  -2762365.19707  -2152485.14507  24929717.55807  24929720.90707
 -13270668.30608 -10340757.94308  23064232.60108  23064233.96408
 -26532256.85509 -20674470.88109  20234220.55109  20234220.80409
  -1068757.01707   -832796.57507  25177347.50307  25177349.97107
  -8107750.89808  -6317723.82808  23950256.80608  23950258.35608
  -8775032.80008  -6837680.90208  23641159.37408  23641161.62908
 93 07 18 04 53 00.0000000  0  8 01 31 28 21 15 07 02 14
  -4418447.59708  -3442943.98908  21573499.49908  21573500.05908
 -14627859.68708 -11398323.60308  22246038.38008  22246039.16108
  -2517692.75107  -1961831.55507  24976277.16007  24976280.44907
 -13075979.04308 -10189052.10608  23101280.74108  23101282.19708
 -26597107.82409 -20725004.09509  20221879.80609  20221880.05809
  -1280559.80907   -997837.65707  25137042.72307  25137044.75407
  -8057016.23708  -6278190.38508  23959911.35508  23959913.01808
  -8978586.06308  -6996293.71408  23602424.43108  23602426.55608
 93 07 18 04 54 00.0000000  0  8 01 31 28 21 15 07 02 14
  -4404570.03008  -3432130.29208  21576140.30208  21576140.83908
 -14439912.47708 -11251871.30908  22281803.59608  22281804.42608
  -2272896.72007  -1771081.56507  25022860.48507  25022864.14707
 -12880444.30708 -10036687.45908  23138489.87408  23138491.29508
 -26660095.71509 -20774085.55109  20209893.59609  20209893.86709
  -1491579.46607  -1162268.33008  25096886.83107  25096888.94008
  -8004191.95708  -6237028.66208  23969963.45608  23969965.26808
  -9181424.00208  -7154349.09508  23563825.58508  23563827.69108
 93 07 18 04 55 00.0000000  0  8 01 31 28 21 15 07 02 14
  -4388278.60808  -3419435.68508  21579240.48408  21579241.00108
 -14250577.78908 -11104337.88008  22317832.81308  22317833.66908
  -2027984.47907  -1580241.20707  25069466.21207  25069469.70107
 -12684161.97708  -9883740.27608  23175841.19108  23175842.63108
 -26721238.23809 -20821729.07109  20198258.53009  20198258.86609
  -1701846.34508  -1326112.54008  25056874.44208  25056876.41408
  -7949175.76308  -6194158.96208  23980432.77208  23980434.60208
  -9383528.08308  -7311832.66408  23525366.38608  23525368.48208
 93 07 18 04 56 00.0000000  0  7 01 31 21 15 07 02 14
  -4369521.23308  -3404819.55408  21582809.90108  21582810.41008
 -14059815.53108 -10955692.05708  22354133.76508  22354134.59508
 -12487204.10008  -9730266.70708  23213321.10508  23213322.66408
 -26780549.38009 -20867945.53909  20186972.03209  20186972.28009
  -1911377.02408  -1489383.09108  25017001.83808  25017003.88308
  -7891857.54608  -6149495.48308  23991340.03708  23991341.94208
  -9584946.94108  -7468782.28408  23487037.34308  23487039.47008
 93 07 18 04 57 00.0000000  0  7 01 31 21 15 07 02 14
  -4348279.68808  -3388267.72108  21586852.07408  21586852.57008
 -13867719.92608 -10806007.28608  22390688.52108  22390689.33908
 -12289580.42808  -9576274.34908  23250927.79208  23250929.21808
 -26838040.23708 -20912743.62509  20176031.91408  20176032.12809
  -2120195.43607  -1652098.63807  24977264.84607  24977266.94607
  -7832311.92108  -6103096.36608  24002671.46808  24002673.09808
  -9785691.78708  -7625206.72508  23448836.78808  23448838.68808
 93 07 18 04 58 00.0000000  0  7 01 31 21 15 07 02 14
  -4324586.03308  -3369805.12908  21591360.75908  21591361.30908
 -13674421.21208 -10655385.00208  22427472.05708  22427472.91408
 -12091305.60908  -9421774.57508  23288658.24408  23288659.76308
 -26893692.02908 -20956108.65109  20165441.70908  20165441.95209
  -2328274.68807  -1814238.15207  24937668.46407  24937670.76107
  -7770665.24608  -6055060.04808  24014402.44808  24014404.06308
  -9985764.96708  -7781107.75308  23410764.11508  23410765.98008
 93 07 18 04 59 00.0000000  0  7 01 31 21 15 07 02 14
  -4298504.68808  -3349482.00008  21596323.85808  21596324.44708
 -13479986.50508 -10503877.52908  22464471.84608  22464472.68108
 -11892403.67308  -9266786.14408  23326508.09708  23326509.62608
 -26947485.44009 -20998025.58609  20155205.13109  20155205.40009
  -2535564.00007  -1975762.11008  24898222.69207  24898224.79608
  -7706965.03108  -6005423.56108  24026524.15208  24026525.80408
 -10185133.72008  -7936459.90608  23372825.40608  23372827.34208
 93 07 18 05 00 00.0000000  0  8 01 31 12 21 15 07 02 14
  -4270017.90808  -3327284.50408  21601744.68008  21601745.24408
 -13284253.45208 -10351358.35808  22501718.69808  22501719.53508
         0.27218         0.37818  24350858.21718  24350861.05418
 -11692758.71208  -9111218.72708  23364499.40208  23364500.88908
 -26999349.86109 -21038439.41109  20145335.64909  20145335.91009
  -2741911.30108  -2136552.07407  24858956.09608  24858957.89307
  -7641117.37808  -5954113.75308  24039054.61408  24039056.20908
 -10383774.91608  -8091245.12808  23335025.15208  23335026.97308
 93 07 18 05 01 00.0000000  0  8 01 31 12 21 15 07 02 14
  -4239153.47008  -3303234.29508  21607617.98508  21607618.52208
 -13087162.54708 -10197781.13508  22539223.93908  22539224.76208
    -33359.70208    -25994.37808  24344510.03908  24344512.80208
 -11492361.89008  -8955065.45308  23402633.63308  23402635.12808
 -27049327.93109 -21077383.35809  20135825.13509  20135825.42709
  -2947314.37908  -2296606.31907  24819869.24508  24819870.95207
  -7573183.19708  -5901178.08908  24051982.08608  24051983.70308
 -10581783.41408  -8245537.34008  23297345.23408  23297347.11808
 93 07 18 05 02 00.0000000  0  8 01 31 12 21 15 07 02 14
  -4205913.80108  -3277333.26508  21613943.33208  21613943.86108
 -12888789.93608 -10043205.21008  22576973.10308  22576974.00308
    -64078.30908    -49930.96208  24338664.55908  24338667.13608
 -11291282.85008  -8798380.58408  23440897.76708  23440899.32508
 -27097416.98809 -21114855.35809  20126674.07609  20126674.35109
  -3151799.91208  -2455945.60407  24780956.74608  24780958.17207
  -7503156.88508  -5846612.19908  24065307.60308  24065309.37508
 -10779082.93008  -8399277.11208  23259800.31508  23259802.19408
 93 07 18 05 03 00.0000000  0  8 01 31 12 21 15 07 02 14
  -4170311.52808  -3249591.23708  21620718.21708  21620718.72008
 -12689309.57008  -9887766.08808  22614933.00708  22614933.85508
    -92145.65208    -71801.61008  24333323.48008  24333325.95808
 -11089650.01408  -8641264.19108  23479267.28908  23479268.88108
 -27143604.83509 -21150845.89409  20117884.83209  20117885.05409
  -3355459.97508  -2614641.68907  24742201.61708  24742203.11607
  -7430999.97308  -5790386.10108  24079038.62208  24079040.44108
 -10975588.89208  -8552398.51908  23222406.50608  23222408.36808
 93 07 18 05 04 00.0000000  0  8 01 31 12 21 15 07 02 14
  -4132386.02008  -3220038.90808  21627935.21208  21627935.72408
 -12488729.62308  -9731470.16908  22653102.28008  22653103.19908
   -117538.63008    -91588.34108  24328491.31808  24328494.12808
 -10887428.02908  -8483688.74008  23517749.02208  23517750.61208
 -27187866.45109 -21185335.47509  20109462.15909  20109462.39109
  -3558309.92108  -2772706.47507  24703600.32808  24703601.79707
  -7356739.05708  -5732520.52208  24093169.96508  24093171.79708
 -11171253.03008  -8704863.99208  23185172.70708  23185174.47708
 93 07 18 05 05 00.0000000  0  8 01 31 12 21 15 07 02 14
  -4092173.85108  -3188704.77808  21635587.38008  21635587.84408
 -12286955.45308  -9574243.67008  22691498.72908  22691499.69908
   -140245.12808   -109281.71208  24324170.10908  24324173.19408
 -10684516.66008  -8325576.11608  23556361.85808  23556363.48008
 -27230187.23908 -21218312.72909  20101408.77208  20101408.99909
  -3760252.16808  -2930064.00708  24665171.88608  24665173.58408
  -7280463.35908  -5673084.99608  24107684.98108  24107686.62608
 -11366134.52808  -8856719.63208  23148087.91708  23148089.59508
 93 07 18 05 06 00.0000000  0  8 01 31 12 21 15 07 02 14
  -4049601.39808  -3155531.44708  21643688.65308  21643689.15008
 -12084016.20708  -9416109.31708  22730116.78008  22730117.77808
   -160268.40208   -124884.23308  24320359.93108  24320363.05608
 -10480979.90208  -8166976.14108  23595093.67808  23595095.28908
 -27270568.00708 -21249778.25709  20093724.55308  20093724.80709
  -3961197.63308  -3086644.82808  24626933.15808  24626934.66508
  -7202212.39308  -5612110.28708  24122575.66508  24122577.58908
 -11560257.62208  -9007984.28208  23111147.55308  23111149.17908
 93 07 18 05 07 00.0000000  0  8 01 31 12 21 15 07 02 14
  -4004468.02608  -3120362.59008  21652277.19908  21652277.77508
 -11879950.36908  -9257097.11408  22768949.37008  22768950.43808
   -177556.47708   -138355.42508  24317070.17808  24317073.16208
 -10276859.45908  -8007921.35808  23633936.57908  23633938.34808
 -27308953.93408 -21279689.36809  20086419.92808  20086420.20909
  -4161095.50307  -3242409.32508  24588893.70307  24588895.49408
  -7121860.84908  -5549498.77008  24137866.13608  24137868.10408
 -11753531.88908  -9158587.50608  23074368.60508  23074370.19808
 93 07 18 05 08 00.0000000  0  8 01 31 12 21 15 07 02 14
  -3956835.89908  -3083246.64808  21661341.28108  21661341.88208
 -11674887.83008  -9097308.24008  22807971.52108  22807972.55008
   -192201.11808   -149766.80408  24314283.47308  24314286.15308
 -10072288.11208  -7848515.22608  23672865.33308  23672867.08008
 -27345433.23608 -21308114.79709  20079478.15108  20079478.44409
  -4360034.16507  -3397426.33608  24551036.93807  24551038.70708
  -7039457.83608  -5485288.70508  24153547.05408  24153548.99908
 -11945999.26008  -9308561.98808  23037743.23108  23037744.73208
 93 07 18 05 09 00.0000000  0  8 01 31 12 21 15 07 02 14
  -3906894.02708  -3044330.93308  21670844.92808  21670845.50908
 -11468755.99508  -8936686.17408  22847197.19808  22847198.26508
   -204175.43208   -159097.45308  24312004.72908  24312007.43608
  -9867168.00308  -7688681.50708  23711898.35408  23711900.11508
 -27379975.01708 -21335030.49309  20072905.06908  20072905.36209
  -4557942.91608  -3551640.81908  24513376.04708  24513377.88008
  -6955056.39908  -5419521.44908  24169607.89608  24169609.97208
 -12137667.38308  -9457913.71708  23001269.93408  23001271.44308
 93 07 18 05 10 00.0000000  0  8 01 31 12 21 15 07 02 14
  -3854788.10408  -3003728.89408  21680760.39208  21680760.97208
 -11261578.35808  -8775249.13008  22886621.90008  22886623.03508
   -213482.67908   -166349.78908  24310233.53008  24310236.29508
  -9661437.59808  -7528372.17408  23751047.49108  23751049.40308
 -27412578.92408 -21360436.10209  20066700.73808  20066701.06609
  -4754805.04808  -3705039.69508  24475914.42808  24475916.07108
  -6868734.80808  -5352257.91708  24186034.51608  24186036.61508
 -12328628.01008  -9606714.09608  22964931.22108  22964932.79308
 93 07 18 05 11 00.0000000  0  8 01 31 12 21 15 07 02 14
  -3800360.75508  -2961317.97608  21691117.56108  21691118.19808
 -11053328.93708  -8612976.98708  22926250.51508  22926251.73608
   -220034.66608   -171455.22307  24308986.57908  24308989.28907
  -9455051.59008  -7367552.00508  23790321.59708  23790323.69008
 -27443152.48909 -21384259.65309  20060882.77809  20060883.14609
  -4950507.01808  -3857534.58508  24438673.54308  24438675.01308
  -6780446.12608  -5283461.60808  24202835.42208  24202837.50108
 -12518729.04308  -9754844.66908  22928756.00508  22928757.59208
 93 07 18 05 12 00.0000000  0  8 01 31 12 21 15 07 02 14
  -3743635.98308  -2917116.89908  21701911.95208  21701912.56808
 -10844080.53008  -8449926.43208  22966069.30908  22966070.42508
   -223932.87708   -174492.81207  24308244.94408  24308247.41907
  -9248189.95308  -7206361.25808  23829686.23408  23829688.19508
 -27471791.84108 -21406576.05809  20055432.95008  20055433.26309
  -5145100.69908  -4009165.91108  24401643.41008  24401644.93008
  -6690254.75308  -5213182.72008  24219998.30908  24220000.38108
 -12707979.88508  -9902312.78508  22892742.78508  22892744.35308
 93 07 18 05 13 00.0000000  0  8 01 31 12 21 15 07 02 14
  -3684705.59108  -2871197.11908  21713126.09908  21713126.71208
 -10633783.95808  -8286059.07408  23006087.54408  23006088.66908
   -225180.09308   -175464.64508  24308007.68208  24308010.26708
  -9040902.93708  -7044839.02008  23869131.75108  23869133.57408
 -27498494.87708 -21427383.61209  20050351.54308  20050351.82509
  -5338605.45108  -4159948.69708  24364820.72608  24364822.10208
  -6598095.24008  -5141370.18808  24237535.76408  24237537.84808
 -12896389.71408 -10049125.52608  22856889.52308  22856891.01008
 93 07 18 05 14 00.0000000  0  8 01 31 12 21 15 07 02 14
  -3623515.80408  -2823516.78508  21724770.14808  21724770.69508
 -10422449.20408  -8121382.74608  23046303.25708  23046304.43808
   -223716.22208   -174323.97908  24308286.47308  24308289.04508
  -8833135.43908  -6882942.36808  23908668.71608  23908670.46208
 -27523196.66208 -21446631.76109  20045650.95208  20045651.23809
  -5531066.00108  -4309917.85308  24328196.63508  24328198.01008
  -6503913.18108  -5067981.66008  24255458.17708  24255460.33808
 -13083962.11508 -10195285.74008  22821195.65708  22821197.03608
 93 07 18 05 15 00.0000000  0  7 01 31 21 15 07 02 14
  -3559979.76008  -2774008.19408  21736860.61508  21736861.23608
 -10210255.79708  -7956037.34808  23086682.37408  23086683.68208
  -8624868.00608  -6720656.13508  23948300.86108  23948302.67908
 -27545901.28408 -21464323.66909  20041330.33708  20041330.70509
  -5722517.68708  -4459100.87308  24291764.47508  24291765.77908
  -6407846.54808  -4993124.62508  24273739.04308  24273741.17308
 -13270689.86408 -10340787.78208  22785662.37708  22785663.91908
 93 07 18 05 16 00.0000000  0  7 01 31 21 15 07 02 14
  -3494035.99108  -2722623.50708  21749409.31508  21749409.91808
  -9997222.88208  -7790037.84408  23127221.23708  23127222.61508
  -8416096.26908  -6557977.01108  23988028.82108  23988030.75508
 -27566555.45708 -21480417.88209  20037399.98808  20037400.31809
  -5912744.84708  -4607329.79408  24255565.31508  24255566.61208
  -6309923.42608  -4916821.05208  24292373.21508  24292375.42508
 -13456452.54108 -10485537.87008  22750312.85208  22750314.33208
 93 07 18 05 17 00.0000000  0  8 01 31 25 21 15 07 02 14
  -3425782.54608  -2669439.02508  21762397.54608  21762398.13708
  -9783300.63108  -7623345.31308  23167929.35808  23167930.79508
        -0.12217        -0.19617  25350213.10417  25350215.39717
  -8206887.53108  -6394957.32508  24027839.86908  24027841.92608
 -27585163.27908 -21494917.49509  20033859.05808  20033859.33909
  -6101627.16008  -4754510.73408  24219622.14508  24219623.46108
  -6210063.79008  -4839008.46308  24311376.14508  24311378.31308
 -13641207.35908 -10629502.56708  22715155.11708  22715156.42108
 93 07 18 05 18 00.0000000  0  8 01 31 25 21 15 07 02 14
  -3355343.34308  -2614551.33508  21775801.65908  21775802.31008
  -9568499.13408  -7455967.62008  23208804.77908  23208806.22308
   -192795.47807   -150230.19907  25313525.39207  25313527.70707
  -7997271.17608  -6231619.98808  24067728.70908  24067730.60908
 -27601782.65808 -21507867.65109  20030696.55008  20030696.79609
  -6289203.26608  -4900673.84808  24183927.40808  24183928.71908
  -6108304.16608  -4759715.32808  24330740.33308  24330742.50908
 -13825056.11108 -10772761.22208  22680169.69208  22680171.17108
 93 07 18 05 19 00.0000000  0  8 01 31 25 21 15 07 02 14
  -3282714.52208  -2557957.42108  21789622.43108  21789623.10008
  -9352860.62408  -7287937.69708  23249839.51608  23249841.15808
   -385460.20207   -300358.43007  25276862.42707  25276864.79507
  -7787258.34908  -6067973.66808  24107692.95708  24107694.81108
 -27616435.11109 -21519285.10309  20027908.26209  20027908.53609
  -6475578.28008  -5045901.02608  24148461.49408  24148462.62808
  -6004823.15608  -4679080.83008  24350432.21708  24350434.49608
 -14008095.45708 -10915389.13008  22645338.40708  22645339.92908
 93 07 18 05 20 00.0000000  0  8 01 31 25 21 15 07 02 14
  -3207891.38108  -2499653.68708  21803860.82608  21803861.47508
  -9136391.22008  -7119260.37108  23291032.49108  23291033.97708
   -577828.68107   -450255.84107  25240255.80507  25240258.09407
  -7576849.72408  -5904018.98408  24147732.27408  24147734.41708
 -27629091.31409 -21529147.08309  20025499.86809  20025500.12909
  -6660730.82208  -5190175.69208  24113228.15008  24113229.25708
  -5899711.22108  -4597175.52008  24370434.36108  24370436.64708
 -14190304.63608 -11057370.19608  22610665.07208  22610666.53008
 93 07 18 05 21 00.0000000  0  8 01 14 31 25 21 15 07 02
  -3130808.21208  -2439588.88808  21818529.33808  21818530.03208
 -14371604.38808 -11198642.61808  22576164.84408  22576166.22608
  -8919014.25508  -6949875.86608  23332398.01708  23332399.53908
   -769742.08507   -599798.62207  25203735.77307  25203738.13707
  -7365986.44108  -5739710.02008  24187858.27508  24187860.42208
 -27639682.87209 -21537400.24509  20023484.38709  20023484.62709
  -6844596.68108  -5333447.72508  24078239.50908  24078240.79808
  -5792804.00408  -4513871.28508  24390778.18108  24390780.37408
 93 07 18 05 22 00.0000000  0  8 01 14 31 25 21 15 07 02
  -3051468.67208  -2377765.90408  21833627.19408  21833627.85508
 -14551935.21608 -11339160.05808  22541849.06408  22541850.44008
  -8700783.99108  -6779826.45608  23373925.92908  23373927.51908
   -961321.30807   -749081.02607  25167279.44907  25167281.74007
  -7154663.57808  -5575042.97608  24228071.85908  24228073.96908
 -27648209.94309 -21544044.74009  20021861.75609  20021862.01509
  -7027188.24808  -5475726.82208  24043493.44208  24043494.83008
  -5683959.12608  -4429057.20208  24411490.75108  24411493.15708
 93 07 18 05 23 00.0000000  0  8 01 14 31 25 21 15 07 02
  -2969876.57808  -2314187.64508  21849153.65108  21849154.24308
 -14731290.55508 -11478917.33808  22507718.74008  22507720.06608
  -8481859.39508  -6609236.00108  23415586.00808  23415587.70708
  -1152735.56308   -898234.88507  25130854.56308  25130856.68107
  -6943006.13808  -5410115.16008  24268348.86908  24268351.11208
 -27654713.82909 -21549112.68709  20020624.08809  20020624.36809
  -7208521.95708  -5617025.73208  24008986.75908  24008987.88708
  -5573278.83308  -4342812.90108  24432552.49308  24432554.84908
 93 07 18 05 24 00.0000000  0  8 01 14 31 25 21 15 07 02
  -2886020.57108  -2248845.31408  21865110.94408  21865111.57308
 -14909637.01108 -11617888.50608  22473780.46208  22473781.68108
  -8262237.15208  -6438101.93008  23457378.85608  23457380.51608
  -1343904.45907  -1047197.52207  25094476.27407  25094478.33107
  -6731051.91808  -5244956.09508  24308682.51408  24308684.63508
 -27659163.24909 -21552579.77109  20019777.40809  20019777.69909
  -7388479.15708  -5757252.05208  23974741.98908  23974743.31408
  -5460902.24008  -4255246.83708  24453937.28308  24453939.65508
 93 07 18 05 25 00.0000000  0  8 01 14 31 25 21 15 07 02
  -2799984.33608  -2181804.11608  21881483.11008  21881483.75308
 -15087000.14408 -11756093.45508  22440029.25208  22440030.58808
  -8041855.26008  -6266375.94108  23499316.30408  23499317.94108
  -1534647.54508  -1195828.37407  25058178.93808  25058181.17507
  -6518692.32408  -5079481.16407  24349093.24308  24349095.38507
 -27661545.67909 -21554436.22009  20019324.04409  20019324.33909
  -7566961.16708  -5896328.86908  23940778.00108  23940779.24908
  -5346882.59308  -4166400.48308  24475634.56508  24475636.92708
 93 07 18 05 26 00.0000000  0  8 01 14 31 25 21 15 07 02
  -2711895.67008  -2113163.61308  21898245.81708  21898246.49908
 -15263425.06308 -11893567.31408  22406456.62408  22406457.90708
  -7820725.77708  -6094067.41408  23541396.06808  23541397.77208
  -1724906.30508  -1344081.84107  25021973.78308  25021975.94807
  -6305878.41808  -4913652.22607  24389590.44808  24389592.53307
 -27661881.02809 -21554697.53709  20019260.22309  20019260.53309
  -7744005.39708  -6034285.32208  23907087.47408  23907088.67908
  -5231245.07008  -4076293.44607  24497639.85108  24497642.15107
 93 07 18 05 27 00.0000000  0  8 01 14 31 25 21 15 07 02
  -2621749.13608  -2042919.61108  21915400.17008  21915400.82408
 -15438888.75808 -12030292.21108  22373067.00008  22373068.26108
  -7598882.41408  -5921202.63308  23583611.60608  23583613.22508
  -1914680.20108  -1491957.51607  24985860.99108  24985862.96807
  -6092701.41408  -4747540.36608  24430156.76408  24430158.87308
 -27660145.87309 -21553345.50609  20019590.41209  20019590.71909
  -7919683.37108  -6171177.19808  23873656.87208  23873658.11108
  -5113949.28507  -3984894.28807  24519960.45707  24519962.82907
 93 07 18 05 28 00.0000000  0  8 01 14 31 25 21 15 07 02
  -2529509.30408  -1971044.48208  21932952.83608  21932953.46108
 -15613419.86708 -12166290.44408  22339854.73408  22339856.00708
  -7376409.57708  -5747847.38308  23625946.86108  23625948.60408
  -2104040.90908  -1639511.22507  24949826.76808  24949828.73407
  -5879364.35108  -4581303.78708  24470753.55108  24470755.69208
 -27656405.74909 -21550431.16809  20020302.20509  20020302.46309
  -8094060.23208  -6307055.23508  23840474.05708  23840475.37908
  -4995027.32507  -3892227.98907  24542590.51207  24542593.19507
 93 07 18 05 29 00.0000000  0  7 01 14 31 25 21 15 07
  -2435028.87008  -1897423.39808  21950931.91108  21950932.53608
 -15786865.55408 -12301442.86108  22306849.17108  22306850.33008
  -7153257.14208  -5573962.54508  23668411.51408  23668413.34408
  -2292904.72908  -1786677.72907  24913887.10608  24913889.03207
  -5665769.35508  -4414866.20907  24511399.39208  24511401.66607
 -27650593.28409 -21545901.99309  20021408.30609  20021408.54109
  -8266986.78008  -6441803.11508  23807567.21308  23807568.53808
 93 07 18 05 30 00.0000000  0  7 01 14 31 25 21 15 07
  -2338388.18708  -1822118.94508  21969322.01208  21969322.60308
 -15959208.18708 -12435735.72508  22274053.31408  22274054.50908
  -6929561.89608  -5399654.67508  23710979.38808  23710981.22008
  -2481280.90408  -1933464.19907  24878040.09308  24878042.02907
  -5451812.90208  -4248146.91107  24552113.80208  24552116.29807
 -27642713.90809 -21539762.18509  20022907.67809  20022907.96809
  -8438406.80908  -6575377.04608  23774947.03908  23774948.28608
 93 07 18 05 31 00.0000000  0  7 01 14 31 25 21 15 07
  -2239804.48708  -1745300.52808  21988081.92508  21988082.46808
 -16130575.44008 -12569268.62608  22241443.21108  22241444.35608
  -6705451.83108  -5225023.65408  23753626.25408  23753628.03708
  -2669227.71208  -2079916.17907  24842274.97908  24842276.82107
  -5237609.49507  -4081235.24407  24592875.63307  24592877.77107
 -27632818.60108 -21532051.60409  20024790.74208  20024790.96209
  -8608366.97408  -6707813.50108  23742604.70008  23742605.78608
 93 07 18 05 32 00.0000000  0  7 01 14 31 25 21 15 07
  -2139219.43008  -1666922.55708  22007222.56808  22007223.19308
 -16300928.34408 -12702011.06808  22209026.12608  22209027.23408
  -6480706.07808  -5049897.22808  23796394.09508  23796396.00008
  -2856599.20908  -2225919.78807  24806619.20408  24806621.09907
  -5023172.39408  -3914141.42507  24633681.68808  24633683.79007
 -27620809.52009 -21522693.87309  20027075.97409  20027076.23709
  -8776712.36608  -6838991.64208  23710569.46708  23710570.64708
 93 07 18 05 33 00.0000000  0  7 01 14 31 25 21 15 07
  -2036550.83008  -1586921.06308  22026759.73408  22026760.40508
 -16470224.22808 -12833929.85608  22176809.93508  22176811.15908
  -6255236.80208  -4874207.03508  23839299.57908  23839301.49508
  -3043313.10108  -2371410.98107  24771088.51808  24771090.42807
  -4808478.60308  -3746847.56907  24674536.55808  24674538.87607
 -27606686.01909 -21511688.54509  20029763.56809  20029763.85009
  -8943436.78608  -6968906.70308  23678842.85908  23678843.97908
 93 07 18 05 34 00.0000000  0  7 01 14 31 25 21 15 07
  -1931711.33608  -1505228.05208  22046710.07608  22046710.76108
 -16638382.85608 -12964962.57308  22144810.53808  22144811.68308
  -6029148.42308  -4698034.53408  23882322.83708  23882324.82608
  -3229347.84608  -2516373.11207  24735687.33508  24735689.19707
  -4593459.18507  -3579300.10707  24715453.32607  24715455.69107
 -27590454.47408 -21499040.66709  20032852.36308  20032852.64409
  -9108605.76908  -7097609.83808  23647412.11708  23647413.15208
 93 07 18 05 35 00.0000000  0  7 01 14 31 25 21 15 07
  -1824784.17608  -1421908.19708  22067057.72108  22067058.37808
 -16805486.08908 -13095172.80608  22113011.83408  22113012.93108
  -5802652.46008  -4521544.34008  23925423.66808  23925425.66308
  -3414860.76908  -2660928.49008  24700385.28208  24700387.23308
  -4378221.54107  -3411582.49007  24756411.81207  24756413.99807
 -27572194.83908 -21484812.38009  20036327.05208  20036327.33609
  -9272345.11408  -7225198.87008  23616253.64808  23616254.64408
 93 07 18 05 36 00.0000000  0  7 01 14 31 25 21 15 07
  -1715895.98108  -1337060.28608  22087778.43308  22087779.18708
 -16971542.47908 -13224567.34908  22081412.22508  22081413.36008
  -5575678.38008  -4344681.59708  23968615.51308  23968617.54708
  -3599818.96508  -2805051.63608  24665188.86408  24665190.67208
  -4162754.15107  -3243685.89907  24797413.89307  24797416.33707
 -27551864.08908 -21468970.25509  20040195.89808  20040196.17609
  -9434583.12808  -7351618.06408  23585380.79608  23585381.77208
 93 07 18 05 37 00.0000000  0  7 01 14 31 25 21 15 07
  -1605048.63908  -1250685.74208  22108872.00108  22108872.69208
 -17136586.51408 -13353173.01408  22050005.41608  22050006.48108
  -5348131.20108  -4167372.27008  24011916.43308  24011918.56908
  -3784053.11608  -2948610.53108  24630130.21708  24630131.91508
  -3946962.62407  -3075536.66607  24838477.43607  24838480.00707
 -27529403.25808 -21451468.30909  20044470.07308  20044470.37009
  -9595132.19808  -7476721.16408  23554829.27208  23554830.36708
 93 07 18 05 38 00.0000000  0  7 01 31 25 21 15 07 14
  -1492272.05408  -1162807.86008  22130332.67808  22130333.34808
  -5120107.09908  -3989691.30108  24055308.17908  24055310.38908
  -3967526.42808  -3091576.61508  24595216.29708  24595218.07808
  -3730962.36807  -2907224.73907  24879581.08607  24879583.48307
 -27504863.89709 -21432346.70009  20049139.72809  20049140.07909
  -9754004.19408  -7600517.41908  23524596.80308  23524597.97108
 -17300600.50508 -13480976.01408  22018794.56408  22018795.54708
 93 07 18 05 39 00.0000000  0  7 01 07 31 25 21 15 14
  -1377996.21608  -1073761.76108  22152078.64708  22152079.41108
  -9911727.78108  -7723418.84808  23494582.85408  23494584.12808
  -4892138.54408  -3812053.63708  24098689.29608  24098691.50808
  -4150713.47908  -3234319.52008  24560356.81908  24560358.33608
  -3515346.57107  -2739212.43607  24920611.52807  24920613.69707
 -27478734.59109 -21411986.19909  20054111.99009  20054112.36509
 -17463952.92208 -13608263.53508  21987709.50808  21987710.62308
 93 07 18 05 40 00.0000000  0  7 01 14 31 25 21 15 07
  -1261996.47008   -983372.37508  22174152.74908  22174153.47808
 -17626332.98408 -13734793.38408  21956809.60208  21956810.76308
  -4664001.63108  -3634284.80508  24142102.49208  24142104.74608
  -4333361.96508  -3376642.89308  24525599.85708  24525601.35908
  -3299797.29807  -2571251.94407  24961629.14907  24961631.36507
 -27450738.32509 -21390170.93909  20059439.51909  20059439.87509
 -10068011.37508  -7845198.22708  23464843.16708  23464844.32608
 93 07 18 05 41 00.0000000  0  7 01 07 31 25 21 15 14
  -1143278.24808   -890864.70108  22196744.08408  22196744.83808
 -10221730.71208  -7964979.48308  23435591.25008  23435592.51208
  -4434735.29408  -3455635.89508  24185730.54008  24185732.80608
  -4514494.59308  -3517785.05308  24491131.40408  24491132.88408
  -3083203.14807  -2402477.23507  25002845.69707  25002847.81207
 -27419856.46209 -21366107.17609  20065316.18109  20065316.50109
 -17786791.36308 -13859825.82808  21926275.30708  21926276.38408
 93 07 18 05 42 00.0000000  0  7 01 07 31 25 21 15 14
  -1022526.76908   -796772.63608  22219722.36208  22219723.13908
 -10373562.07808  -8083289.56808  23406698.56508  23406699.72308
  -4205038.35808  -3276651.42108  24229440.59908  24229442.86908
  -4694836.25708  -3658310.89008  24456813.38408  24456814.89808
  -2866303.37307  -2233464.37407  25044120.37007  25044122.80107
 -27386764.17509 -21340320.96609  20071613.41609  20071613.76309
 -17946088.35308 -13983953.25808  21895962.09108  21895963.12908
 93 07 18 05 43 00.0000000  0  6 01 14 07 31 25 15
   -899913.48308   -701229.87908  22243054.93408  22243055.70908
 -18104345.05008 -14107270.13008  21865846.74008  21865847.84008
 -10523712.77608  -8200290.09608  23378125.84308  23378126.99308
  -3974976.60408  -3097382.74808  24273219.97508  24273222.27208
  -4874424.16808  -3798249.42908  24422638.80908  24422640.47008
 -27351593.61009 -21312915.38909  20078306.21109  20078306.53909
 93 07 18 05 44 00.0000000  0  6 01 07 14 31 25 15
   -775417.75808   -604220.28308  22266745.65908  22266746.48308
 -10672152.24208  -8315957.19308  23349878.78208  23349879.86608
 -18261462.83508 -14229699.52808  21835948.19808  21835949.22008
  -3744575.12608  -2917849.35308  24317064.13408  24317066.48308
  -5053097.51708  -3937475.28208  24388638.07308  24388639.63308
 -27314325.39309 -21283875.26509  20085398.11509  20085398.45009
 93 07 18 05 45 00.0000000  0  7 01 07 14 31 25 12 15
   -649073.31408   -505770.09208  22290788.18908  22290789.00408
 -10818847.16508  -8430264.87908  23321963.52408  23321964.61708
 -18417343.73208 -14351165.09108  21806285.05608  21806286.03408
  -3513974.64008  -2738160.85308  24360946.13408  24360948.47208
  -5230836.43508  -4075973.06808  24354815.66708  24354817.31008
        -0.61718        -0.81317  24568682.59518  24568685.22917
 -27274992.95809 -21253226.62809  20092882.83309  20092883.15709
 93 07 18 05 46 00.0000000  0  7 01 07 14 31 25 12 15
   -520967.79708   -405947.65408  22315165.95608  22315166.76008
 -10963780.51108  -8543199.91008  23294383.49208  23294384.62908
 -18571987.09408 -14471666.36708  21776857.34608  21776858.30808
  -3283200.65408  -2558337.18808  24404861.01608  24404863.59608
  -5407741.41208  -4213820.97608  24321151.72708  24321153.14108
     85674.21308     66758.78107  24584986.06108  24584988.50507
 -27233643.49109 -21221006.29509  20100751.39409  20100751.73509
 93 07 18 05 47 00.0000000  0  7 01 07 14 31 25 12 15
   -391092.17608   -304745.89108  22339880.53408  22339881.33908
 -11106915.09108  -8654733.29308  23267145.94808  23267147.19708
 -18725462.88608 -14591257.83408  21747651.85508  21747652.80608
  -3052151.22108  -2378298.87308  24448828.45408  24448831.10408
  -5583797.13008  -4351007.10008  24287649.20008  24287650.72808
    173759.51708    135396.65508  24601747.82808  24601750.96108
 -27190262.09209 -21187202.61109  20109006.61909  20109006.96809
 93 07 18 05 48 00.0000000  0  7 01 07 14 31 25 12 15
   -259386.68608   -202118.28108  22364943.25208  22364944.10608
 -11248227.40808  -8764846.75108  23240255.17508  23240256.31508
 -18877904.11708 -14710043.18308  21718643.21308  21718644.13408
  -2820808.53808  -2198032.07508  24492851.60308  24492854.27608
  -5758979.49508  -4487512.69008  24254312.98908  24254314.46708
    264254.64808    205912.23908  24618968.88108  24618971.78108
 -27144836.06609 -21151805.74809  20117650.92209  20117651.26309
 93 07 18 05 49 00.0000000  0  7 14 01 07 31 25 12 15
 -19029342.24308 -14828046.90908  21689825.49008  21689826.40608
   -125820.99808    -98041.17808  22390359.94308  22390360.80408
 -11387689.34308  -8873518.38008  23213716.44508  23213717.48708
  -2589257.70508  -2017603.09608  24536914.60608  24536917.28208
  -5933292.13708  -4623340.61708  24221142.41008  24221143.60008
    357163.13508    278308.38208  24636648.90808  24636651.56408
 -27097348.48409 -21114802.48409  20126687.54609  20126687.86209
 93 07 18 05 50 00.0000000  0  7 14 01 07 31 25 12 15
 -19179660.17508 -14945177.72108  21661220.86008  21661221.80408
      9544.59408      7438.47308  22416119.17408  22416120.04808
 -11525257.02508  -8980713.94508  23187538.16108  23187539.31208
  -2357564.97808  -1837063.50808  24581004.41108  24581007.02408
  -6106605.24808  -4758389.69608  24188161.96208  24188163.36008
    452514.98608    352608.47407  24654793.69208  24654796.10407
 -27047754.42709 -21076157.78109  20136125.01409  20136125.32509
 93 07 18 05 51 00.0000000  0  7 14 01 07 31 25 12 15
 -19328737.10708 -15061341.50908  21632852.33108  21632853.35908
    146577.15308    114217.06208  22442195.62008  22442196.48408
 -11660892.70108  -9086404.05108  23161727.40908  23161728.51708
  -2125730.88708  -1656413.77508  24625120.91508  24625123.70208
  -6278782.98108  -4892554.01108  24155397.54308  24155398.78308
    550297.28108    428802.44907  24673400.83508  24673403.61607
 -26996052.96509 -21035870.94109  20145963.44509  20145963.80409
 93 07 18 05 52 00.0000000  0  7 14 01 07 31 25 12 15
 -19476571.85608 -15176537.32108  21604720.29808  21604721.20708
    285199.32208    222234.33708  22468574.55308  22468575.44708
 -11794668.46208  -9190644.84308  23136270.73608  23136271.88008
  -1893699.47908  -1475610.24307  24669275.16708  24669277.99407
  -6449877.07808  -5025873.94008  24122839.40508  24122840.60008
    650459.02408    506850.54307  24692461.10608  24692464.02507
 -26942281.19209 -20993970.84609  20156195.88509  20156196.25109
 93 07 18 05 53 00.0000000  0  7 14 01 07 31 25 12 15
 -19623135.48108 -15290742.70008  21576830.20508  21576831.13608
    425582.47608    331623.75908  22495288.54408  22495289.60408
 -11926550.78508  -9293410.26908  23111174.44908  23111175.60008
  -1661373.00308  -1294576.82107  24713485.59208  24713488.49407
  -6619970.75508  -5158414.35008  24090471.41608  24090472.54508
    753030.27908    586776.16507  24711979.85208  24711982.74507
 -26886394.28909 -20950422.63609  20166830.83109  20166831.25809
 93 07 18 05 54 00.0000000  0  7 14 01 25 31 12 15 07
 -19768440.04108 -15403966.94208  21549179.51408  21549180.46908
    567819.49808    442457.79008  22522355.36208  22522356.44608
  -6789109.36108  -5290210.52808  24058285.34608  24058286.40708
  -1428941.89108  -1113461.84908  24757715.91008  24757718.90208
    857981.72108    668556.45707  24731951.43008  24731954.19407
 -26828407.19209 -20905237.87909  20177865.42109  20177865.82809
 -12056482.87608  -9394656.00008  23086449.03808  23086450.13608
 93 07 18 05 55 00.0000000  0  7 14 01 25 31 12 15 07
 -19912488.55708 -15516212.54208  21521768.10408  21521768.88208
    711762.30208    554620.92608  22549746.86708  22549747.92708
  -6957183.31908  -5421177.18608  24026301.84208  24026302.97608
  -1196560.25308   -932385.48807  24801936.90208  24801939.96307
    965257.88608    752148.19507  24752365.25008  24752368.26107
 -26768360.01009 -20858447.94209  20189292.03809  20189292.48009
 -12184417.94408  -9494345.69008  23062103.79008  23062105.00608
 93 07 18 05 56 00.0000000  0  7 14 01 25 31 12 15 07
 -20055251.98208 -15627456.72608  21494600.95308  21494601.82208
    857300.99408    668027.65008  22577442.01908  22577443.13108
  -7124019.52008  -5551179.32508  23994553.80808  23994554.91908
   -964110.87208   -751256.31307  24846170.72108  24846173.77507
   1074898.47808    837582.37907  24773229.19108  24773232.14107
 -26706198.22009 -20810010.21609  20201121.07009  20201121.50809
 -12310290.96308  -9592428.53708  23038150.91408  23038152.09008
 93 07 18 05 57 00.0000000  0  7 14 01 25 31 12 15 07
 -20196843.35508 -15737787.64208  21467657.04508  21467657.86408
   1004380.59408    782635.07008  22605430.39808  22605431.34508
  -7289733.39808  -5680306.94108  23963019.41608  23963020.52208
   -731569.07808   -570055.12607  24890422.01408  24890425.12607
   1186805.84408    924782.88507  24794524.74708  24794527.56707
 -26642005.87909 -20759990.25909  20213336.47509  20213336.92909
 -12434238.74308  -9689011.21308  23014564.42908  23014565.44608
 93 07 18 05 58 00.0000000  0  6 14 01 25 31 07 15
 -20337217.06808 -15847169.75008  21440944.79908  21440945.60908
   1153104.29008    898523.60208  22633731.62008  22633732.63408
  -7454318.13508  -5808554.70708  23931699.85708  23931700.93808
   -498941.48407   -388787.04607  24934689.58607  24934692.68907
 -12556230.09108  -9784069.40508  22991350.38408  22991351.32108
 -26575754.07508 -20708365.53909  20225943.80808  20225944.25509
 93 07 18 05 59 00.0000000  0  6 14 25 01 07 31 15
 -20476192.84208 -15955462.53408  21414498.53508  21414499.42408
  -7617602.74708  -5935789.33908  23900627.63508  23900628.86108
   1303547.65608   1015752.17208  22662360.07608  22662361.10008
 -12676134.16908  -9877501.10608  22968533.38908  22968534.28808
   -266288.23907   -207499.00707  24978962.18807  24978965.47907
 -26507372.51708 -20655081.22109  20238956.41508  20238956.85609
 93 07 18 06 00 00.0000000  0  7 14 25 01 07 31 13 15
 -20613909.72408 -16062774.34308  21388291.87708  21388292.69408
  -7779619.27708  -6062035.84308  23869796.88108  23869798.16008
   1455535.05908   1134183.90508  22691282.30608  22691283.27608
 -12794023.19108  -9969362.63008  22946099.85808  22946100.76908
    -33706.52607    -26266.65207  25023221.07607  25023224.22007
        -0.51717        -0.37017  25209740.73217  25209743.77117
 -26436984.29809 -20600233.26409  20252350.89709  20252351.35509
 93 07 18 06 01 00.0000000  0  6 14 25 01 07 31 15
 -20750505.04508 -16169212.25308  21362298.66108  21362299.50308
  -7940438.83708  -6187349.68708  23839193.95108  23839195.15008
   1609082.63808   1253831.31808  22720501.44108  22720502.37408
 -12909897.60508 -10059654.36408  22924049.62308  22924050.57208
    198890.37708    154977.48407  25067483.22308  25067486.14307
 -26364577.25009 -20543812.22709  20266129.51009  20266129.97709
 93 07 18 06 02 00.0000000  0  7 14 25 01 07 31 13 15
 -20885862.90808 -16274685.88508  21336540.87708  21336541.67008
  -8100081.35908  -6311746.34608  23808814.95308  23808816.11608
   1764221.54108   1374718.73808  22750023.47608  22750024.40508
 -13023721.02808 -10148347.91408  22902389.67708  22902390.56808
    431511.38408    336240.34307  25111749.75808  25111753.03707
        -0.14917         0.47917  25119213.94717  25119216.94417
 -26290100.64909 -20485778.53809  20280301.97409  20280302.42209
 93 07 18 06 03 00.0000000  0  7 14 25 01 07 31 13 15
 -21019826.33008 -16379072.95408  21311048.47908  21311049.25708
  -8258473.07808  -6435168.37408  23778673.90808  23778675.01108
   1920785.95208   1496716.91908  22779816.69108  22779817.71408
 -13135481.45908 -10235433.96008  22881122.41208  22881123.29908
    664018.23107    517414.36207  25155994.43707  25155997.63807
   -237259.70907   -184876.96807  25074064.97807  25074067.52007
 -26213589.98708 -20426159.89009  20294861.47208  20294861.93809
 93 07 18 06 04 00.0000000  0  7 14 25 01 31 13 15 07
 -21152313.16508 -16482309.50908  21285837.11808  21285837.91508
  -8415407.65608  -6557455.03508  23748810.23608  23748811.30908
   2078786.33308   1619833.97208  22809883.29008  22809884.27508
    896446.37207    698526.90607  25200224.31707  25200227.61607
   -474027.01107   -369371.00607  25029009.25407  25029012.46207
 -26134977.95208 -20364903.87809  20309820.91508  20309821.39309
 -13245046.59908 -10320809.45908  22860272.83208  22860273.74108
 93 07 18 06 05 00.0000000  0  7 14 25 01 31 13 15 07
 -21283530.26908 -16584556.51108  21260867.24008  21260868.08008
  -8570947.89008  -6678655.03208  23719211.74108  23719212.83708
   2238247.46908   1744089.44708  22840227.76708  22840228.66608
   1128763.68907    879553.30407  25244432.54807  25244436.30707
   -710347.72407   -553516.81607  24984039.12907  24984042.06907
 -26054338.20208 -20302067.66509  20325166.15608  20325166.62809
 -13352456.62908 -10404505.49008  22839833.25508  22839834.16508
 93 07 18 06 06 00.0000000  0  7 14 25 01 31 13 15 07
 -21413481.90008 -16685817.49708  21236138.26408  21236139.12408
  -8725125.77508  -6798793.54108  23689872.65008  23689873.62108
   2399351.84208   1869625.28308  22870884.92708  22870886.02508
   1360946.30307   1060474.64807  25288615.82607  25288619.42807
   -946166.97608   -737271.99707  24939164.21108  24939167.00507
 -25971641.99309 -20237629.09309  20340902.72809  20340903.24809
 -13457681.43808 -10486498.84208  22819809.70008  22819810.64608
 93 07 18 06 07 00.0000000  0  7 14 25 01 31 13 15 07
 -21542157.31108 -16786084.03808  21211652.13808  21211652.91108
  -8878016.48608  -6917929.08508  23660778.55608  23660779.38208
   2561997.77408   1996362.30708  22901835.46508  22901836.55608
   1592878.36507   1241200.79707  25332751.13007  25332754.33707
  -1181504.83008   -920652.00407  24894380.85008  24894383.35207
 -25886938.09608 -20171626.10809  20357021.33408  20357021.91509
 -13560743.98608 -10566807.33708  22800197.66408  22800198.47908
 93 07 18 06 08 00.0000000  0  7 14 25 01 31 13 15 07
 -21669493.22308 -16885306.77908  21187420.91608  21187421.65908
  -9029577.22408  -7036028.23908  23631937.36008  23631938.20708
   2726041.82908   2124188.82108  22933051.98508  22933053.16608
   1824631.93607   1421787.79807  25376852.47807  25376855.99007
  -1416302.18508  -1103610.78507  24849700.12508  24849702.87007
 -25800195.49608 -20104034.48609  20373527.90608  20373528.49309
 -13661646.60508 -10645432.73508  22780996.57208  22780997.35208
 93 07 18 06 09 00.0000000  0  7 14 25 13 31 15 01 07
 -21795431.32708 -16983440.31608  21163455.66508  21163456.43408
  -9179750.74808  -7153046.46008  23603360.24308  23603360.97608
  -1650504.38008  -1286105.83807  24805132.93008  24805135.59807
   2056288.85107   1602299.49207  25420935.67207  25420939.13607
 -25711388.52708 -20034834.26609  20390427.33108  20390427.94309
   2891424.75908   2253058.60708  22964523.37508  22964524.43408
 -13760400.88008 -10722384.09908  22762204.25008  22762204.96708
 93 07 18 06 10 00.0000000  0  7 14 25 13 31 15 01 07
 -21919953.29708 -17080470.42008  21139759.89308  21139760.68408
  -9328369.74308  -7268853.40208  23575078.85408  23575079.55108
  -1884089.33308  -1468119.98207  24760683.03008  24760685.66807
   2287845.37707   1782732.97407  25464999.40207  25465003.26007
 -25620522.48008 -19964029.61408  20407718.60208  20407719.20908
   3058233.13508   2383039.10008  22996266.01308  22996267.10308
 -13856926.93008 -10797599.22508  22743835.99908  22743836.65108
 93 07 18 06 11 00.0000000  0  7 14 25 13 31 15 01 07
 -22043159.71108 -17176475.38108  21116314.42808  21116315.27108
  -9475396.38508  -7383419.52208  23547100.53008  23547101.21008
  -2117109.29908  -1649693.89307  24716340.78008  24716343.29607
   2519218.36407   1963023.45007  25509028.34507  25509032.18207
 -25527679.48208 -19891684.44908  20425386.08308  20425386.65308
   3226499.64108   2514155.82308  23028286.15408  23028287.15708
 -13951167.66708 -10871033.55108  22725902.48108  22725903.26908
 93 07 18 06 12 00.0000000  0  6 14 25 13 01 15 07
 -22165058.96008 -17271461.78708  21093117.77108  21093118.59608
  -9620903.65808  -7496801.74108  23519411.40208  23519412.15708
  -2349561.48208  -1830825.41207  24672106.57808  24672109.00407
   3396115.35808   2646323.87008  23060562.92308  23060564.02908
 -25432886.55208 -19817819.86808  20443424.61808  20443425.18708
 -14043147.03508 -10942705.78308  22708399.41708  22708400.19508
 93 07 18 06 13 00.0000000  0  7 14 25 13 01 31 15 07
 -22285598.93108 -17365389.01608  21070179.77408  21070180.57908
  -9764974.78508  -7609064.88408  23491995.52008  23491996.28808
  -2581396.59008  -2011476.10407  24627989.61808  24627992.28607
   3566996.33708   2779477.83208  23093080.53108  23093081.55608
        -0.49117         0.34517  25596926.02617  25596929.93117
 -25336125.17608 -19742421.43508  20461837.71808  20461838.29908
 -14132928.52808 -11012665.38408  22691314.60908  22691315.34208
 93 07 18 06 14 00.0000000  0  6 14 25 13 01 07 15
 -22404713.24008 -17458205.39908  21047513.12108  21047513.95708
  -9907560.78408  -7720170.85608  23464862.34708  23464863.11108
  -2812542.42408  -2191589.73807  24584004.01408  24584006.63007
   3739212.83908   2913672.39608  23125852.27108  23125853.46008
 -14220446.19408 -11080861.03508  22674660.55608  22674661.41308
 -25237352.96908 -19665456.18708  20480633.51608  20480634.11008
 93 07 18 06 15 00.0000000  0  7 14 25 12 13 01 15 07
 -22522411.29708 -17549918.16708  21025115.88908  21025116.65608
 -10048551.45908  -7830033.67708  23438032.63208  23438033.37808
        -0.39317         0.25317  25248787.70017  25248790.96217
  -3042960.87008  -2371136.52607  24540156.67708  24540159.52907
   3912818.12608   3048949.17008  23158888.32908  23158889.41208
 -25136562.64108 -19586918.33508  20499813.30208  20499813.90408
 -14305671.98908 -11147270.77108  22658442.48908  22658443.38108
 93 07 18 06 16 00.0000000  0  7 14 25 13 12 01 15 07
 -22638754.26608 -17640574.90308  21002976.51108  21002977.24908
 -10187962.79308  -7938665.71508  23411503.24108  23411504.11908
  -3272650.69808  -2550115.39307  24496448.26008  24496450.92907
    152048.30207    118479.77607  25277721.63307  25277724.84307
   4087681.43808   3185206.34108  23192163.61808  23192164.83008
 -25033784.02408 -19506831.05008  20519371.42608  20519372.05508
 -14388646.04908 -11211925.79108  22642652.96508  22642653.93508
 93 07 18 06 17 00.0000000  0  7 25 13 12 01 15 07 14
 -10325791.14308  -8046064.34708  23385275.51708  23385276.18308
  -3501580.23708  -2728501.89207  24452884.03808  24452886.81607
    306012.36807    238451.69007  25307019.82207  25307023.48507
   4263674.56808   3322343.79608  23225654.06908  23225655.26008
 -24929015.86608 -19425193.57008  20539308.15508  20539308.79308
 -14469337.96608 -11274802.61108  22627297.90108  22627298.87908
 -22753749.39208 -17730181.46008  20981093.60508  20981094.35708
 93 07 18 06 18 00.0000000  0  7 07 25 12 13 01 15 14
 -14547691.77608 -11335857.54908  22612387.73608  22612388.68508
 -10461981.08708  -8152186.31608  23359359.24408  23359359.99508
    461877.43907    359904.91007  25336680.27507  25336683.70307
  -3729715.09208  -2906269.17207  24409471.40208  24409474.13207
   4440856.37608   3460407.47108  23259370.69408  23259371.88808
 -24822256.87508 -19342004.80108  20559623.77808  20559624.42008
 -22867344.50408 -17818697.11608  20959477.19808  20959477.92808
 93 07 18 06 19 00.0000000  0  7 07 25 12 13 01 15 14
 -14623699.12608 -11395084.03708  22597923.96008  22597924.91908
 -10596435.95608  -8256956.22508  23333773.43108  23333774.14908
    619627.85607    482827.28007  25366698.98207  25366702.51907
  -3957024.00408  -3083392.83007  24366215.97608  24366218.55607
   4619352.61208   3599495.41708  23293337.42508  23293338.67308
 -24713507.01508 -19257264.66708  20580318.20508  20580318.85708
 -22979426.10809 -17906033.36508  20938148.66609  20938149.41808
 93 07 18 06 20 00.0000000  0  7 07 25 12 13 01 15 14
 -14697441.92408 -11452545.96608  22583891.18808  22583892.11108
 -10729154.68108  -8360373.32108  23308517.71008  23308518.53008
    779173.33407    607148.37407  25397059.53007  25397063.01207
  -4183549.71008  -3259906.20607  24323109.23408  24323112.04107
   4799078.72408   3739541.69508  23327538.29008  23327539.45108
 -24602840.85408 -19171031.33508  20601377.36008  20601378.01808
 -23090081.83309 -17992258.57108  20917091.60409  20917092.31608
 93 07 18 06 21 00.0000000  0  7 07 25 12 13 01 15 14
 -14768856.05508 -11508193.33608  22570301.59108  22570302.57308
 -10860145.84908  -8462444.26108  23283590.85508  23283591.62108
    940504.86607    732861.22207  25427760.09507  25427763.55507
  -4409251.77608  -3435777.80407  24280159.58208  24280161.93007
   4979968.76508   3880494.94908  23361960.47908  23361961.77308
 -24490252.28308 -19083300.00908  20622802.24908  20622802.92808
 -23199284.58409 -18077351.57508  20896310.94709  20896311.68808
 93 07 18 06 22 00.0000000  0  7 07 25 13 12 01 15 14
 -14837837.84808 -11561945.39508  22557174.79608  22557175.73208
 -10989452.27708  -8563202.43608  23258984.64208  23258985.36508
  -4634100.81408  -3610984.76507  24237372.11708  24237374.62507
   1103603.59407    859951.07207  25458796.68207  25458800.05707
   5161999.59408   4022337.09208  23396599.90008  23396601.09208
 -24375744.50108 -18994073.21408  20644592.39608  20644593.08008
 -23307026.37409 -18161306.18708  20875808.44009  20875809.16708
 93 07 18 06 23 00.0000000  0  7 07 25 13 12 01 15 14
 -14904414.33308 -11613823.17608  22544505.61508  22544506.59508
 -11117149.10108  -8662706.37808  23234684.69308  23234685.35208
  -4858090.58908  -3785522.14407  24194748.12308  24194750.68507
   1268428.22907    988385.80707  25490161.94107  25490165.35607
   5345108.43208   4165019.26208  23431444.27908  23431445.56508
 -24259344.02508 -18903371.58308  20666742.68608  20666743.41208
 -23413376.76809 -18244176.59208  20855570.56209  20855571.24708
 93 07 18 06 24 00.0000000  0  7 07 25 13 12 01 15 14
 -14968635.50108 -11663865.68208  22532284.79308  22532285.80608
 -11243146.45708  -8760886.10808  23210708.11708  23210708.74408
  -5081145.32508  -3959330.95207  24152302.19408  24152304.62607
   1435004.91408   1118185.76807  25521860.66808  25521863.89407
   5529290.48208   4308537.64308  23466493.04308  23466494.39108
 -24141008.59308 -18811162.23308  20689261.22508  20689261.96608
 -23518347.40709 -18325971.89708  20835595.36909  20835596.07408
 93 07 18 06 25 00.0000000  0  7 07 25 13 12 01 15 14
 -15030483.55808 -11712058.97108  22520515.38308  22520516.45508
 -11367327.55008  -8857650.52808  23187077.11508  23187077.78408
  -5303216.33608  -4132373.20807  24110043.39108  24110045.83007
   1603332.60207   1249350.13707  25553892.24707  25553895.67807
   5714610.97808   4452943.16908  23501758.34008  23501759.67208
 -24020723.00208 -18717433.23708  20712150.83208  20712151.56808
 -23621912.00509 -18406671.54408  20815887.64209  20815888.31408
 93 07 18 06 26 00.0000000  0  7 25 13 01 12 07 15 14
 -11489655.86608  -8952971.24408  23163798.85508  23163799.40708
  -5524264.45808  -4304618.45707  24067979.38708  24067981.91407
   5901169.29208   4598313.21208  23537259.36608  23537260.74408
   1773400.60507   1381870.60607  25586255.12907  25586258.46407
 -15089860.42708 -11758326.67708  22509216.30108  22509217.43108
 -23898483.06108 -18622181.40408  20735412.36008  20735413.11408
 -23723987.44109 -18486210.83608  20796463.31209  20796463.94208
 93 07 18 06 27 00.0000000  0  7 25 13 01 07 12 15 14
 -11610252.49308  -9046942.57308  23140849.97508  23140850.56608
  -5744356.98808  -4476119.05607  24026097.13908  24026099.35007
   6088828.52808   4744541.11608  23572969.63608  23572971.14308
 -15146833.71608 -11802721.44708  22498374.71308  22498375.82808
   1945091.74007   1515655.82907  25618926.95107  25618930.29607
 -23774392.23908 -18525487.30508  20759026.08808  20759026.84808
 -23824518.36909 -18564546.59408  20777332.85609  20777333.51608
 93 07 18 06 28 00.0000000  0  7 25 13 01 12 07 15 14
 -11729062.97808  -9139522.11908  23118241.04408  23118241.71008
  -5963499.01508  -4646879.03807  23984395.94808  23984398.19607
   6277439.65508   4891510.73208  23608861.23508  23608862.65108
   2118352.38307   1650664.06107  25651897.38507  25651901.03407
 -15201464.11308 -11845290.60008  22487978.87608  22487979.99708
 -23648488.82508 -18427380.81708  20782984.74008  20782985.55408
 -23923416.21509 -18641609.84708  20758513.23409  20758513.88408
 93 07 18 06 29 00.0000000  0  7 25 13 01 07 12 15 14
 -11845919.23408  -9230578.81708  23096003.99108  23096004.52208
  -6181611.13708  -4816836.44707  23942890.49708  23942892.81507
   6466986.74108   5039209.75808  23644930.84508  23644932.33708
 -15253734.28508 -11886020.54408  22478032.00908  22478033.13308
   2293210.24008   1786916.98607  25685171.79708  25685175.34507
 -23520729.29108 -18327827.92708  20807296.58308  20807297.40708
 -24020750.01609 -18717454.28008  20739991.15809  20739991.78508
 93 07 18 06 30 00.0000000  0  7 25 13 01 07 12 15 14
 -11960783.50908  -9320083.40908  23074145.97508  23074146.51908
  -6398639.12408  -4985949.12007  23901591.41608  23901593.59407
   6657496.78408   5187659.08708  23681183.77408  23681185.28608
 -15303566.43508 -11924850.79808  22468549.43008  22468550.53708
   2469670.29707   1924418.16107  25718751.13607  25718754.38407
 -23391093.71308 -18226813.25808  20831965.46908  20831966.29908
 -24116696.06709 -18792217.42308  20721733.26709  20721733.88208
 93 07 18 06 31 00.0000000  0  7 25 13 01 07 12 15 14
 -12073774.17908  -9408128.03208  23052644.60308  23052645.03808
  -6614601.71008  -5154231.59407  23860494.92708  23860497.26907
   6848970.27008   5336859.15808  23717619.94208  23717621.39908
 -15350979.76208 -11961796.25008  22459527.07508  22459528.07008
   2647663.60207   2063114.25707  25752621.97907  25752625.26207
 -23259636.36008 -18124379.01208  20856981.02208  20856981.83008
 -24211315.03109 -18865946.46308  20703727.93709  20703728.52808
 93 07 18 06 32 00.0000000  0  7 25 13 01 07 12 15 14
 -12184909.21708  -9494726.74008  23031496.22708  23031496.61808
  -6829430.04608  -5321630.22907  23819614.35508  23819616.61907
   7041513.39908   5486892.68708  23754259.71008  23754261.19008
 -15395935.44008 -11996826.68008  22450972.31008  22450973.34908
   2827207.90207   2203018.86606  25786788.24007  25786791.36006
 -23126325.09708 -18020500.18508  20882349.36808  20882350.19108
 -24304411.06009 -18938488.83108  20686012.29409  20686012.85408
 93 07 18 06 33 00.0000000  0  7 25 13 01 07 12 15 14
 -12294179.42708  -9579872.30608  23010702.65808  23010703.08408
  -7043128.26308  -5488148.22607  23778948.94208  23778951.15407
   7235063.06708   5637710.55708  23791091.03408  23791092.49608
 -15438489.06508 -12029985.35808  22442874.60508  22442875.55308
   3008248.88308   2344089.54207  25821239.62108  25821243.05807
 -22991198.62508 -17915206.88308  20908063.12508  20908063.96808
 -24395983.20409 -19009843.72208  20668586.63109  20668587.20708
 93 07 18 06 34 00.0000000  0  7 25 13 01 07 12 15 14
 -12401498.21208  -9663497.28908  22990280.58808  22990281.00108
  -7255636.18408  -5653738.72008  23738509.97908  23738512.10208
   7429592.84508   5789292.12308  23828109.00408  23828110.46608
 -15478660.11108 -12061287.49408  22435230.29808  22435231.26908
   3190795.34307   2486333.46007  25855976.81507  25855980.50807
 -22854234.76308 -17808481.86108  20934126.54708  20934127.35808
 -24486092.54409 -19080058.76708  20651439.36309  20651439.93008
 93 07 18 06 35 00.0000000  0  7 25 13 01 07 12 15 14
 -12506865.29508  -9745601.53308  22970230.03708  22970230.33308
  -7466936.84308  -5818388.55708  23698300.55408  23698302.93008
   7625001.05108   5941558.12908  23865293.96508  23865295.24108
 -15516435.50708 -12090722.94908  22428041.99608  22428042.89808
   3374812.86207   2629723.40507  25890994.57307  25890997.88307
 -22715452.60508 -17700340.03908  20960535.95508  20960536.83508
 -24574682.10409 -19149089.64008  20634581.32609  20634581.88808
 93 07 18 06 36 00.0000000  0  6 15 25 13 01 07 14
 -22574848.36708 -17590778.29108  20987292.06508  20987292.98308
 -12610219.68608  -9826137.32208  22950562.36608  22950562.71308
  -7676988.81808  -5982065.26608  23658329.14408  23658331.23108
   7821259.80008   6094487.03508  23902640.91408  23902642.25008
 -15551722.83208 -12118219.52508  22421327.07508  22421327.96208
 -24661641.29509 -19216849.97908  20618033.53309  20618034.07208
 93 07 18 06 37 00.0000000  0  6 15 25 13 01 07 14
 -22432444.86708 -17479814.55608  21014390.58208  21014391.48608
 -12711546.86008  -9905093.48108  22931280.15508  22931280.70808
  -7885779.55908  -6144759.24108  23618597.39708  23618599.61208
   8018327.30208   6248046.09008  23940141.58908  23940142.97908
 -15584478.72808 -12143743.59108  22415093.83308  22415094.81208
 -24746991.68709 -19283356.74008  20601791.82909  20601792.42408
 93 07 18 06 38 00.0000000  0  6 15 25 13 01 07 14
 -22288289.44508 -17367485.71408  21041822.49908  21041823.41608
 -12810897.02308  -9982509.14308  22912374.59308  22912374.96808
  -8093317.98108  -6306477.41008  23579104.17908  23579106.34608
   8216213.74108   6402243.25408  23977798.28708  23977799.62108
 -15614721.13708 -12167309.11808  22409338.81408  22409339.76008
 -24830913.74709 -19348750.55108  20585821.99809  20585822.54908
 93 07 18 06 39 00.0000000  0  6 15 25 13 01 07 14
 -22142340.56708 -17253759.39408  21069595.70708  21069596.63108
 -12908215.28708 -10058341.52708  22893855.32108  22893855.80708
  -8299525.34108  -6467158.38808  23539864.17008  23539866.17208
   8414979.65008   6557125.71908  24015622.18808  24015623.53508
 -15642397.92908 -12188875.48208  22404072.16708  22404073.14108
 -24913374.36409 -19413005.58308  20570130.28509  20570130.84908
 93 07 18 06 40 00.0000000  0  6 15 25 13 01 07 14
 -21994622.40308 -17138654.40308  21097705.58708  21097706.58108
 -13003403.26008 -10132513.94208  22875741.70508  22875742.11608
  -8504387.35508  -6626791.06508  23500880.19108  23500882.28108
   8614576.89208   6712655.94808  24053604.20808  24053605.69508
 -15667541.54108 -12208467.93708  22399287.37008  22399288.28308
 -24994261.30609 -19476034.37508  20554737.97809  20554738.52708
 93 07 18 06 41 00.0000000  0  6 15 25 13 01 07 14
 -21845196.49708 -17022218.71808  21126140.46008  21126141.43108
 -13096459.47108 -10205025.26108  22858033.70508  22858034.14808
  -8707928.99108  -6785394.87908  23462147.45208  23462149.41108
   8814925.04008   6868771.30908  24091729.37308  24091730.72808
 -15690241.22808 -12226156.04108  22394967.87708  22394968.68708
 -25073552.55109 -19537819.77508  20539649.42909  20539649.91408
 93 07 18 06 42 00.0000000  0  6 15 25 13 01 07 14
 -21694051.25608 -16904443.26808  21154902.48308  21154903.44408
 -13187446.40608 -10275924.13508  22840719.41308  22840719.88908
  -8910099.26008  -6942930.08408  23423675.68408  23423677.57408
   9015996.63008   7025450.40008  24129992.04608  24129993.38008
 -15710440.81008 -12241896.00208  22391124.05908  22391124.90508
 -25151294.05409 -19598397.57108  20524855.75609  20524856.17208
 93 07 18 06 43 00.0000000  0  6 15 25 13 01 07 14
 -21541156.56708 -16785304.60208  21183997.44708  21183998.37108
 -13276401.77208 -10345239.95708  22823791.73708  22823792.17408
  -9110830.90708  -7099344.27608  23385477.53208  23385479.51408
   9217904.53208   7182781.17208  24168413.82508  24168415.28208
 -15728107.12908 -12255661.96808  22387762.26008  22387763.03408
 -25227487.21109 -19657768.84908  20510356.71409  20510357.13808
 93 07 18 06 44 00.0000000  0  6 15 25 13 01 07 14
 -21386545.95608 -16664828.87208  21213418.90808  21213419.85608
 -13363304.01208 -10412955.95908  22807254.75508  22807255.17008
  -9310118.39008  -7254633.18408  23347554.39508  23347556.40508
   9420693.93708   7340798.82208  24207003.46508  24207004.78108
 -15743300.06108 -12267500.63308  22384871.21308  22384871.94308
 -25302066.93109 -19715882.91808  20496164.63509  20496165.08408
 93 07 18 06 45 00.0000000  0  6 15 25 13 01 07 14
 -21230271.17608 -16543056.38308  21243157.05008  21243158.02208
 -13448072.16308 -10479009.02908  22791123.86708  22791124.19808
  -9507974.52008  -7408806.74708  23309903.64408  23309905.48608
   9624236.53708   7499403.38308  24245736.34908  24245737.69608
 -15756112.91608 -12277484.69308  22382432.98608  22382433.68308
 -25374993.97009 -19772709.17908  20482287.00309  20482287.49008
 93 07 18 06 46 00.0000000  0  6 15 25 13 01 07 14
 -21072370.04408 -16420016.60408  21273204.62608  21273205.64508
 -13530627.08708 -10543337.52308  22775414.18308  22775414.53708
  -9704399.11608  -7561864.83608  23272525.22408  23272527.06308
   9828375.07508   7658472.31608  24284582.60408  24284583.95108
 -15766522.00908 -12285595.69708  22380452.16108  22380453.09108
 -25446360.75309 -19828319.65608  20468706.31509  20468706.79708
 93 07 18 06 47 00.0000000  0  6 15 25 13 01 07 14
 -20912836.65808 -16295704.93808  21303562.85808  21303563.90208
 -13610995.48508 -10605962.21808  22760120.58708  22760120.92708
  -9899346.68508  -7713771.98908  23235427.91708  23235429.94308
  10033090.48508   7817990.74808  24323538.69208  24323540.23308
 -15774433.34408 -12291760.39508  22378946.71108  22378947.58908
 -25516288.46109 -19882808.77308  20455399.47909  20455399.97608
 93 07 18 06 48 00.0000000  0  6 15 25 13 01 07 14
 -20751613.41008 -16170076.50608  21334242.69208  21334243.69608
 -13689272.30208 -10666957.11208  22745225.00408  22745225.27508
 -10092721.11208  -7864453.31208  23198629.87408  23198631.94908
  10238537.97308   7978079.62708  24362634.12108  24362635.58708
 -15779785.68308 -12295931.08308  22377928.22408  22377929.02908
 -25584723.47409 -19936134.75708  20442376.69509  20442377.23808
 93 07 18 06 49 00.0000000  0  6 15 25 13 01 07 14
 -20588699.21208 -16043130.45008  21365244.28408  21365245.35108
 -13765476.98408 -10726337.36308  22730723.75908  22730723.87508
 -10284481.58808  -8013877.00508  23162139.09408  23162140.85708
  10444725.25208   8138744.96508  24401870.28808  24401871.89308
 -15782597.29508 -12298121.99208  22377393.22608  22377394.14508
 -25651492.10309 -19988162.24908  20429671.07609  20429671.56508
 93 07 18 06 50 00.0000000  0  6 15 25 13 01 07 14
 -20424162.64908 -15914920.21808  21396554.58108  21396555.67208
 -13839490.36208 -10784010.10008  22716639.39808  22716639.68208
 -10474658.75308  -8162066.94508  23125949.48608  23125951.44408
  10651517.40408   8299881.64708  24441221.61008  24441223.20408
 -15782901.95008 -12298359.41508  22377335.33808  22377336.23008
 -25716548.21509 -20038855.31308  20417291.31609  20417291.76108
 93 07 18 06 51 00.0000000  0  6 15 25 13 01 07 14
 -20258547.78408 -15785869.74008  21428070.14508  21428071.19008
 -13911661.98808 -10840247.70608  22702905.60408  22702905.87208
 -10663756.40408  -8309415.69808  23089965.36808  23089967.23208
  10858355.73208   8461054.33208  24480581.59808  24480583.35008
 -15781177.74208 -12297015.91208  22377663.42108  22377664.28208
 -25780416.74409 -20088622.98208  20405137.53209  20405137.98108
 93 07 18 06 52 00.0000000  0  6 25 13 15 01 07 14
 -13981680.46608 -10894807.53008  22689581.46608  22689581.65208
 -10851430.70008  -8455655.35208  23054252.03208  23054253.89208
 -20091550.75508 -15655742.25508  21459848.62708  21459849.70708
  11065581.24908   8622528.70408  24520015.30108  24520017.03708
 -15777173.87208 -12293896.04908  22378425.30108  22378426.31308
 -25842876.19109 -20137292.66908  20393251.86609  20393252.33308
 93 07 18 06 53 00.0000000  0  7 29 25 13 15 01 07 14
         0.34618         0.12218  21964322.07418  21964322.67018
 -14048754.35508 -10947072.87508  22676817.68208  22676817.91508
 -11036717.81908  -8600034.87808  23018992.94108  23018994.90508
 -19922248.04908 -15523818.14608  21492065.89108  21492066.99508
  11274095.24908   8785007.07908  24559694.27308  24559695.99408
 -15769966.88108 -12288280.26008  22379796.84908  22379797.84508
 -25903055.28809 -20184185.46708  20381800.14809  20381800.59708
 93 07 18 06 54 00.0000000  0  7 29 25 13 15 01 07 14
   -167469.29708   -130495.61308  21932453.58608  21932454.19108
 -14113527.76808 -10997545.62908  22664491.71808  22664491.95908
 -11220162.00208  -8742978.33308  22984084.72708  22984086.55708
 -19751221.73308 -15390550.95308  21524611.16208  21524612.30408
  11483279.61308   8948007.82108  24599500.82608  24599502.41208
 -15760084.88908 -12280580.04208  22381677.31508  22381678.38208
 -25961515.86009 -20229739.14008  20370675.45209  20370675.91708
 93 07 18 06 55 00.0000000  0  7 29 25 13 15 01 07 14
   -333526.51208   -259890.75208  21900853.88708  21900854.46408
 -14176076.11608 -11046284.56308  22652589.16408  22652589.39308
 -11401833.82708  -8884540.72908  22949513.55608  22949515.50308
 -19578582.23408 -15256026.72908  21557463.45008  21557464.57008
  11693034.87108   9111453.45008  24639415.92608  24639417.48308
 -15747626.15808 -12270871.97508  22384048.15808  22384049.23008
 -26018313.35609 -20273996.90908  20359867.22609  20359867.69608
 93 07 18 06 56 00.0000000  0  7 29 25 13 15 01 07 14
   -498114.52308   -388141.08308  21869533.76708  21869534.36608
 -14236389.80108 -11093282.22208  22641111.74408  22641111.96208
 -11581799.07608  -9024773.34108  22915267.31508  22915269.26408
 -19404436.92808 -15120329.17408  21590602.25908  21590603.41308
  11903303.16408   9275298.83008  24679428.65708  24679430.38208
 -15732726.78608 -12259262.13608  22386883.38008  22386884.45508
 -26073497.87909 -20316997.83308  20349365.90509  20349366.40908
 93 07 18 06 57 00.0000000  0  7 29 25 13 15 01 07 14
   -661190.62508   -515213.26508  21838501.35908  21838501.83308
 -14294390.82808 -11138477.78108  22630074.43308  22630074.61608
 -11760050.36608  -9163670.36708  22881347.19308  22881349.13108
 -19228816.50208 -14983482.15108  21624021.72508  21624022.95908
  12114075.03708   9439536.61308  24719537.27408  24719539.08308
 -15715427.83608 -12245782.46408  22390175.37208  22390176.43408
 -26127067.19209 -20358740.12508  20339172.06409  20339172.53608
 93 07 18 06 58 00.0000000  0  7 29 25 13 15 01 07 14
   -822905.70308   -641224.97308  21807727.85208  21807728.35008
 -14350130.52908 -11181911.32708  22619467.51308  22619467.73608
 -11936565.28408  -9301214.44708  22847757.55908  22847759.38208
 -19051738.46908 -14845499.38708  21657718.66508  21657719.93308
  12325327.52008   9604148.86608  24759737.38608  24759739.04408
 -15695802.43108 -12230490.03108  22393909.97508  22393911.05108
 -26179023.31509 -20399225.43808  20329285.10709  20329285.59908
 93 07 18 06 59 00.0000000  0  7 29 25 13 15 01 07 14
   -983449.48008   -766323.89508  21777177.41508  21777177.90208
 -14403716.00408 -11223666.18208  22609270.58908  22609270.80408
 -12111379.39508  -9437433.14808  22814491.47208  22814493.41608
 -18873279.01508 -14706440.11008  21691678.44108  21691679.68108
  12536978.03008   9769071.38307  24800013.18808  24800014.71907
 -15673890.25508 -12213415.62208  22398079.78908  22398080.81908
 -26229474.04609 -20438537.64208  20319684.66609  20319685.12908
 93 07 18 07 00 00.0000000  0  7 29 25 13 15 01 07 14
  -1142592.34308   -890331.19008  21746893.43708  21746893.90208
 -14454991.39308 -11263620.96008  22599513.23808  22599513.43908
 -12284324.98808  -9572195.84008  22781581.01908  22781582.76508
 -18693310.42608 -14566204.88708  21725925.40308  21725926.63508
  12749075.09508   9934341.87007  24840373.76908  24840375.40207
 -15649468.39508 -12194385.61208  22402727.18308  22402728.07808
 -26278340.03809 -20476614.98708  20310385.73709  20310386.20008
 93 07 18 07 01 00.0000000  0  7 29 25 13 15 01 07 14
  -1300122.99308  -1013082.32508  21716916.35208  21716916.75308
 -14503831.89508 -11301678.53508  22590219.17508  22590219.43008
 -12455324.86908  -9705442.51708  22749040.68908  22749042.58008
 -18511795.12108 -14424764.53808  21760466.71708  21760467.93808
  12961617.05608  10099958.91008  24880819.14508  24880820.97908
 -15622442.64008 -12173326.71408  22407870.12608  22407871.08908
 -26325602.94309 -20513443.27508  20301391.90509  20301392.36508
 93 07 18 07 02 00.0000000  0  7 29 25 13 15 01 07 14
  -1456025.09308  -1134564.41708  21687249.08508  21687249.48708
 -14550301.02308 -11337888.23008  22581376.34708  22581376.66308
 -12624420.28708  -9837205.12808  22716862.91908  22716864.73008
 -18328815.83708 -14282183.37008  21795286.53208  21795287.81608
  13174548.65408  10265879.62908  24921338.85608  24921340.57408
 -15592952.15108 -12150347.18208  22413481.94208  22413482.86808
 -26371257.70909 -20549018.41109  20292704.07109  20292704.54109
 93 07 18 07 03 00.0000000  0  7 29 25 13 15 01 07 14
  -1610284.58508  -1254766.53008  21657894.45208  21657894.83608
 -14594404.94608 -11372254.88508  22572983.66508  22572983.94908
 -12791591.68808  -9967468.48208  22685051.23708  22685053.02508
 -18144391.87708 -14138476.45708  21830381.31308  21830382.62208
  13387865.75307  10432100.78007  24961931.59407  24961933.28007
 -15561044.93208 -12125484.45908  22419553.68308  22419554.65308
 -26415168.45109 -20583234.55409  20284348.22909  20284348.65709
 93 07 18 07 04 00.0000000  0  7 29 25 13 15 01 07 14
  -1763020.06108  -1373781.12308  21628829.79108  21628830.20408
 -14636211.17808 -11404831.15908  22565028.26408  22565028.50508
 -12956864.11708 -10096252.15308  22653600.86108  22653602.66208
 -17958588.26608 -13993694.51508  21865738.65408  21865740.04208
  13601527.99407  10598590.83707  25002590.10007  25002591.74107
 -15526720.84308 -12098738.48608  22426085.37708  22426086.48808
 -26457344.29709 -20616098.84909  20276322.34809  20276322.81809
 93 07 18 07 05 00.0000000  0  7 29 25 13 15 01 07 14
  -1914381.17908  -1491724.78108  21600026.69508  21600027.05908
 -14675769.68608 -11435655.95608  22557500.45708  22557500.69908
 -13120248.47708 -10223564.58708  22622509.84308  22622511.65808
 -17771455.25008 -13847876.67108  21901348.98308  21901350.35608
  13815524.12108  10765341.11707  25043312.37108  25043313.77307
 -15489980.68708 -12070109.84708  22433076.87408  22433078.02908
 -26497859.85709 -20647669.40209  20268612.47709  20268612.99609
 93 07 18 07 06 00.0000000  0  7 29 25 13 15 01 07 14
  -2064376.42208  -1608604.05808  21571483.50308  21571483.86008
 -14713044.86408 -11464701.48308  22550407.27708  22550407.47508
 -13281664.21508 -10349342.98408  22591793.44708  22591795.25008
 -17582953.33708 -13700992.10308  21937219.77708  21937221.14208
  14029918.12008  10932401.50907  25084110.21608  25084111.65107
 -15450760.95108 -12039549.00708  22440540.23508  22440541.29908
 -26536755.22609 -20677977.42409  20261210.89009  20261211.39309
 93 07 18 07 07 00.0000000  0  7 29 25 13 15 01 07 14
  -2212809.64408  -1724266.29908  21543237.54408  21543237.86108
 -14747965.52408 -11491912.43808  22543762.03408  22543762.30108
 -13441085.02808 -10473567.00708  22561456.62108  22561458.36308
 -17393095.44208 -13553051.04708  21973348.57708  21973349.95808
  14244654.42508  11099728.49508  25124973.08308  25124974.74108
 -15409073.19308 -12007065.14608  22448473.12008  22448474.22408
 -26574065.68809 -20707050.57109  20254110.84309  20254111.36109
 93 07 18 07 08 00.0000000  0  7 29 25 13 15 01 07 14
  -2359489.77508  -1838562.43308  21515325.22108  21515325.53408
 -14780419.79608 -11517201.44808  22537586.11408  22537586.47308
 -13598437.67008 -10596179.39908  22531513.40508  22531515.11308
 -17201848.58308 -13404027.59608  22009741.69508  22009743.10708
  14459765.41807  11267347.51308  25165907.23007  25165908.78808
 -15364916.14408 -11972657.08608  22456875.97508  22456877.13008
 -26609706.30409 -20734822.45609  20247328.70809  20247329.24709
 93 07 18 07 09 00.0000000  0  7 29 25 13 15 01 07 14
  -2504564.14208  -1951607.31208  21487718.42108  21487718.71108
 -14810446.66908 -11540598.98908  22531872.20508  22531872.55408
 -13753742.61608 -10717196.19508  22501959.81408  22501961.33008
 -17009273.69708 -13253969.32408  22046387.53108  22046388.94408
  14675192.57507  11435212.84507  25206901.59707  25206903.30207
 -15318400.52308 -11936411.18208  22465727.48208  22465728.75808
 -26643712.66309 -20761320.89509  20240857.58309  20240858.07809
 93 07 18 07 10 00.0000000  0  7 29 25 13 15 01 07 14
  -2648143.72708  -2063487.45408  21460396.05508  21460396.38508
 -14837998.16108 -11562067.68108  22526629.33008  22526629.66708
 -13906932.23908 -10836564.70808  22472808.69008  22472810.36708
 -16815341.71908 -13102853.59808  22083291.64408  22083293.10708
  14890934.21207  11603323.23907  25247955.89607  25247957.32507
 -15269517.86108 -11898320.85408  22475029.65108  22475030.91508
 -26676035.12909 -20786507.23709  20234706.84609  20234707.32609
 93 07 18 07 11 00.0000000  0  7 29 25 13 15 01 07 14
  -2790294.57808  -2174254.29508  21433345.61908  21433345.91108
 -14863165.90408 -11581678.91008  22521840.08108  22521840.37708
 -14058049.12408 -10954318.10608  22444052.10208  22444053.74608
 -16620135.27708 -12950744.78408  22120438.30008  22120439.78408
  15106893.28608  11771603.11107  25289051.52008  25289052.85407
 -15218350.59508 -11858450.32108  22484766.53108  22484767.79208
 -26706701.84609 -20810403.38709  20228871.18509  20228871.65909
 93 07 18 07 12 00.0000000  0  7 29 25 13 15 07 01 14
  -2930812.97608  -2283749.09608  21406605.81808  21406606.06508
 -14885964.74908 -11599444.24908  22517501.60908  22517501.82208
 -14207019.37608 -11070398.81308  22415703.95508  22415705.66708
 -16423619.95008 -12797616.05608  22157833.93508  22157835.48408
 -15164879.56908 -11816784.65008  22494941.77708  22494942.95308
  15323090.20508  11940068.35607  25330192.45808  25330193.76407
 -26735587.89509 -20832912.00409  20223374.26509  20223374.75709
 93 07 18 07 13 00.0000000  0  7 29 25 13 15 07 01 14
  -3069595.31108  -2391891.09108  21380196.34908  21380196.58708
 -14906419.10808 -11615382.68608  22513609.30608  22513609.50508
 -14353795.23908 -11184769.57108  22387773.40008  22387775.22308
 -16225787.72708 -12643461.14408  22195480.20708  22195481.79708
 -15109053.05808 -11773283.51108  22505565.27208  22505566.43308
  15539525.30307  12108719.19907  25371378.47107  25371379.99307
 -26762704.67509 -20854041.95109  20218214.13509  20218214.61609
 93 07 18 07 14 00.0000000  0  6 29 25 13 15 07 14
  -3206527.40508  -2498591.32808  21354138.95608  21354139.16208
 -14924461.39308 -11629441.58408  22510175.97308  22510176.16108
 -14498320.41008 -11297386.54308  22360271.17208  22360272.94608
 -16026622.00408 -12488267.13208  22233380.27208  22233381.86308
 -15050775.63108 -11727872.56808  22516655.15208  22516656.32608
 -26788123.44509 -20873848.76609  20213377.13109  20213377.54909
 93 07 18 07 15 00.0000000  0  7 29 25 13 15 20 07 14
  -3341695.96108  -2603917.39808  21328417.18608  21328417.34208
 -14939963.40308 -11641521.06708  22507226.05108  22507226.16408
 -14640591.30508 -11408246.94408  22333197.93308  22333199.63808
 -15826157.43108 -12332061.04908  22271527.47808  22271529.09008
        -0.94117        -0.93217  25155672.56517  25155674.68917
 -14990007.95708 -11680521.19208  22528218.94508  22528220.09408
 -26811904.49109 -20892379.45309  20208851.77409  20208852.18609
 93 07 18 07 16 00.0000000  0  7 29 25 13 15 20 07 14
  -3475353.06008  -2708065.71008  21302983.02408  21302983.14908
 -14952991.62908 -11651672.92308  22504746.83208  22504746.95508
 -14780742.77408 -11517455.85008  22306528.03508  22306529.71808
 -15624568.32508 -12174978.70908  22309888.66008  22309890.35608
    -75624.22507    -58928.14807  25141281.95407  25141283.62507
 -14926900.67808 -11631346.74108  22540227.93308  22540229.07108
 -26834140.05509 -20909705.85709  20204620.50009  20204620.89509
 93 07 18 07 17 00.0000000  0  7 29 25 13 15 20 07 14
  -3607506.14308  -2811042.07308  21277835.19108  21277835.24108
 -14963557.12508 -11659905.76508  22502736.23608  22502736.39808
 -14918692.15908 -11624948.84408  22280277.09908  22280278.73208
 -15421812.05508 -12016986.89408  22348471.96808  22348473.67008
   -149189.96707   -116252.03207  25127282.73407  25127284.71307
 -14861472.10908 -11580363.50008  22552678.53508  22552679.84108
 -26854721.29709 -20925743.18509  20200704.03709  20200704.44809
 93 07 18 07 18 00.0000000  0  7 29 25 13 15 20 07 14
  -3737980.03308  -2912710.00808  21253006.73308  21253006.79008
 -14971651.51708 -11666213.11908  22501195.93308  22501196.02308
 -15054338.65008 -11730647.41408  22254464.31508  22254465.96608
 -15217824.90408 -11858035.99108  22387289.46908  22387291.21308
   -220605.12607   -171900.23507  25113693.06207  25113694.72507
 -14793739.62608 -11527585.04508  22565567.59508  22565568.97708
 -26873545.67509 -20940411.55509  20197121.82409  20197122.27809
 93 07 18 07 19 00.0000000  0  7 29 25 13 15 20 07 14
  -3866676.03208  -3012992.54608  21228516.68508  21228516.76008
 -14977394.13308 -11670687.87508  22500103.12608  22500103.26008
 -15187694.27408 -11834560.84608  22229087.55208  22229089.25308
 -15012658.10608 -11698165.84808  22426331.52708  22426333.21408
   -289890.73308   -225888.98307  25100508.45208  25100510.24207
 -14723779.31908 -11473070.59008  22578880.65308  22578882.10008
 -26890627.01309 -20953721.68309  20193871.38809  20193871.83109
 93 07 18 07 20 00.0000000  0  7 29 25 13 15 20 07 14
  -3993584.74508  -3111882.36808  21204366.63608  21204366.82608
 -14980816.03308 -11673354.24908  22499451.94508  22499452.12508
 -15318711.72208 -11936652.30108  22204155.68308  22204157.37408
 -14806303.14108 -11537369.83508  22465599.65008  22465601.31708
   -357008.76908   -278188.67907  25087736.34208  25087737.99807
 -14651524.58108 -11416768.23808  22592630.37908  22592631.74308
 -26905959.67209 -20965669.17509  20190953.64509  20190954.14409
 93 07 18 07 21 00.0000000  0  7 29 25 13 15 20 07 14
  -4118798.63408  -3209451.63508  21180539.23608  21180539.35608
 -14981869.47408 -11674175.16308  22499251.49408  22499251.66708
 -15447371.47208 -12036906.68308  22179672.58208  22179674.25108
 -14598779.51908 -11375663.27108  22505090.15908  22505091.88208
   -421950.35508   -328792.57607  25075378.37208  25075379.87407
 -14576940.76308 -11358651.11908  22606823.23108  22606824.71208
 -26919560.64409 -20976267.38609  20188365.45909  20188365.94809
 93 07 18 07 22 00.0000000  0  7 29 25 13 15 20 07 14
  -4242425.61208  -3305784.28408  21157013.74508  21157013.88008
 -14980475.87208 -11673089.22708  22499516.72808  22499516.88108
 -15573710.77108 -12135352.85508  22155631.01308  22155632.72708
 -14390161.38608 -11213103.78308  22544788.99308  22544790.68608
   -484761.34107   -377736.20807  25063425.71707  25063427.49907
 -14500136.35808 -11298803.61108  22621438.66608  22621440.20108
 -26931507.83909 -20985576.87609  20186091.98509  20186092.45609
 93 07 18 07 23 00.0000000  0  7 29 25 13 15 20 07 14
  -4364355.76108  -3400794.70508  21133811.21508  21133811.33508
 -14976504.83708 -11669994.87708  22500272.38908  22500272.53608
 -15697676.26908 -12231949.30108  22132041.19908  22132042.87708
 -14180432.86408 -11049679.03208  22584699.07708  22584700.83008
   -545397.45207   -424985.07107  25051886.84107  25051888.82707
 -14421097.93108 -11237215.29508  22636479.18408  22636480.72808
 -26941823.62109 -20993615.11509  20184129.03809  20184129.45409
 93 07 18 07 24 00.0000000  0  7 29 25 13 15 20 07 14
  -4484439.79608  -3494366.59808  21110959.81908  21110959.97908
 -14969924.23708 -11664867.11208  22501524.58908  22501524.71508
 -15819166.44508 -12326616.93908  22108922.34108  22108924.00508
 -13969530.91108 -10885339.92708  22624832.41708  22624834.27808
   -603767.79707   -470468.45007  25040779.32407  25040781.11907
 -14339718.77708 -11173803.04308  22651965.28508  22651966.84508
 -26950404.98409 -21000301.86209  20182496.00609  20182496.42509
 93 07 18 07 25 00.0000000  0  7 29 25 13 15 20 07 14
  -4602832.60508  -3586620.73508  21088430.51808  21088430.62908
 -14960994.09508 -11657908.61008  22503223.98608  22503224.10208
 -15938285.74708 -12419437.21208  22086254.72808  22086256.39908
 -13757596.77908 -10720196.58408  22665162.30708  22665164.10108
   -659985.01807   -514274.14907  25030081.53107  25030083.40607
 -14256174.04808 -11108703.39708  22667863.54308  22667864.98808
 -26957272.76209 -21005653.42009  20181189.11009  20181189.53209
 93 07 18 07 26 00.0000000  0  7 29 25 13 15 20 07 14
  -4719506.98608  -3677535.78608  21066228.00708  21066228.15108
 -14949796.95908 -11649183.56208  22505354.73308  22505354.85308
 -16054998.25108 -12510382.00308  22064045.06108  22064046.80408
 -13544632.13308 -10554250.19108  22705688.14908  22705690.04908
   -714023.48607   -556381.99407  25019798.42307  25019800.37107
 -14170452.91708 -11041907.80308  22684175.80308  22684177.26608
 -26962392.88409 -21009643.11909  20180214.77209  20180215.20709
 93 07 18 07 27 00.0000000  0  7 29 25 13 15 20 07 14
  -4834399.50908  -3767062.33008  21044364.63608  21044364.76308
 -14936247.19708 -11638625.24808  22507933.06308  22507933.25508
 -16169231.59608 -12599394.92808  22042307.12908  22042308.85708
 -13330601.95308 -10387473.45708  22746416.76008  22746418.69808
   -765822.05507   -596744.40907  25009941.42307  25009943.39307
 -14082448.53008 -10973333.00208  22700922.42308  22700923.96308
 -26965784.01609 -21012285.50209  20179569.48709  20179569.93009
 93 07 18 07 28 00.0000000  0  7 29 25 13 15 20 07 14
  -4947467.87108  -3855167.60308  21022848.49308  21022848.59108
 -14920167.75108 -11626095.89708  22510992.97308  22510993.05508
 -16280950.10608 -12686448.39108  22021047.84008  22021049.54508
 -13115506.28408 -10219866.61208  22787348.18808  22787350.09908
   -815354.47607   -635341.24107  25000515.67107  25000517.81007
 -13992191.09008 -10903002.72608  22718098.04708  22718099.64908
 -26967426.18409 -21013565.19909  20179257.03909  20179257.46209
 93 07 18 07 29 00.0000000  0  7 29 25 13 15 20 07 14
  -5058762.70508  -3941890.81708  21001669.77308  21001669.81808
 -14901569.87408 -11611604.04208  22514532.09408  22514532.14108
 -16390199.23808 -12771577.57408  22000258.37608  22000260.16908
 -12899427.55708 -10051493.64708  22828466.76408  22828468.56508
   -862675.45907   -672214.73407  24991510.93207  24991512.94907
 -13899853.91708 -10831051.79008  22735669.32508  22735670.86108
 -26967362.36809 -21013515.46809  20179269.14809  20179269.58209
 93 07 18 07 30 00.0000000  0  7 25 13 15 20 07 14 29
 -14880584.58008 -11595251.81608  22518525.43808  22518525.43808
 -16496986.96708 -12854788.73108  21979937.35608  21979939.04908
 -12682409.64808  -9882388.79408  22869763.86908  22869765.78908
   -907802.83207   -707378.90407  24982923.78707  24982925.45107
 -13805488.49108 -10757520.34508  22753626.59608  22753628.14908
 -26965666.63409 -21012194.06309  20179591.84809  20179592.26909
  -5168275.47808  -4027225.36308  20980830.14908  20980830.14908
 93 07 18 07 31 00.0000000  0  7 25 13 15 20 07 14 29
 -14857163.05308 -11577001.24708  22522982.40908  22522982.52208
 -16601208.45908 -12936000.25008  21960104.59808  21960106.31608
 -12464383.29508  -9712498.17008  22911252.86308  22911254.91608
   -950641.03407   -740759.32307  24974771.78407  24974773.64107
 -13708926.92408 -10682277.63608  22772001.69208  22772003.36408
 -26962312.37609 -21009580.32309  20180230.05109  20180230.51009
  -5275960.57908  -4111135.76808  20960338.30208  20960338.38108
 93 07 18 07 32 00.0000000  0  7 25 13 15 20 07 14 29
 -14831277.86108 -11556830.96108  22527908.18408  22527908.35408
 -16702873.18408 -13015219.51208  21940758.44908  21940760.15308
 -12245393.86008  -9541857.11808  22952925.22208  22952927.21608
   -991210.15308   -772371.60107  24967051.75708  24967053.73407
 -13610181.63008 -10605333.34908  22790792.28108  22790793.91408
 -26957275.08509 -21005655.15909  20181188.61709  20181189.11509
  -5381936.96708  -4193714.73408  20940171.60008  20940171.65108
 93 07 18 07 33 00.0000000  0  7 25 13 15 20 07 14 29
 -14802879.39708 -11534702.31508  22533312.14408  22533312.30208
 -16801938.18708 -13092413.05108  21921907.00508  21921908.73808
 -12025434.34308  -9370460.18608  22994782.25208  22994784.17608
  -1029478.44207   -802191.03807  24959769.50407  24959771.50107
 -13509295.05008 -10526720.56408  22809990.51208  22809992.17808
 -26950412.03009 -21000307.35209  20182494.66509  20182495.12909
  -5486188.72608  -4274949.86208  20920333.16708  20920333.18108
 93 07 18 07 34 00.0000000  0  7 13 25 15 07 20 14 29
 -16898445.13408 -13167613.27108  21903542.34508  21903544.03208
 -14772081.02808 -11510703.58308  22539173.00808  22539173.10208
 -11804580.29808  -9198366.20408  23036809.40308  23036811.38308
 -13406409.04908 -10446549.75308  22829569.14408  22829570.86408
  -1065496.47807   -830257.06508  24952915.43607  24952917.54708
 -26941778.32109 -20993579.78609  20184137.55909  20184138.04709
  -5588684.15708  -4354816.39808  20900828.89608  20900828.88908
 93 07 18 07 35 00.0000000  0  7 13 25 15 20 07 14 29
 -16992325.88908 -13240767.10808  21885677.43708  21885679.14008
 -14738867.15608 -11484822.64308  22545493.35008  22545493.55208
 -11582797.21508  -9025548.28608  23079013.36108  23079015.32408
  -1099205.22407   -856523.53807  24946500.97107  24946502.87007
 -13301525.69008 -10364822.57308  22849527.80008  22849529.65308
 -26931363.73309 -20985464.52109  20186119.39009  20186119.92009
  -5689265.83808  -4433191.68808  20881688.77508  20881688.78808
 93 07 18 07 36 00.0000000  0  7 13 25 15 20 07 14 29
 -17083604.08708 -13311893.03508  21868307.84608  21868309.50408
 -14703283.61008 -11457095.26308  22552264.70008  22552264.95508
 -11360143.93108  -8852052.35108  23121382.94308  23121385.01308
  -1130639.57307   -881017.84707  24940519.11207  24940521.17807
 -13194674.72708 -10281562.25408  22869861.02508  22869862.78008
 -26919300.47309 -20976064.63309  20188414.99609  20188415.52109
  -5787913.78208  -4510060.22108  20862916.68308  20862916.70008
 93 07 18 07 37 00.0000000  0  7 13 25 15 20 07 14 29
 -17172323.74108 -13381025.17208  21851424.97908  21851426.69208
 -14665354.38008 -11427539.95108  22559482.39108  22559482.64208
 -11136698.72808  -8677939.19808  23163903.21108  23163905.29408
  -1159853.98307   -903782.20107  24934959.87007  24934961.65707
 -13085861.03608 -10196772.41008  22890567.57908  22890569.35508
 -26905704.24509 -20965470.09909  20191002.19909  20191002.73609
  -5884758.44208  -4585523.47408  20844487.71008  20844487.68808
 93 07 18 07 38 00.0000000  0  7 13 25 15 20 07 29 14
 -17258339.49808 -13448050.42808  21835056.72908  21835058.46408
 -14624935.10008 -11396044.39808  22567173.88208  22567174.14708
 -10912349.74808  -8503121.87708  23206595.43308  23206597.57708
  -1186711.84207   -924710.30107  24929848.92507  24929850.71307
 -12974880.44808 -10110294.14208  22911686.57908  22911688.45608
  -5979792.04308  -4659575.57008  20826403.36508  20826403.32908
 -26890414.80309 -20953556.23109  20193911.70609  20193912.20309
 93 07 18 07 39 00.0000000  0  7 13 25 15 20 07 29 14
 -17341660.03308 -13512975.56608  21819201.36108  21819203.12508
 -14582070.00308 -11362643.06408  22575330.86308  22575331.07808
 -10687138.86208  -8327632.99108  23249451.69308  23249453.81408
  -1211232.69407   -943817.47608  24925182.56507  24925184.56508
 -12861803.74208 -10022182.59208  22933204.55108  22933206.48108
  -6073044.92908  -4732240.14508  20808657.92408  20808657.89108
 -26873390.46709 -20940290.54909  20197151.28409  20197151.79009
 93 07 18 07 40 00.0000000  0  7 13 25 15 07 20 29 14
 -17422278.11108 -13575794.89408  21803860.27908  21803862.02608
 -14536819.90608 -11327383.29608  22583941.73208  22583941.88008
 -10461091.21508  -8151492.07408  23292467.23208  23292469.26208
 -12746740.44608  -9932523.04808  22955100.46608  22955102.34708
  -1233419.29607   -961105.75208  24920960.57307  24920962.54308
  -6164424.23408  -4803444.79408  20791269.04508  20791268.93208
 -26854610.01409 -20925656.47409  20200725.24009  20200725.65509
 93 07 18 07 41 00.0000000  0  7 13 25 15 07 20 29 14
 -17500169.91208 -13636489.82508  21789038.00608  21789039.74708
 -14489208.55108 -11290283.56808  22593001.93508  22593002.08408
 -10234215.04508  -7974705.53008  23335640.33608  23335642.49708
 -12629752.61208  -9841363.84808  22977362.63508  22977364.54308
  -1253257.37807   -976563.98308  24917185.59507  24917187.42108
  -6253872.34308  -4873144.60608  20774247.61808  20774247.51308
 -26834048.68509 -20909634.67709  20204637.82009  20204638.21409
 93 07 18 07 42 00.0000000  0  7 13 25 15 07 20 29 14
 -17575344.83908 -13695067.71208  21774732.62708  21774734.47708
 -14439230.54208 -11251339.68408  22602512.37008  22602512.51908
 -10006551.41008  -7797305.40808  23378963.28208  23378965.51308
 -12510889.40308  -9748743.31508  22999981.56808  22999983.45508
  -1270766.00007   -990207.06808  24913853.70107  24913855.72808
  -6341438.66408  -4941378.08708  20757584.27608  20757584.16708
 -26811682.26809 -20892206.31609  20208894.08809  20208894.48909
 93 07 18 07 43 00.0000000  0  7 13 25 15 07 20 29 14
 -17647803.16108 -13751528.73308  21760944.33208  21760946.12908
 -14386880.20208 -11210547.21108  22612474.28808  22612474.51908
  -9778133.43408  -7619317.46008  23422429.89708  23422432.05808
 -12390162.72308  -9654670.69608  23022955.30308  23022957.27208
  -1285956.50307  -1002043.74608  24910963.16507  24910965.05608
  -6427165.14608  -5008177.89808  20741271.06308  20741270.93208
 -26787562.29709 -20873411.52209  20213483.93209  20213484.35509
 93 07 18 07 44 00.0000000  0  7 13 25 15 20 07 29 14
 -17717556.62808 -13805882.07408  21747670.65008  21747672.48508
 -14332157.98208 -11167906.53008  22622887.62708  22622887.83608
  -9549003.44208  -7440774.69708  23466031.94308  23466034.19908
  -1298849.56508  -1012090.26508  24908509.77008  24908511.66408
 -12267547.83808  -9559126.75808  23046288.29808  23046290.28008
  -6511031.29708  -5073528.10408  20725311.83008  20725311.70908
 -26761811.04009 -20853345.60009  20218384.11909  20218384.55409
 93 07 18 07 45 00.0000000  0  7 13 25 15 20 07 29 14
 -17784551.83108 -13858086.13508  21734921.95508  21734923.74608
 -14275048.54308 -11123405.70508  22633755.29208  22633755.41208
  -9319139.22208  -7261659.82208  23509773.78808  23509776.01008
  -1309402.51808  -1020313.30107  24906501.56408  24906503.07007
 -12143008.29908  -9462083.11008  23069987.48108  23069989.41008
  -6592989.73608  -5137391.80308  20709715.62208  20709715.52608
 -26734409.14909 -20831993.49809  20223598.66409  20223599.08909
 93 07 18 07 46 00.0000000  0  7 13 25 15 20 07 29 14
 -17848807.69508 -13908155.62308  21722694.45908  21722696.22008
 -14215604.79508 -11077085.90408  22645067.04208  22645067.22408
  -9088590.77108  -7082011.75608  23553645.78008  23553647.96608
  -1317644.63307  -1026735.69007  24904933.13107  24904934.75307
 -12016668.54908  -9363636.66308  23094029.15808  23094031.12408
  -6673132.97208  -5199841.02608  20694464.89908  20694464.77908
 -26705339.06809 -20809341.47609  20229130.57209  20229130.99109
 93 07 18 07 47 00.0000000  0  7 13 25 15 20 07 29 14
 -17910234.90408 -13956020.96908  21711005.17608  21711006.94408
 -14153817.70908 -11028940.12508  22656824.65208  22656824.89808
  -8857298.41508  -6901784.03808  23597659.24608  23597661.59608
  -1323495.23008  -1031294.54607  24903819.76708  24903821.21807
 -11888472.27108  -9263743.57408  23118424.09808  23118426.32308
  -6751410.45108  -5260836.41009  20679569.06108  20679569.01009
 -26674479.45109 -20785295.01309  20235002.96409  20235003.38509
 93 07 18 07 48 00.0000000  0  7 13 25 15 20 07 29 14
 -17968831.34808 -14001680.51608  21699854.63408  21699856.41108
 -14089683.55808 -10978965.46308  22669028.98508  22669029.28908
  -8625287.94108  -6720996.74308  23641809.56608  23641811.80808
  -1326961.97108  -1033995.84507  24903159.99708  24903161.44807
 -11758369.55308  -9162364.93208  23143181.83708  23143184.17208
  -6827782.36708  -5320346.93909  20665035.90908  20665035.84509
 -26641837.29409 -20759859.55209  20241214.58309  20241215.01909
 93 07 18 07 49 00.0000000  0  7 13 25 15 20 07 29 14
 -18024647.91508 -14045173.97208  21689233.16608  21689234.89708
 -14023182.67208 -10927146.64608  22681683.74108  22681684.08708
  -8392639.90308  -6539712.68908  23686081.04208  23686083.37808
  -1328105.53908  -1034886.88407  24902942.28108  24902943.65807
 -11626408.25908  -9059538.10208  23168293.35908  23168295.59708
  -6902252.95208  -5378375.95809  20650864.68508  20650864.54209
 -26607474.47309 -20733083.36209  20247753.55609  20247753.98109
 93 07 18 07 50 00.0000000  0  7 13 25 15 20 07 29 14
 -18077698.98608 -14086512.46808  21679137.84208  21679139.60608
 -13954360.99108 -10873519.39808  22694779.98108  22694780.32408
  -8159396.66008  -6357964.80508  23730465.83308  23730468.24908
  -1326949.72508  -1033986.18707  24903162.22008  24903163.60307
 -11492699.01808  -8955349.20808  23193737.49708  23193739.74008
  -6974881.03908  -5434969.23009  20637044.00708  20637043.84809
 -26571432.78109 -20704998.93309  20254612.04009  20254612.49209
 93 07 18 07 51 00.0000000  0  7 13 25 15 20 07 29 14
 -18127910.32908 -14125638.17208  21669582.94208  21669584.69908
 -13883160.72708 -10818038.69808  22708329.01308  22708329.32708
  -7925514.17108  -6175718.78608  23774972.28308  23774974.72308
  -1323431.33308  -1031244.61607  24903831.74208  24903833.26507
 -11357268.92008  -8849819.36608  23219509.20408  23219511.39708
  -7045563.25908  -5490046.22609  20623593.55108  20623593.39709
 -26533700.13409 -20675596.85809  20261792.34309  20261792.82309
 93 07 18 07 52 00.0000000  0  7 13 25 15 20 07 29 14
 -18175283.60808 -14162552.43308  21660568.14108  21660569.90408
 -13809604.38108 -10760722.11908  22722326.39608  22722326.76508
  -7691020.33708  -5992996.42808  23819595.00208  23819597.49408
  -1317559.93808  -1026669.52407  24904948.99408  24904950.45607
 -11220180.62208  -8742997.46108  23245596.20408  23245598.50608
  -7114260.32708  -5543576.38809  20610520.91008  20610520.75809
 -26494271.85809 -20644873.54909  20269295.32509  20269295.86509
 93 07 18 07 53 00.0000000  0  7 13 25 15 20 07 29 14
 -18219844.12408 -14197274.89508  21652088.47408  21652090.32208
 -13733760.99008 -10701623.40408  22736758.85908  22736759.33908
  -7455966.76608  -5809837.87608  23864324.25708  23864326.73808
  -1309369.49707  -1020287.35607  24906507.48807  24906509.23107
 -11081490.87508  -8634927.64508  23271988.05908  23271990.49808
  -7181069.02009  -5595635.06209  20597807.60809  20597807.46509
 -26453188.73609 -20612860.72009  20277113.04909  20277113.64509
 93 07 18 07 54 00.0000000  0  7 13 25 15 20 07 29 14
 -18261562.80108 -14229782.96708  21644149.72208  21644151.50808
 -13655720.21008 -10640812.46208  22751609.57308  22751610.05508
  -7220351.32908  -5626241.53508  23909160.52808  23909163.06608
  -1298840.55907  -1012083.01807  24908511.08507  24908512.50007
 -10941114.55008  -8525543.66408  23298700.99108  23298703.37608
  -7246045.37608  -5646265.97409  20585442.95908  20585442.75709
 -26410437.25609 -20579547.90409  20285248.47309  20285249.07009
 93 07 18 07 55 00.0000000  0  7 13 25 15 20 07 29 14
 -18300405.47308 -14260049.96808  21636758.23408  21636760.02408
 -13575483.87408 -10578290.65908  22766878.12708  22766878.50008
  -6984166.47808  -5442201.46508  23954105.03408  23954107.59908
  -1285948.67607  -1002037.37107  24910964.43807  24910965.99007
 -10798970.00508  -8414781.80508  23325750.34008  23325752.68308
  -7309117.78109  -5695413.25409  20573440.62009  20573440.42609
 -26365986.97309 -20544911.31109  20293707.06109  20293707.64509
 93 07 18 07 56 00.0000000  0  7 13 25 15 20 07 29 14
 -18336382.07808 -14288083.71708  21629912.08008  21629913.96008
 -13493035.33608 -10514045.09308  22782567.60508  22782567.92008
  -6747448.52908  -5257746.01708  23999151.00608  23999153.57108
  -1270713.09207   -990165.45207  24913863.56007  24913865.21307
 -10655172.31508  -8302731.84308  23353114.24008  23353116.65008
  -7370266.31408  -5743061.46309  20561804.57908  20561804.36409
 -26319819.80009 -20508936.92809  20302492.38009  20302492.94509
 93 07 18 07 57 00.0000000  0  7 13 25 15 20 07 29 14
 -18369499.86508 -14313889.77208  21623609.92208  21623611.77408
 -13408325.78608 -10448037.66408  22798687.33008  22798687.62708
  -6510229.11108  -5072899.80008  24044292.34708  24044295.01708
  -1253149.44407   -976479.40507  24917205.60407  24917207.35007
 -10509820.12208  -8189470.54408  23380773.94208  23380776.40208
  -7429506.80508  -5789222.84109  20550531.45008  20550531.18309
 -26271905.79709 -20471601.33709  20311610.12009  20311610.67909
 93 07 18 07 58 00.0000000  0  7 13 25 15 20 07 29 14
 -18399721.89108 -14337439.40208  21617858.87108  21617860.67708
 -13321302.55308 -10380227.35708  22815247.31908  22815247.56608
  -6272496.86508  -4887653.96608  24089531.38808  24089534.05808
  -1233229.84007   -960957.54207  24920995.89507  24920997.96707
 -10362887.84608  -8074977.99608  23408734.28508  23408736.73208
  -7486868.75908  -5833920.42009  20539615.77208  20539615.51009
 -26222240.52909 -20432901.12409  20321061.11709  20321061.66209
 93 07 18 07 59 00.0000000  0  7 13 25 15 20 07 29 14
 -18427049.36608 -14358733.55308  21612658.70108  21612660.40808
 -13232020.36708 -10310656.84408  22832237.21708  22832237.47608
  -6034276.28408  -4702027.59108  24134863.37008  24134865.82308
  -1210964.65107   -943608.02008  24925232.63507  24925234.99208
 -10214377.44008  -7959255.75708  23436995.06208  23436997.72708
  -7542352.79808  -5877154.69709  20529057.45808  20529057.18309
 -26170825.02709 -20392837.10009  20330845.18809  20330845.69109
 93 07 18 08 00 00.0000000  0  7 13 25 15 20 07 29 14
 -18451510.11908 -14377793.98008  21608004.05308  21608005.82008
 -13140531.55208 -10239366.95308  22849647.05908  22849647.25108
  -5795619.10308  -4516061.08208  24180278.35908  24180281.04708
  -1186389.48307   -924458.52508  24929909.07407  24929911.43308
 -10064296.38508  -7842309.71208  23465554.75808  23465557.35408
  -7595973.26109  -5918936.91509  20518853.86409  20518853.57809
 -26117763.22209 -20351490.32009  20340942.54009  20340943.08709
 93 07 18 08 01 00.0000000  0  7 13 25 15 20 07 29 14
 -18473032.15908 -14394564.39208  21603908.54108  21603910.26808
 -13046751.90908 -10166291.92408  22867492.58508  22867493.02108
  -5556477.11008  -4329716.69308  24225785.53408  24225788.13108
  -1159442.72107   -903461.02608  24935036.96207  24935039.30308
  -9912595.64308  -7724101.44908  23494422.35208  23494425.03908
  -7647576.30708  -5959147.01609  20509034.08008  20509033.84909
 -26063015.73209 -20308829.91009  20351360.65609  20351361.20209
 93 07 18 08 02 00.0000000  0  7 13 25 15 20 07 29 14
 -18491652.96708 -14409074.12908  21600365.07508  21600366.84608
 -12950716.49908 -10091459.13708  22885767.59608  22885767.90308
  -5316909.62008  -4143040.76008  24271373.78608  24271376.26708
  -1130169.03907   -880650.32508  24940607.53407  24940609.85608
  -9759328.20008  -7604672.40208  23523588.45408  23523591.01308
  -7697143.73608  -5997770.94609  20499601.72208  20499601.42209
 -26006602.64508 -20264871.65609  20362095.72008  20362096.25509
 93 07 18 08 03 00.0000000  0  7 13 25 15 20 07 29 14
 -18507410.33908 -14421352.66908  21597366.55708  21597368.38008
 -12852597.33608 -10015002.72508  22904439.01708  22904439.48708
  -5076975.85808  -3956079.46108  24317031.74208  24317034.19008
  -1098614.33207   -856062.29108  24946612.52907  24946614.42408
  -9604619.94408  -7484120.69108  23553028.50308  23553031.05208
  -7744831.84208  -6034930.52009  20490526.87208  20490526.61509
 -25948569.30409 -20219650.92409  20373139.04509  20373139.61409
 93 07 18 08 04 00.0000000  0  7 13 25 15 20 07 29 14
 -18520243.07708 -14431352.21508  21594924.61408  21594926.42908
 -12752393.17108  -9936921.56108  22923507.23508  22923507.64308
  -4836637.32308  -3768802.69308  24362766.65208  24362769.24608
  -1064726.74107   -829656.35608  24953061.06607  24953062.95708
  -9448551.11408  -7362508.72108  23582727.47308  23582730.15108
  -7790690.05908  -6070664.15009  20481800.37208  20481800.09009
 -25888891.53009 -20173148.74609  20384495.33109  20384495.89709
 93 07 18 08 05 00.0000000  0  6 13 25 07 15 29 14
 -18530125.17408 -14439052.54808  21593044.17508  21593045.94808
 -12650064.94908  -9857185.32508  22942979.77608  22942980.12908
  -9291119.42408  -7239834.77508  23612685.90708  23612688.56208
  -4595887.86308  -3581205.71108  24408579.79808  24408582.33008
  -7834672.35108  -6104936.00809  20473430.80708  20473430.50809
 -25827501.00008 -20125311.93509  20396177.62208  20396178.14009
 93 07 18 08 06 00.0000000  0  6 13 25 07 15 29 14
 -18537048.37208 -14444447.27008  21591726.72408  21591728.51608
 -12545531.63908  -9775730.83408  22962871.84708  22962872.22408
  -9132272.65308  -7116058.17008  23642913.41408  23642916.08808
  -4354739.94007  -3393298.28308  24454468.70507  24454471.33708
  -7876642.35808  -6137639.88609  20465444.18308  20465443.90809
 -25764287.97008 -20076055.03008  20408206.64208  20408207.20308
 93 07 18 08 07 00.0000000  0  6 13 25 07 15 29 14
 -18541074.84308 -14447584.78508  21590960.54208  21590962.36208
 -12438801.32508  -9692564.37508  22983181.89908  22983182.40008
  -8971998.71308  -6991169.47908  23673412.64808  23673415.40708
  -4113276.78207  -3205145.18008  24500417.65407  24500420.21608
  -7916603.21108  -6168778.17309  20457839.74308  20457839.52709
 -25699322.72809 -20025432.74608  20420569.08409  20420569.65108
 93 07 18 08 08 00.0000000  0  7 13 25 07 15 24 29 14
 -18542277.30608 -14448521.87108  21590731.79208  21590733.56708
 -12329961.66008  -9607754.36208  23003893.47108  23003893.93008
  -8810377.88808  -6865231.36708  23704168.24608  23704170.98608
  -3871589.86907  -3016817.82808  24546409.10907  24546411.71808
        -0.20317        -0.43817  25400892.52717  25400895.43417
  -7954671.98408  -6198442.21409  20450595.51808  20450595.26309
 -25632798.25109 -19973595.57308  20433228.24209  20433228.76808
 93 07 18 08 09 00.0000000  0  7 13 25 07 15 24 29 14
 -18540573.51708 -14447194.26308  21591056.03008  21591057.80008
 -12219051.27608  -9521330.72408  23024998.93208  23024999.43308
  -8647393.75008  -6738230.87108  23735183.02308  23735185.97408
  -3629615.23207  -2828266.20008  24592455.34707  24592458.11408
   -217282.79307   -169311.54707  25359544.93307  25359547.70307
  -7990930.30108  -6226695.43109  20443695.77808  20443695.47709
 -25564740.50909 -19920563.56708  20446179.22009  20446179.73308
 93 07 18 08 10 00.0000000  0  7 13 25 07 15 24 29 14
 -18535908.31008 -14443559.03208  21591943.75908  21591945.57708
 -12106150.32308  -9433355.95408  23046483.31808  23046483.84408
  -8483038.07608  -6610161.63608  23766458.95708  23766461.94208
  -3387315.98407  -2639461.66108  24638563.54507  24638566.17308
   -434024.42907   -338201.01807  25318300.13007  25318302.85407
  -8025356.15108  -6253520.73109  20437144.73108  20437144.43009
 -25495060.18309 -19866267.19608  20459438.95309  20459439.49208
 93 07 18 08 11 00.0000000  0  7 13 25 07 15 24 29 14
 -18528279.58608 -14437614.56308  21593395.47908  21593397.23108
 -11991276.82308  -9343844.14608  23068343.06608  23068343.58508
  -8317342.13208  -6481048.04808  23797989.89208  23797992.81308
  -3144707.48407  -2450416.13708  24684730.45107  24684733.02308
   -650223.20407   -506667.50307  25277159.07707  25277161.35407
  -8057816.61408  -6278814.56509  20430967.76608  20430967.39609
 -25423654.39109 -19810626.30708  20473027.00909  20473027.54408
 93 07 18 08 12 00.0000000  0  7 13 25 07 15 24 29 14
 -18517699.58308 -14429370.41008  21595408.72608  21595410.50208
 -11874334.80808  -9252720.52808  23090596.41508  23090596.83708
  -8150369.38408  -6350939.58508  23829764.08508  23829766.95608
  -2901819.46707  -2261152.78608  24730950.68007  24730953.15708
   -865917.68007   -674741.07207  25236113.69207  25236116.12807
  -8088219.95508  -6302505.46309  20425182.17408  20425181.83009
 -25350489.83209 -19753614.96608  20486949.76009  20486950.32208
 93 07 18 08 13 00.0000000  0  7 13 25 07 15 24 29 14
 -18504223.88308 -14418869.91008  21597973.08208  21597974.92608
 -11755222.63108  -9159905.88608  23113262.66908  23113263.16808
  -7982224.11008  -6219917.50108  23861761.12208  23861764.14708
  -2658723.81707  -2071727.66708  24777210.01707  24777212.71108
  -1081140.01707   -842446.79007  25195158.26207  25195160.58907
  -8116637.99208  -6324649.40209  20419774.38308  20419774.05709
 -25275666.54809 -19695311.14808  20501188.18309  20501188.75608
 93 07 18 08 14 00.0000000  0  8 13 18 25 07 15 29 24 14
 -18487874.67108 -14406130.24308  21601084.28008  21601086.03808
        -0.14118        -0.40118  21990963.12218  21990964.32718
 -11633991.18408  -9065439.79308  23136332.25408  23136332.68508
  -7812962.96808  -6088025.85208  23893970.65808  23893973.48208
  -2415459.48807  -1882171.06707  24823501.89207  24823504.44207
  -8143183.79408  -6345334.38909  20414722.84908  20414722.48809
  -1295859.44207  -1009760.55407  25154298.46707  25154300.64407
 -25199258.79008 -19635772.61208  20515728.09808  20515728.64908
 93 07 18 08 15 00.0000000  0  8 13 18 25 07 15 29 24 14
 -18468650.20108 -14391150.15508  21604742.59908  21604744.32108
   -179430.94408   -139816.52308  21956818.68708  21956819.88308
 -11510810.12008  -8969454.58308  23159772.96308  23159773.35108
  -7642599.56908  -5955275.31708  23926389.85008  23926392.63208
  -2172039.12007  -1692492.87307  24869823.26007  24869825.73507
  -8167908.81008  -6364600.61509  20410017.84508  20410017.52109
  -1510110.88607  -1176709.64407  25113527.67207  25113530.12407
 -25121287.63108 -19575015.87908  20530565.54108  20530566.09008
 93 07 18 08 16 00.0000000  0  8 13 18 25 07 15 29 24 14
 -18446514.93608 -14373901.94208  21608954.83808  21608956.63008
   -357568.51808   -278624.96008  21922920.16708  21922921.27008
 -11385756.56508  -8872010.28508  23183569.79208  23183570.31908
  -7471060.87608  -5821609.00308  23959032.67708  23959035.53408
  -1928443.18607  -1502677.83707  24916177.88407  24916180.70007
  -8190796.98008  -6382435.55409  20405662.30808  20405661.94909
  -1723910.27207  -1343306.54607  25072842.91707  25072845.51207
 -25041693.13709 -19512994.22708  20545711.92809  20545712.47408
 93 07 18 08 17 00.0000000  0  8 13 18 25 07 15 24 29 14
 -18421443.75208 -14354365.98808  21613725.77008  21613727.51508
   -534393.70608   -416410.74408  21889271.35208  21889272.46808
 -11258820.70308  -8773099.24008  23207724.96308  23207725.42408
  -7298310.13908  -5686998.23208  23991906.14008  23991909.28908
  -1684660.33807  -1312717.15007  24962568.30007  24962570.76607
  -1937159.43307  -1509474.67607  25032263.07707  25032265.48607
  -8211812.06408  -6398810.92609  20401663.25608  20401662.90309
 -24960381.65609 -19449634.64808  20561184.96909  20561185.48908
 93 07 18 08 18 00.0000000  0  8 13 18 25 07 15 24 29 14
 -18393381.18008 -14332499.12408  21619065.86808  21619067.69308
   -709908.13608   -553175.19708  21855872.05308  21855873.08508
 -11129894.62808  -8672637.40908  23232258.78408  23232259.13608
  -7124324.29708  -5551425.09308  24025014.74908  24025018.01208
  -1440648.30807  -1122577.94207  25009002.21607  25009004.60207
  -2149721.89707  -1675107.75807  24991813.76007  24991816.07907
  -8230853.49708  -6413648.42809  20398039.79008  20398039.45809
 -24877236.24409 -19384846.06808  20577007.02609  20577007.52108
 93 07 18 08 19 00.0000000  0  8 13 18 25 07 15 29 24 14
 -18362450.38208 -14308397.23608  21624951.80108  21624953.68308
   -884229.09608   -689009.60408  21822699.74908  21822700.78408
 -10999066.49608  -8570693.42508  23257154.56308  23257154.96808
  -6949276.63008  -5415024.50808  24058325.51908  24058328.74008
  -1196544.06307   -932366.83007  25055453.44607  25055456.12307
  -8247967.44508  -6426983.93809  20394783.08408  20394782.77009
  -2361680.95607  -1840270.59507  24951479.13807  24951481.79307
 -24792475.23508 -19318798.52408  20593136.48408  20593137.02108
 93 07 18 08 20 00.0000000  0  8 13 18 25 07 15 29 24 14
 -18328639.24508 -14282050.91608  21631385.95508  21631387.81408
  -1057175.32508   -823772.77708  21789789.18408  21789790.18308
 -10866316.13708  -8467251.57508  23282416.04808  23282416.54808
  -6773221.83408  -5277839.06808  24091827.58808  24091831.04608
   -952346.95607   -742083.32207  25101922.71107  25101925.40507
  -8263116.87708  -6438788.64309  20391900.23408  20391899.91309
  -2573040.53408  -2004966.31207  24911258.64108  24911261.22807
 -24706217.52108 -19251584.69708  20609550.81308  20609551.34808
 93 07 18 08 21 00.0000000  0  8 13 18 25 07 15 29 24 14
 -18291947.66008 -14253460.12708  21638368.16208  21638369.99508
  -1228653.76808   -957392.26108  21757157.82008  21757158.82308
 -10731677.12408  -8362338.07208  23308037.02908  23308037.42208
  -6596220.49708  -5139916.08608  24125509.78808  24125513.34408
   -708070.59907   -551737.95907  25148406.84507  25148409.42607
  -8276295.32008  -6449057.54609  20389392.46208  20389392.15109
  -2783750.43208  -2169155.81007  24871161.96808  24871164.46807
 -24618505.85508 -19183237.95108  20626241.76508  20626242.36308
 93 07 18 08 22 00.0000000  0  8 13 18 25 15 24 29 07 14
 -18252342.79408 -14222599.30108  21645904.73708  21645906.60008
  -1398709.74608  -1089903.38108  21724797.16608  21724798.21008
 -10595171.70408  -8255970.28908  23334013.16508  23334013.61908
   -463692.07107   -361313.11307  25194910.60907  25194913.05707
  -2993773.77608  -2332810.40607  24831195.74208  24831198.31007
  -8287506.70708  -6457793.72709  20387258.98608  20387258.67909
  -6418224.61408  -5001218.21808  24159381.38708  24159385.02008
 -24529229.88508 -19113672.32308  20643230.41408  20643231.04708
 93 07 18 08 23 00.0000000  0  8 13 18 25 15 24 29 07 14
 -18209858.76108 -14189494.87608  21653989.27508  21653991.08708
  -1567490.33208  -1221420.60008  21692679.18108  21692680.17808
 -10456828.46408  -8148170.36208  23360339.05008  23360339.61608
   -219256.27907   -170843.56807  25241424.97507  25241427.57307
  -3203171.00108  -2495977.00508  24791348.78208  24791351.42708
  -8296877.36908  -6465095.48909  20385475.81408  20385475.49009
  -6239204.84308  -4861722.44008  24193447.88808  24193451.58908
 -24438293.38308 -19042812.68808  20660535.05508  20660535.71608
 93 07 18 08 24 00.0000000  0  8 13 18 25 15 29 24 07 14
 -18164518.08308 -14154164.54808  21662617.34908  21662619.17308
  -1734989.29108  -1351939.20308  21660805.12608  21660806.08408
 -10316652.06508  -8038942.09208  23387013.70108  23387014.38808
     25205.01307     19645.88707  25287944.46807  25287946.88607
  -8304451.93708  -6470997.74909  20384034.40508  20384034.06909
  -3411918.34908  -2658637.19608  24751625.29808  24751627.92908
  -6059184.11507  -4721446.74008  24227704.71007  24227708.54108
 -24345663.42308 -18970633.51608  20678161.92008  20678162.58408
 93 07 18 08 25 00.0000000  0  7 13 18 25 24 07 29 14
 -18116310.92708 -14116600.58708  21671790.90708  21671792.78008
  -1901117.50108  -1481389.68408  21629192.00308  21629192.91808
 -10174588.39608  -7928243.21508  23414047.71808  23414048.31008
  -3619880.21807  -2820685.36508  24712051.38207  24712054.12108
  -5878149.38307  -4580380.82708  24262154.67207  24262158.26008
  -8310221.38608  -6475493.41009  20382936.51408  20382936.15809
 -24251345.74708 -18897139.23108  20696110.02108  20696110.63908
 93 07 18 08 26 00.0000000  0  8 13 18 25 15 24 29 07 14
 -18065244.94708 -14076808.98808  21681508.47508  21681510.38908
  -2065850.69208  -1609753.14408  21597844.16808  21597845.11108
 -10030601.42808  -7816045.69608  23441447.44208  23441448.17308
         0.12617        -0.44317  25380994.17717  25380996.68017
  -3827041.12007  -2982109.39208  24672629.93207  24672632.67208
  -8314138.46708  -6478545.67809  20382191.09108  20382190.76909
  -5696167.61307  -4438576.99008  24296784.61507  24296788.19008
 -24155392.60908 -18822370.57808  20714369.30808  20714369.94508
 93 07 18 08 27 00.0000000  0  7 13 18 25 24 29 07 14
 -18011317.06408 -14034787.30608  21691770.62908  21691772.58408
  -2229208.38408  -1737044.76108  21566758.21508  21566759.10908
  -9884726.42108  -7702376.87408  23469206.60908  23469207.17008
  -4033380.72708  -3142893.40708  24633364.69808  24633367.38408
  -8316138.80608  -6480104.35909  20381810.36708  20381810.06509
  -5513302.86007  -4296085.05708  24331582.77807  24331586.37408
 -24057827.52708 -18746345.83708  20732935.36108  20732935.96608
 93 07 18 08 28 00.0000000  0  8 13 18 25 20 29 24 07 14
 -17954599.01308 -13990591.46308  21702563.76408  21702565.75708
  -2391247.84308  -1863309.17008  21535923.12108  21535923.94708
  -9737173.88008  -7587400.86908  23497285.12308  23497285.53708
        -0.03017        -0.78417  25236819.35917  25236821.33717
  -8316239.95708  -6480183.13809  20381791.10208  20381790.75709
  -4238933.28008  -3303064.12308  24594249.34108  24594252.00908
  -5329623.01708  -4152957.98808  24366536.05308  24366539.65308
 -23958733.10708 -18669129.38908  20751792.39908  20751792.97008
 93 07 18 08 29 00.0000000  0  8 13 18 25 20 29 24 07 14
 -17895064.45808 -13944200.94908  21713892.89708  21713894.87008
  -2551863.76308  -1988464.35708  21505358.83708  21505359.69308
  -9588026.95808  -7471182.48308  23525666.67808  23525667.19808
     89293.11607     69578.24607  25253811.51907  25253812.81107
  -8314429.43208  -6478772.32109  20382135.69408  20382135.37009
  -4443720.73808  -3462638.70608  24555279.60808  24555282.32008
  -5145100.94508  -4009174.65808  24401649.56008  24401652.96208
 -23858118.83308 -18590728.66708  20770938.72208  20770939.28708
 93 07 18 08 30 00.0000000  0  7 13 18 25 24 07 29 14
 -17832676.64308 -13895587.10008  21725764.94808  21725766.94108
  -2710907.95008  -2112394.79808  21475093.65708  21475094.53908
  -9437216.34408  -7353667.73608  23554364.97808  23554365.64908
  -4647731.03608  -3621607.69908  24516457.82008  24516460.36808
  -4959768.71607  -3864760.01908  24436917.22307  24436920.84508
  -8310748.37108  -6475903.92909  20382836.16208  20382835.85409
 -23755930.20208 -18511101.15908  20790384.44308  20790384.99208
 93 07 18 08 31 00.0000000  0  7 13 18 25 24 07 29 14
 -17767441.11608 -13844754.26108  21738178.91008  21738180.84508
  -2868341.28008  -2235070.04008  21445135.07108  21445135.91008
  -9284610.96208  -7234754.48108  23583404.82408  23583405.44108
  -4850906.37708  -3779926.09208  24477794.87308  24477797.25808
  -4773688.62707  -3719762.61108  24472327.04407  24472330.65608
  -8305191.46708  -6471573.85109  20383893.57808  20383893.26209
 -23652092.42608 -18430188.62108  20810144.25108  20810144.85908
 93 07 18 08 32 00.0000000  0  7 13 18 25 24 07 29 14
 -17699414.32808 -13791746.43308  21751123.99608  21751125.94208
  -3024305.83808  -2356600.82008  21415455.91408  21415456.78708
  -9130210.16108  -7114442.20308  23612786.40208  23612787.04308
  -5053197.08608  -3937555.20408  24439300.12008  24439302.79808
  -4586885.56707  -3574201.88107  24507874.64707  24507878.25307
  -8297760.36408  -6465783.37809  20385307.65408  20385307.32409
 -23546645.03408 -18348021.85908  20830210.19008  20830210.81608
 93 07 18 08 33 00.0000000  0  7 13 18 25 24 07 29 14
 -17628595.00508 -13736562.56908  21764600.49608  21764602.37808
  -3178838.39208  -2477015.71208  21386049.21208  21386050.09908
  -8974124.34508  -6992816.88508  23642488.53508  23642489.12308
  -5254581.13708  -4094477.79308  24400977.95208  24400980.65708
  -4399356.08407  -3428075.08707  24543560.20507  24543563.82907
  -8288434.94108  -6458516.78909  20387082.21708  20387081.85109
 -23439664.90408 -18264660.73608  20850567.82908  20850568.44808
 93 07 18 08 34 00.0000000  0  7 13 18 25 24 07 29 14
 -17555048.72408 -13679253.80908  21778595.92908  21778597.74808
  -3331976.71308  -2596344.17408  21356907.99508  21356908.82608
  -8816508.74708  -6869999.56608  23672481.70108  23672482.45408
  -5455125.47908  -4250746.07508  24362815.58308  24362818.18508
  -4211125.36808  -3281401.86807  24579379.59608  24579382.72207
  -8277353.04108  -6449881.52509  20389191.06508  20389190.64809
 -23331248.02108 -18180180.06808  20871198.93708  20871199.49408
 93 07 18 08 35 00.0000000  0  7 13 18 25 24 07 29 14
 -17478735.73608 -13619789.17908  21793117.79408  21793119.67508
  -3483628.72008  -2714514.47708  21328049.55608  21328050.36608
  -8657378.16208  -6746001.74008  23702763.30508  23702764.05408
  -5654741.10208  -4406290.68508  24324829.84308  24324832.53008
  -4022100.58007  -3134109.97107  24615349.91407  24615353.28507
  -8264452.26308  -6439828.95709  20391645.89608  20391645.50309
 -23221317.40108 -18094519.87108  20892118.10508  20892118.63808
 93 07 18 08 36 00.0000000  0  7 13 18 25 24 07 29 14
 -17399634.77408 -13558152.11608  21808170.23908  21808172.11808
  -3633787.20908  -2831521.02808  21299475.20708  21299476.00308
  -8496693.90408  -6620793.28108  23733340.53408  23733341.41708
  -5853364.40708  -4561062.05108  24287033.09808  24287035.73808
  -3832329.12607  -2986236.23907  24651462.29007  24651465.56007
  -8249635.91408  -6428283.74209  20394465.36808  20394464.96609
 -23109758.54708 -18007590.92608  20913347.03508  20913347.61108
 93 07 18 08 37 00.0000000  0  7 13 18 25 24 07 29 14
 -17317784.10808 -13494372.38608  21823745.90608  21823747.83308
  -3782515.78708  -2947413.30908  21271173.02008  21271173.73408
  -8334384.44108  -6494318.38208  23764227.31708  23764227.77408
  -6051018.71708  -4715078.30308  24249420.72008  24249423.24708
  -3642003.16207  -2837930.41307  24687680.30807  24687683.67107
  -8232927.17008  -6415263.89309  20397644.93808  20397644.51309
 -22996571.03408 -17919392.85208  20934885.86808  20934886.41608
 93 07 18 08 38 00.0000000  0  7 13 18 25 24 07 29 14
 -17233244.33108 -13428497.24908  21839833.25008  21839835.27608
  -3929802.13808  -3062181.77508  21243145.30308  21243145.97408
  -8170399.18108  -6366537.66508  23795432.57808  23795433.15708
  -6247711.13508  -4868344.99208  24211991.32208  24211993.74208
  -3451175.74507  -2689233.83507  24723993.63807  24723997.03207
  -8214478.05008  -6400887.90409  20401155.67108  20401155.19709
 -22881893.46608 -17830033.69608  20956708.35208  20956708.90508
 93 07 18 08 39 00.0000000  0  7 13 18 14 25 24 07 29
 -17145961.99108 -13360485.10408  21856442.62508  21856444.62808
  -4075430.14208  -3175658.09908  21215433.27008  21215433.87608
 -22765757.76008 -17739538.38808  20978808.23508  20978808.80208
  -8004721.37008  -6237438.13608  23826959.97008  23826960.80708
  -6443286.82308  -5020741.54508  24174774.42208  24174776.84208
  -3259702.92307  -2540034.42007  24760429.91607  24760433.44507
  -8194240.06708  -6385118.06109  20405006.86608  20405006.38409
 93 07 18 08 40 00.0000000  0  7 13 18 14 25 24 29 07
 -17055982.99408 -13290371.64708  21873565.03708  21873567.06208
  -4219406.69508  -3287847.54108  21188035.30308  21188035.96608
 -22648139.47908 -17647887.78908  21001190.27208  21001190.85208
  -7837525.42608  -6107155.63408  23858776.20808  23858777.07608
  -6637832.64308  -5172335.55808  24137753.51308  24137755.84708
  -8172199.43308  -6367943.51609  20409201.03908  20409200.53109
  -3067649.27907  -2390382.38707  24796976.47707  24796980.34907
 93 07 18 08 41 00.0000000  0  7 13 18 14 25 24 07 29
 -16963333.36508 -13218177.21708  21891195.72508  21891197.74708
  -4361881.68508  -3398866.95308  21160923.16608  21160923.84808
 -22528949.14708 -17555012.23708  21023871.49008  21023872.04408
  -7668879.01408  -5975742.84508  23890868.58608  23890869.37108
  -6831433.54708  -5323193.28408  24100912.43708  24100914.67808
  -2875087.65607  -2240334.56207  24833619.94107  24833623.73407
  -8148326.75208  -6349341.42009  20413743.83108  20413743.31909
 93 07 18 08 42 00.0000000  0  7 13 18 14 25 29 24 07
 -16867978.91708 -13143875.07908  21909341.19908  21909343.17208
  -4502856.66508  -3508717.47708  21134096.44908  21134097.09708
 -22408120.79508 -17460860.24708  21046864.30808  21046864.93608
  -7498722.32708  -5843153.10408  23923248.33108  23923249.07208
  -8122589.10609  -6329286.04409  20418641.54309  20418641.05409
  -7023928.97008  -5473189.53808  24064281.66608  24064283.85708
  -2681967.85107  -2089851.70707  24870369.44807  24870373.45307
 93 07 18 08 43 00.0000000  0  8 13 18 14 25 29 19 24 07
 -16770033.00108 -13067553.65708  21927979.79108  21927981.73808
  -4642249.95908  -3617335.55208  21107570.77508  21107571.49508
 -22285842.87708 -17365578.77408  21070133.03508  21070133.70708
  -7327096.62608  -5709418.79008  23955907.50808  23955908.31408
  -8095122.50509  -6307883.47509  20423868.22509  20423867.76809
        -0.90818        -0.12817  25170050.52318  25170054.21717
  -7215298.78808  -5622308.74408  24027865.15008  24027867.36608
  -2488376.26807  -1939001.28607  24907208.94307  24907213.05807
 93 07 18 08 44 00.0000000  0  8 13 18 14 25 29 19 24 07
 -16669496.88708 -12989213.89008  21947111.21508  21947113.16808
  -4779942.21808  -3724628.14108  21081368.65908  21081369.37308
 -22162185.89008 -17269222.69308  21093664.22608  21093664.86008
  -7153960.82908  -5574507.74708  23988854.39708  23988854.83908
  -8065878.48809  -6285095.90509  20429433.16409  20429432.72409
   -232330.82108   -181036.22507  25125839.32808  25125842.44207
  -7405577.34008  -5770577.60708  23991656.17708  23991658.49808
  -2294376.99607  -1787833.23107  24944125.92607  24944129.93307
 93 07 18 08 45 00.0000000  0  8 13 18 14 25 29 19 24 07
 -16566361.43808 -12908848.69108  21966737.31608  21966739.30908
  -4916003.50108  -3830649.86308  21055477.00608  21055477.61808
 -22037138.46208 -17171783.17208  21117459.98108  21117460.65908
  -6979414.88908  -5438497.87308  24022069.19008  24022069.72108
  -8034801.03309  -6260879.70309  20435346.93409  20435346.53509
   -464583.07208   -362011.76807  25081643.09108  25081646.03707
  -7594821.00508  -5918040.09708  23955644.19608  23955646.39408
  -2099917.35507  -1636306.45307  24981130.50107  24981133.96007
 93 07 18 08 46 00.0000000  0  7 13 18 14 25 29 24 07
 -16460655.21908 -12826480.34008  21986852.61508  21986854.63008
  -5050580.37608  -3935514.94708  21029867.90008  21029868.55408
 -21910616.43808 -17073194.66308  21141536.37308  21141537.02408
  -6803581.42908  -5301484.81908  24055529.12008  24055529.75108
  -8001881.58908  -6235228.23309  20441611.33308  20441610.92709
  -7782944.46608  -6064629.75808  23919845.43708  23919847.69708
  -1904998.09607  -1484421.63607  25018222.76307  25018226.31007
 93 07 18 08 47 00.0000000  0  7 13 18 14 25 29 24 07
 -16352345.04208 -12742082.87908  22007463.38708  22007465.58708
  -5183636.59408  -4039195.04508  21004548.06408  21004548.65608
 -21782522.06908 -16973380.89208  21165911.94108  21165912.57508
  -6626416.35808  -5163434.09208  24089242.73908  24089243.18308
  -7967160.53608  -6208172.86209  20448218.54008  20448218.14209
  -7969821.65208  -6210248.26008  23884283.81708  23884286.08208
  -1709659.25707  -1332209.68407  25055394.42607  25055398.43407
 93 07 18 08 48 00.0000000  0  7 14 13 25 29 24 07 18
 -21652948.34008 -16872414.35708  21190569.04008  21190569.58908
 -16241484.71908 -12655698.27608  22028559.51608  22028561.61708
  -6447854.15708  -5024294.69608  24123221.93308  24123222.51508
  -7930777.10908  -6179822.11709  20455142.10208  20455141.68809
  -8155457.08408  -6354899.14708  23848958.58408  23848960.72908
  -1514083.93807  -1179813.55207  25092611.45407  25092615.22207
  -5315063.61108  -4141605.62708  20979538.35308  20979538.89108
 93 07 18 08 49 00.0000000  0  8 14 13 25 29 19 24 07 18
 -21521985.07308 -16770365.07208  21215490.53108  21215491.14208
 -16128084.09308 -12567334.23408  22050138.95408  22050141.07308
  -6267855.30908  -4884035.85408  24157474.55608  24157475.13308
  -7892755.26108  -6150194.69109  20462377.40108  20462376.98609
        -0.33817         0.17617  24904790.19017  24904793.08817
  -8339832.22108  -6498568.01508  23813873.04108  23813875.23508
  -1318232.12507  -1027201.87407  25129880.79807  25129884.91507
  -5444797.33808  -4242696.78308  20954850.82808  20954851.31908
 93 07 18 08 50 00.0000000  0  8 14 13 25 19 29 24 07 18
 -21389657.66408 -16667252.83708  21240671.62308  21240672.18408
 -16012150.46808 -12476996.42408  22072200.48808  22072202.55608
  -6086471.13908  -4742697.50308  24191990.92308  24191991.19908
   -232236.53207   -180962.83907  24860596.96707  24860600.14107
  -7853020.80308  -6119232.77309  20469938.62608  20469938.23509
  -8522985.36008  -6641284.68408  23779020.28508  23779022.38308
  -1121946.01207   -874251.73107  25167232.97607  25167236.68407
  -5572855.30108  -4342482.15108  20930482.10208  20930482.56108
 93 07 18 08 51 00.0000000  0  8 14 13 25 29 19 24 07 18
 -21255896.00808 -16563022.99108  21266125.60708  21266126.20308
 -15893707.89808 -12384703.57108  22094739.47708  22094741.53008
  -5903800.48908  -4600356.66508  24226751.79208  24226752.41208
  -7811479.17808  -6086862.66109  20477843.66108  20477843.25109
   -464324.74307   -361810.56707  24816431.85007  24816434.88607
  -8704991.89208  -6783107.88908  23744385.38308  23744387.49108
   -925267.48707   -720995.78907  25204659.60107  25204663.31807
  -5699283.59708  -4440997.63808  20906423.46408  20906423.99608
 93 07 18 08 52 00.0000000  0  8 14 13 25 29 19 24 07 18
 -21120703.99608 -16457678.59408  21291851.85108  21291852.49208
 -15772799.26408 -12290489.13808  22117747.69908  22117749.84008
  -5719944.27208  -4457092.03508  24261738.42508  24261739.09708
  -7768134.77208  -6053087.79709  20486091.88008  20486091.47809
   -696226.27807   -542512.91507  24772302.26907  24772305.53707
  -8885826.24408  -6924017.72408  23709973.67708  23709975.80308
   -728386.48707   -567582.22007  25242125.20507  25242129.48007
  -5824090.92408  -4538250.04808  20882673.39708  20882673.92108
 93 07 18 08 53 00.0000000  0  8 14 13 24 25 29 19 07 18
 -20984026.17508 -16351176.45408  21317860.82808  21317861.49908
 -15649421.30708 -12194350.58508  22141225.81308  22141227.96108
  -9065307.83408  -7063873.48208  23675819.50808  23675821.59208
  -5534880.30508  -4312886.35708  24296954.74108  24296955.49408
  -7723035.95308  -6017945.88309  20494673.90608  20494673.47909
   -928029.22007   -723138.43207  24728191.56607  24728194.57407
   -531360.06707   -414055.05507  25279617.96707  25279622.15507
  -5947225.53208  -4634199.07408  20859241.68008  20859242.14508
 93 07 18 08 54 00.0000000  0  6 14 13 25 24 29 18
 -20845938.34908 -16243575.53808  21344138.04708  21344138.68508
 -15523582.43108 -12096294.35508  22165172.18108  22165174.28908
  -5348568.19208  -4167707.90708  24332408.98608  24332409.10908
  -9243351.52608  -7202608.72508  23641938.83508  23641940.96008
  -7676246.65108  -5981486.63409  20503577.59208  20503577.14009
  -6068656.58008  -4728820.57608  20836134.05808  20836134.46508
 93 07 18 08 55 00.0000000  0  7 14 13 24 25 19 29 18
 -20706504.56208 -16134925.88808  21370671.41308  21370672.09708
 -15395327.31208 -11996355.42608  22189578.38508  22189580.54508
  -9420016.26708  -7340269.52708  23608320.57508  23608322.61608
  -5160984.34508  -4021538.52308  24368104.68308  24368105.07408
        -0.41318        -0.99817  24639959.07518  24639961.92117
  -7627787.04908  -5943725.92509  20512799.08908  20512798.64009
  -6188416.05508  -4822139.63008  20813344.42708  20813344.88708
 93 07 18 08 56 00.0000000  0  7 14 13 24 25 19 29 18
 -20565599.58308 -16025129.82308  21397484.70408  21397485.44208
 -15264648.76408 -11894528.06408  22214445.74808  22214448.04108
  -9595288.95308  -7476845.58708  23574967.18308  23574969.26108
  -4972155.04307  -3874398.73208  24404037.40207  24404038.12108
   -231602.79108   -180470.31907  24595886.72208  24595889.45907
  -7577563.48008  -5904590.66309  20522356.23808  20522355.77809
  -6306492.96608  -4914147.55908  20790875.20808  20790875.67208
 93 07 18 08 57 00.0000000  0  7 14 13 24 25 19 29 18
 -20423124.20708 -15914110.06408  21424596.92308  21424597.61508
 -15131611.42608 -11790862.67908  22239761.94508  22239764.28108
  -9769194.58608  -7612356.39708  23541874.04808  23541876.15308
  -4782201.32907  -3726382.74808  24440184.41907  24440185.03908
   -462932.16708   -360726.86507  24551865.94708  24551868.85107
  -7525659.97608  -5864146.35809  20532233.24108  20532232.77909
  -6422925.25308  -5004873.96108  20768718.85808  20768719.35708
 93 07 18 08 58 00.0000000  0  7 14 13 24 25 19 29 18
 -20279192.13508 -15801955.22108  21451986.30608  21451986.95708
 -14996250.70008 -11685386.87108  22265520.23608  22265522.61608
  -9941725.30808  -7746795.87508  23509042.61408  23509044.58508
  -4591141.86608  -3577505.12208  24476541.98408  24476542.31608
   -694033.66508   -540805.88207  24507888.76608  24507891.70107
  -7472125.39408  -5822431.09709  20542420.50608  20542420.08809
  -6537651.42308  -5094270.93008  20746887.18908  20746887.61108
 93 07 18 08 59 00.0000000  0  6 14 13 24 25 29 18
 -20134081.53408 -15688882.05208  21479599.97708  21479600.65208
 -14858568.76208 -11578102.35108  22291720.36108  22291722.72608
 -10112857.94508  -7880145.93908  23476477.04308  23476479.02108
  -4398907.77708  -3427712.27508  24513122.71808  24513123.17208
  -7416920.20908  -5779414.07909  20552925.68508  20552925.29409
  -6650614.56209  -5182294.13008  20725391.02509  20725391.40508
 93 07 18 09 00 00.0000000  0  6 14 13 24 25 29 18
 -19987762.23408 -15574867.00808  21507443.57308  21507444.23508
 -14718546.45708 -11468994.14808  22318365.76708  22318368.14108
 -10282535.15208  -8012361.88708  23444188.45508  23444190.29708
  -4205502.81508  -3277007.04507  24549926.29108  24549926.56507
  -7359998.62308  -5735059.57809  20563757.50508  20563757.09809
  -6761838.58309  -5268962.14808  20704225.77009  20704226.11208
 93 07 18 09 01 00.0000000  0  7 14 13 24 25 19 29 18
 -19840036.21808 -15459755.82608  21535554.89108  21535555.57508
 -14576212.46108 -11358084.63008  22345451.04208  22345453.47408
 -10450742.23608  -8143432.28008  23412179.56708  23412181.62808
  -4011013.22707  -3125456.66307  24586936.37807  24586936.48607
        -0.39518        -0.25117  24376235.49418  24376238.47017
  -7301386.26408  -5689387.59709  20574911.04208  20574910.64209
  -6871330.86309  -5354280.75708  20683389.96009  20683390.30108
 93 07 18 09 02 00.0000000  0  7 14 13 24 25 19 29 18
 -19690847.83008 -15343505.11808  21563944.54108  21563945.15008
 -14431647.23608 -11245436.48708  22372961.04408  22372963.42708
 -10617518.03508  -8273387.35808  23380443.15908  23380445.06808
  -3815513.43408  -2973119.07108  24624138.65108  24624139.22308
   -230050.45408   -179259.99807  24332458.51808  24332461.10707
  -7241151.73108  -5642451.57009  20586373.24508  20586372.88109
  -6979117.84109  -5438270.53908  20662878.74509  20662879.10308
 93 07 18 09 03 00.0000000  0  7 14 13 24 25 19 29 18
 -19540249.15308 -15226155.55608  21592602.51408  21592603.20508
 -14284862.43608 -11131058.85908  22400893.42008  22400895.70808
 -10782758.63008  -8402146.23308  23348998.80808  23349000.89108
  -3618903.47508  -2819916.67408  24661552.72608  24661553.22508
   -459794.48708   -358281.34407  24288739.60208  24288742.36307
  -7179264.00608  -5594227.40809  20598150.14408  20598149.76409
  -7085181.18109  -5520917.29208  20642695.55409  20642695.84508
 93 07 18 09 04 00.0000000  0  7 14 13 24 25 19 29 18
 -19388379.63908 -15107815.64408  21621502.27708  21621502.97308
 -14135911.66008 -11014993.35408  22429237.81708  22429240.13608
 -10946467.50308  -8529711.46208  23317846.13308  23317848.02608
  -3421208.54008  -2665868.69508  24699172.80608  24699173.20408
   -689323.02908   -537134.68508  24245061.75508  24245064.64108
  -7115768.10408  -5544750.03209  20610232.97608  20610232.58109
  -7189552.35209  -5602245.38308  20622834.31109  20622834.60308
 93 07 18 09 05 00.0000000  0  7 14 13 24 25 19 29 18
 -19235266.74908 -14988506.95508  21650638.77408  21650639.49408
 -13984782.89208 -10897230.80408  22457996.70608  22457999.10108
 -11108667.03808  -8656100.67108  23286980.66908  23286982.53708
  -3222524.33707  -2511049.85907  24736980.93607  24736981.27107
   -918595.87408   -715788.82408  24201432.59608  24201435.44208
  -7050685.25009  -5494036.14709  20622617.78909  20622617.39009
  -7292148.93909  -5682190.76308  20603310.91409  20603311.19908
 93 07 18 09 06 00.0000000  0  7 14 13 24 25 19 29 18
 -19080873.72208 -14868200.68508  21680018.76608  21680019.46108
 -13831460.19008 -10777758.63708  22487173.15008  22487175.53008
 -11269338.55708  -8781299.14308  23256405.71708  23256407.51808
  -3022922.55707  -2355515.93707  24774963.75007  24774964.18007
  -1147497.42108   -894153.55508  24157874.01008  24157876.77708
  -6983974.85109  -5442053.98409  20635312.41909  20635311.99109
  -7392928.33309  -5760720.08708  20584133.09709  20584133.37008
 93 07 18 09 07 00.0000000  0  7 14 13 19 25 24 29 18
 -18925131.48008 -14746843.14808  21709655.53808  21709656.31508
 -13675956.59108 -10656587.13008  22516764.54608  22516766.97008
  -1375942.43308  -1072162.61808  24114402.33108  24114405.01708
  -2822369.62308  -2199240.95707  24813127.89708  24813128.12707
 -11428373.17008  -8905222.16908  23226142.42708  23226144.17508
  -6915583.89909  -5388762.35509  20648326.73309  20648326.35409
  -7491900.32209  -5837841.09108  20565299.38009  20565299.63308
 93 07 18 09 08 00.0000000  0  7 14 13 19 25 24 29 18
 -18768110.49208 -14624489.15708  21739535.70308  21739536.42608
 -13518353.58108 -10533779.72008  22546755.43808  22546757.92508
  -1603960.95308  -1249839.27808  24071011.69908  24071014.53408
  -2620857.04608  -2042218.19108  24851474.62908  24851474.83808
 -11585764.11008  -9027864.37808  23196191.74808  23196193.58408
  -6845530.58809  -5334175.35509  20661657.42109  20661657.05409
  -7589145.86309  -5913616.79008  20546794.06909  20546794.32808
 93 07 18 09 09 00.0000000  0  7 14 13 19 25 24 29 18
 -18609814.94608 -14501142.00808  21769658.31108  21769659.05408
 -13358664.42308 -10409346.72308  22577143.32508  22577145.90108
  -1831527.31408  -1427163.57608  24027707.11908  24027710.00808
  -2418390.01307  -1884451.71908  24890002.79507  24890003.26108
 -11741485.08808  -9149205.31308  23166559.08008  23166560.82108
  -6773864.11109  -5278331.33709  20675295.14009  20675294.74209
  -7684690.89709  -5988067.40708  20528612.46909  20528612.68808
 93 07 18 09 10 00.0000000  0  7 14 13 25 19 24 29 18
 -18450753.30808 -14377197.91208  21799926.87208  21799927.57208
 -13197447.09108 -10283722.96008  22607822.09808  22607824.62308
  -2215564.38807  -1726405.88408  24928599.19807  24928599.81008
  -2059184.01208  -1604558.28408  23984385.45408  23984388.11108
 -11896082.66508  -9269670.89208  23137140.05408  23137141.84208
  -6701194.07509  -5221705.33509  20689123.81009  20689123.37209
  -7779089.25209  -6061624.51708  20510648.97709  20510649.19708
 93 07 18 09 11 00.0000000  0  7 14 13 19 25 24 29 18
 -18290547.99308 -14252362.65808  21830412.83808  21830413.60108
 -13034359.55608 -10156641.93008  22638856.63508  22638859.31308
  -2286542.42108  -1781720.56708  23941120.60808  23941123.22908
  -2012036.29407  -1567812.85007  24967329.48107  24967330.06907
 -12049173.65408  -9388962.51608  23108007.69808  23108009.48108
  -6627220.59909  -5164063.68309  20703200.45209  20703200.02709
  -7871937.16309  -6133973.50708  20492980.55109  20492980.79208
 93 07 18 09 12 00.0000000  0  7 14 13 19 25 24 29 18
 -18128248.75608 -14125895.74508  21861297.33908  21861298.17108
 -12868428.99308 -10027345.52808  22670432.18008  22670435.05808
  -2512572.18008  -1957847.51408  23898108.33708  23898111.03408
  -1806814.11208  -1407899.63207  25006382.29208  25006382.39307
 -12199704.58808  -9506259.27708  23079362.50408  23079364.19808
  -6550897.51709  -5104591.13409  20717724.20909  20717723.80009
  -7962071.58309  -6204208.05408  20475828.48409  20475828.68108
 93 07 18 09 13 00.0000000  0  7 14 13 19 25 24 29 18
 -17964593.52408 -13998372.27908  21892440.02008  21892440.76408
 -12700430.29608  -9896437.66508  22702401.56508  22702404.33808
  -2738038.02908  -2133535.09308  23855203.52008  23855206.25508
  -1600672.40008  -1247269.78107  25045609.71008  25045610.13807
 -12348448.46008  -9622163.58308  23051057.46208  23051059.23208
  -6472906.12208  -5043818.66309  20732565.44208  20732565.07809
  -8050144.25909  -6272836.11008  20459068.81209  20459069.03508
 93 07 18 09 14 00.0000000  0  7 14 25 13 19 29 24 18
 -17799770.36708 -13869938.65508  21923804.85708  21923805.59708
  -1393819.24807  -1086085.59507  25084972.53707  25084973.28307
 -12530545.29508  -9764059.86208  22734729.79508  22734732.45308
  -2963105.08508  -2308911.84608  23812374.60808  23812377.24108
  -6393425.48908  -4981885.66009  20747690.13508  20747689.74209
 -12495629.16608  -9736849.75408  23023049.83808  23023051.46408
  -8136411.82209  -6340057.49908  20442652.58609  20442652.76308
 93 07 18 09 15 00.0000000  0  8 14 25 13 19 29 24 22 18
 -17633781.71508 -13740596.91508  21955391.45708  21955392.27208
  -1186162.41707   -924275.29507  25124488.50307  25124489.22207
 -12358726.02308  -9630174.88808  22767425.99808  22767428.75808
  -3187655.22108  -2483885.84808  23769644.03208  23769646.65008
  -6312469.06308  -4918802.75009  20763095.66708  20763095.24609
 -12641151.47108  -9850243.73408  22995357.87008  22995359.45908
        -0.35818        -0.17218  24056479.86118  24056480.54118
  -8220972.04409  -6405948.54808  20426561.26709  20426561.47308
 93 07 18 09 16 00.0000000  0  8 14 25 13 19 29 24 22 18
 -17466595.56808 -13610322.04008  21987206.02508  21987206.81108
   -977664.97007   -761810.05507  25164164.50907  25164165.02107
 -12184977.14208  -9494786.29708  22800489.41308  22800492.23308
  -3411588.23508  -2658378.94208  23727030.87108  23727033.47008
  -6230024.12908  -4854559.93809  20778784.38208  20778783.94809
 -12784890.57108  -9962248.17408  22968005.14308  22968006.87808
    -98627.07408    -76852.12208  24037711.84008  24037712.43608
  -8303810.43209  -6470497.88308  20410797.62309  20410797.73108
 93 07 18 09 17 00.0000000  0  8 14 25 13 29 19 24 22 18
 -17298169.72408 -13479081.16108  22019256.42808  22019257.23908
   -768332.84807   -598694.56507  25203999.20707  25203999.99207
 -12009354.05908  -9357937.25708  22833909.52108  22833912.27708
  -6146062.87008  -4789135.56208  20794761.67608  20794761.21908
  -3634963.89208  -2832437.70808  23684523.75508  23684526.22008
 -12926777.32908 -10072809.21408  22941004.94008  22941006.64408
   -195277.24608   -152163.88708  24019319.94908  24019320.51008
  -8384796.18309  -6533603.59808  20395386.47009  20395386.55508
 93 07 18 09 18 00.0000000  0  8 14 25 13 29 19 24 22 18
 -17128520.37308 -13346886.91608  22051539.62208  22051540.48008
   -558245.29508   -434990.20507  25243977.90408  25243978.79907
 -11831943.43208  -9219695.35708  22867669.79608  22867672.54408
  -6060599.54408  -4722540.76508  20811024.82808  20811024.33908
  -3857870.64308  -3006131.12008  23642105.90408  23642108.34508
 -13066884.13108 -10181983.29008  22914343.54408  22914345.24508
   -289980.46908   -225958.59108  24001298.57208  24001299.11908
  -8463963.96209  -6595292.73908  20380321.33109  20380321.41908
 93 07 18 09 19 00.0000000  0  8 14 25 13 29 19 24 22 18
 -16957693.29908 -13213774.94408  22084046.88108  22084047.77308
   -347553.50708   -270815.15607  25284071.40008  25284072.03107
 -11652757.17808  -9080069.84008  22901767.79208  22901770.69508
  -5973637.00608  -4654777.72608  20827573.21008  20827572.70908
  -4080248.96708  -3179412.74408  23599788.48508  23599790.94808
 -13205258.62708 -10289807.48908  22888011.76408  22888013.28608
   -382809.16308   -298292.59908  23983633.80108  23983634.38508
  -8541369.82409  -6655608.93508  20365591.49309  20365591.57608
 93 07 18 09 20 00.0000000  0  7 14 13 19 24 22 29 18
 -16785754.64308 -13079796.82208  22116765.69008  22116766.56208
 -11471831.79408  -8939089.17608  22936196.87008  22936199.83208
  -4301983.05308  -3352192.38808  23557593.83008  23557596.22508
 -13341952.09508 -10396321.81908  22861999.78808  22862001.41208
   -473792.09608   -369188.39208  23966320.41008  23966320.83608
  -5885210.54808  -4585873.98908  20844400.20708  20844399.68608
  -8617035.44509  -6714569.12308  20351192.68609  20351192.76008
 93 07 18 09 21 00.0000000  0  7 14 13 19 24 22 29 18
 -16612708.09908 -12944955.41608  22149695.36108  22149696.22608
 -11289156.41208  -8796744.87808  22970958.94808  22970962.00408
  -4522919.79208  -3524350.72708  23515550.87508  23515553.21508
 -13476837.93608 -10501427.60508  22836331.84808  22836333.34008
   -562837.99408   -438574.83108  23949375.54108  23949376.05608
  -5795323.65608  -4515832.25608  20861505.14908  20861504.65208
  -8690911.82709  -6772135.10708  20337134.48509  20337134.55608
 93 07 18 09 22 00.0000000  0  7 13 19 24 22 14 29 18
 -11104703.37408  -8653015.34908  23006059.27808  23006062.27208
  -4743082.02308  -3695905.51908  23473655.27908  23473657.58208
 -13609715.20708 -10604968.24808  22811046.05108  22811047.55608
   -649812.81108   -506347.39908  23932824.67808  23932825.20208
 -16438470.07408 -12809185.56308  22182851.83408  22182852.71808
  -5703939.78008  -4444624.01408  20878894.86208  20878894.39008
  -8762913.86109  -6828240.53008  20323432.94309  20323433.01608
 93 07 18 09 23 00.0000000  0  7 13 19 24 22 14 29 18
 -10918555.30608  -8507965.02108  23041482.24208  23041485.26608
  -4962698.51308  -3867035.05708  23431863.60408  23431865.74708
 -13740569.67208 -10706932.65508  22786145.12808  22786146.60908
   -734766.61908   -572545.14308  23916658.43008  23916659.05508
 -16263024.54808 -12672474.77608  22216238.19208  22216239.04508
  -5611132.84708  -4372306.87108  20896555.45508  20896554.97708
  -8833068.32209  -6882906.26608  20310082.80709  20310082.86208
 93 07 18 09 24 00.0000000  0  7 13 19 24 22 14 29 18
 -10730761.38308  -8361632.21908  23077218.43708  23077221.36408
  -5181764.12508  -4037735.36808  23390176.53208  23390178.76408
 -13869468.24508 -10807373.01808  22761616.53908  22761617.97508
   -817692.55108   -637162.76108  23900878.22208  23900878.85908
 -16086429.08908 -12534867.96808  22249843.20208  22249844.08408
  -5516871.78008  -4298856.67008  20914492.70208  20914492.21208
  -8901370.59309  -6936128.77608  20297085.35309  20297085.38908
 93 07 18 09 25 00.0000000  0  7 13 19 24 22 14 29 18
 -10541322.01508  -8214017.26408  23113267.58408  23113270.64808
  -5400029.54408  -4207812.16408  23348641.87708  23348644.06908
 -13996487.13708 -10906348.71508  22737445.59808  22737447.01608
   -898563.54408   -700179.12308  23885489.04308  23885489.62008
 -15908762.86908 -12396426.81608  22283652.01008  22283652.91408
  -5421114.89908  -4224240.91708  20932714.61408  20932714.14908
  -8967792.02609  -6987885.71108  20284445.80909  20284445.85208
