     2              OBSERVATION DATA    GPS                 RINEX VERSION / TYPE
srx v1.3 (5/19/93)  STARR               93/12/15 18:14:05   PGM / RUN BY / DATE
semi                                                        MARKER NAME
0                   TURBOROGUE          93.05.25            REC # / TYPE / VERS
 -3279110.4362 -1412739.1188  5267559.8085                  APPROX POSITION XYZ
    60                                                      INTERVAL
     1     1     0                                          WAVELENGTH FACT L1/2
     4    L1    L2    P1    P2                              # / TYPES OF OBSERV
SNR is mapped to signal strength [0,1,4-9]                  COMMENT
 SNR:   >500  >100   >50   >10    >5    >0   bad   n/a      COMMENT
 sig:      9     8     7     6     5     4     1     0      COMMENT
  1993    07    24    00    00   00.000000                  TIME OF FIRST OBS
  1993    07    24    18    36   00.000000                  TIME OF LAST OBS
    24                                                      # OF SATELLITES
    01   439   439   439   439                              PRN / # OF OBS
    02   434   434   434   434                              PRN / # OF OBS
    03   211   211   211   211                              PRN / # OF OBS
    07   531   531   531   531                              PRN / # OF OBS
    09   307   307   307   307                              PRN / # OF OBS
    12   349   349   349   349                              PRN / # OF OBS
    13   307   307   307   307                              PRN / # OF OBS
    14   400   400   400   400                              PRN / # OF OBS
    15   409   409   409   409                              PRN / # OF OBS
    16   328   328   328   328                              PRN / # OF OBS
    17   228   228   228   228                              PRN / # OF OBS
    18   391   391   391   391                              PRN / # OF OBS
    19   337   337   337   337                              PRN / # OF OBS
    20   144   144   144   144                              PRN / # OF OBS
    21   503   503   503   503                              PRN / # OF OBS
    22   263   263   263   263                              PRN / # OF OBS
    23   440   440   440   440                              PRN / # OF OBS
    24   330   330   330   330                              PRN / # OF OBS
    25   220   220   220   220                              PRN / # OF OBS
    26   483   483   483   483                              PRN / # OF OBS
    27   393   393   393   393                              PRN / # OF OBS
    28   326   326   326   326                              PRN / # OF OBS
    29   376   376   376   376                              PRN / # OF OBS
    31   479   479   479   479                              PRN / # OF OBS
                                                            END OF HEADER
 93 07 24 00 00 00.0000000  0  8 22 28 23 16 21 26 17 03
 -20600547.17009 -16052364.50309  21190224.80109  21190225.86909
 -15546864.88008 -12114430.53108  22212826.10308  22212827.17208
 -14949175.14308 -11648684.77508  22546373.00408  22546375.21608
   -765172.28407   -596236.18808  25199901.88707  25199906.38008
  -4399274.81108  -3427998.84408  24732028.59708  24732033.50808
  -3039256.36208  -2368248.56308  24759536.41908  24759539.78908
 -26414075.47509 -20582377.35409  20358858.94909  20358860.10609
 -16773406.22208 -13070176.83208  21702391.47908  21702393.63008
 93 07 24 00 01 00.0000000  0  8 22 28 23 16 21 26 17 03
 -20524891.14009 -15993411.78608  21204621.63109  21204622.71008
 -15722297.35308 -12251131.11308  22179442.42708  22179443.48208
 -15121548.73008 -11783001.73808  22513571.20808  22513573.42808
   -566430.10308   -441372.29108  25237721.32408  25237725.78008
  -4630764.52308  -3608380.07808  24687977.32908  24687982.17608
  -3170271.90608  -2470338.44308  24734604.95608  24734608.18808
 -26346036.84209 -20529360.24809  20371806.32109  20371807.46209
 -16618567.78208 -12949523.56308  21731856.30208  21731858.47008
 93 07 24 00 02 00.0000000  0  8 22 28 23 16 21 26 17 03
 -20447059.00309 -15932763.39608  21219432.59709  21219433.67908
 -15896831.44308 -12387131.66608  22146229.66708  22146230.65908
 -15292523.62308 -11916228.81008  22481035.69208  22481037.86408
   -366715.01908   -285750.26908  25275725.98408  25275730.36808
  -4861933.28108  -3788511.22708  24643987.14608  24643991.81908
  -3299790.36808  -2571261.78308  24709958.21208  24709961.48808
 -26275966.11709 -20474759.69509  20385140.35109  20385141.48109
 -16462487.67808 -12827902.76808  21761557.37808  21761559.56308
 93 07 24 00 03 00.0000000  0  8 22 28 23 16 21 26 17 03
 -20367007.63509 -15870385.74408  21234665.84909  21234666.96908
 -16070432.88208 -12522405.46108  22113194.33108  22113195.32108
 -15461996.02508 -12048285.09608  22448786.12308  22448788.24308
   -166012.98408   -129359.18708  25313918.37908  25313922.81808
  -5092747.33108  -3968366.03508  24600064.44408  24600069.01908
  -3427667.62308  -2670906.27408  24685623.84508  24685627.09508
 -26203897.69509 -20418602.49209  20398854.51609  20398855.63309
 -16305145.10508 -12705298.21808  21791498.74208  21791500.92208
 93 07 24 00 04 00.0000000  0  8 22 28 23 16 21 26 17 03
 -20284818.08809 -15806341.97808  21250306.02909  21250307.14808
 -16243183.84208 -12657016.52908  22080320.89908  22080321.90808
 -15630075.28408 -12179255.80408  22416801.49508  22416803.61908
     35554.59508     27706.36208  25352275.54508  25352279.97908
  -5323326.68308  -4148037.99308  24556186.45508  24556191.01608
  -3554013.54508  -2769357.52508  24661580.91108  24661584.20208
 -26129900.31409 -20360942.20509  20412935.76409  20412936.89209
 -16146617.06808 -12581769.93208  21821665.69408  21821667.86008
 93 07 24 00 05 00.0000000  0  8 22 28 23 16 21 26 17 03
 -20200544.15809 -15740674.01908  21266342.92109  21266344.00808
 -16415035.85108 -12790927.10608  22047618.45408  22047619.40808
 -15796810.53908 -12309179.22208  22385072.73108  22385074.85108
    237910.84308    185386.46508  25390782.77708  25390787.18308
  -5553714.54408  -4327560.78708  24512344.92808  24512349.41208
  -3678962.91408  -2866720.52408  24637803.78708  24637806.97008
 -26053917.24609 -20301734.63309  20427394.90409  20427395.98809
 -15986918.99908 -12457329.94108  21852055.28708  21852057.51408
 93 07 24 00 06 00.0000000  0  8 22 28 23 16 21 26 17 03
 -20114180.05709 -15673377.35708  21282777.53309  21282778.66008
 -16585855.80108 -12924033.48808  22015112.50708  22015113.46408
 -15962138.53708 -12438006.09508  22353611.86808  22353613.79508
    441133.21808    343741.45707  25429454.71608  25429459.13107
  -5783932.30608  -4506951.05408  24468535.86508  24468540.19908
  -3802449.70708  -2962943.81908  24614304.84108  24614308.00508
 -25975903.79809 -20240944.94909  20442240.32109  20442241.46609
 -15826030.42608 -12331962.29108  21882671.41108  21882673.67008
 93 07 24 00 07 00.0000000  0  7 22 28 23 16 21 17 03
 -20025664.63309 -15604404.33808  21299621.42709  21299622.56808
 -16755587.70108 -13056292.04908  21982813.56008  21982814.50708
 -16125903.59908 -12565615.12508  22322448.31608  22322450.26008
    645253.47308    502796.09707  25468297.55708  25468302.14207
  -6013996.82308  -4686221.88408  24424755.78808  24424760.14708
 -25895915.44409 -20178616.37809  20457461.63509  20457462.77009
 -15663942.65408 -12205660.19308  21913515.71408  21913517.97708
 93 07 24 00 08 00.0000000  0  7 22 28 23 16 21 17 03
 -19934933.10409 -15533704.48708  21316887.07809  21316888.25208
 -16924250.13508 -13187717.27908  21950718.13008  21950719.07808
 -16288069.25908 -12691977.87108  22291589.16408  22291591.08308
    850227.30707    662515.85207  25507302.84107  25507307.50407
  -6243844.74908  -4865323.91208  24381016.95908  24381021.20108
 -25814012.94309 -20114796.26209  20473047.16309  20473048.32809
 -15500662.03108 -12078428.59908  21944587.03308  21944589.28808
 93 07 24 00 09 00.0000000  0  8 22 28 23 16 21 31 17 03
 -19842030.86009 -15461313.17308  21334565.81509  21334567.00308
 -17091889.51408 -13318345.32108  21918817.38708  21918818.36008
 -16448700.86208 -12817145.27208  22261021.96708  22261023.81908
   1056040.63707    822889.75707  25546467.95107  25546472.55707
  -6473333.61508  -5044146.09008  24337346.39908  24337350.66108
        -0.02917         0.02218  25168068.01617  25168071.28118
 -25730178.70109 -20049470.89409  20489000.32709  20489001.49909
 -15336189.82908 -11950268.50408  21975885.06508  21975887.34308
 93 07 24 00 10 00.0000000  0  7 22 28 23 21 31 17 03
 -19747045.93509 -15387298.98808  21352640.85709  21352642.09908
 -17258520.70308 -13448187.75308  21887108.39508  21887109.29508
 -16607810.96508 -12941127.10608  22230744.24708  22230746.04508
  -6702405.30308  -5222643.11208  24293755.15708  24293759.29708
   -217173.92107   -169226.36708  25126741.17907  25126744.24308
 -25644389.35109 -19982622.06809  20505325.45109  20505326.64109
 -15170543.53108 -11821193.53608  22007406.58808  22007408.85308
 93 07 24 00 11 00.0000000  0  8 22 28 26 23 21 31 17 03
 -19650026.89409 -15311699.78708  21371103.02909  21371104.32208
 -17424165.86808 -13577261.85808  21855587.17208  21855588.10008
        -0.03318        -0.58718  24501239.02918  24501241.93718
 -16765386.13708 -13063912.90808  22200758.59308  22200760.42208
  -6931168.11908  -5400899.41708  24250222.59408  24250226.83908
   -434309.25207   -338422.65508  25085421.56307  25085424.64708
 -25556704.23109 -19914296.01709  20522011.37909  20522012.59109
 -15003778.47608 -11691246.81208  22039140.96308  22039143.27208
 93 07 24 00 12 00.0000000  0  8 22 28 26 23 21 31 17 03
 -19550865.86009 -15234431.50208  21389972.74709  21389974.00508
 -17588688.88508 -13705461.56108  21824279.34708  21824280.22308
   -114042.59308    -88864.83308  24479537.34808  24479540.30708
 -16921373.70908 -13185461.62408  22171075.01708  22171076.99608
  -7159639.19308  -5578928.39808  24206745.71308  24206749.85408
   -651354.57007   -507548.73107  25044119.18107  25044122.24307
 -25467115.78909 -19844486.86009  20539059.50109  20539060.73509
 -14835847.29408 -11560391.42208  22071097.28008  22071099.57708
 93 07 24 00 13 00.0000000  0  8 22 28 26 23 21 31 17 03
 -19449527.01109 -15155466.21808  21409256.95109  21409258.18208
 -17751980.42708 -13832701.67308  21793205.97608  21793206.81208
   -226355.48308   -176381.26108  24458164.89608  24458167.82608
 -17075805.50308 -13305798.02708  22141687.68508  22141689.62608
  -7387742.64108  -5756670.95808  24163338.73008  24163342.83508
   -868199.92307   -676518.94707  25002854.89107  25002857.78107
 -25375600.45309 -19773176.22809  20556474.32409  20556475.53809
 -14666722.79408 -11428606.17708  22103280.65008  22103282.96208
 93 07 24 00 14 00.0000000  0  8 22 28 26 23 21 31 17 03
 -19346058.79309 -15074841.67908  21428946.40109  21428947.64808
 -17914052.27408 -13958991.37608  21762364.79608  21762365.63908
   -336994.25408   -262593.17108  24437110.91408  24437113.80108
 -17228659.77908 -13424905.19808  22112600.41408  22112602.34508
  -7615413.64008  -5934076.57808  24120014.17608  24120018.25408
  -1084797.55307   -845296.13907  24961637.53407  24961640.46807
 -25282175.16509 -19700377.31809  20574252.57709  20574253.79209
 -14496452.88708 -11295928.40108  22135682.01708  22135684.33108
 93 07 24 00 15 00.0000000  0  8 22 28 26 23 21 31 17 03
 -19240546.02209 -14992623.98308  21449024.81109  21449026.05808
 -18074965.69008 -14084378.39708  21731743.95908  21731744.79408
   -445967.93608   -347507.57708  24416373.66308  24416376.59108
 -17379821.75608 -13542693.67208  22083835.24008  22083837.09508
  -7842628.29208  -6111126.64708  24076776.57108  24076780.37108
  -1301177.92907  -1013904.06907  24920461.47007  24920464.43207
 -25186839.20209 -19626089.57309  20592394.42109  20592395.63909
 -14325078.14308 -11162389.71808  22168293.57208  22168295.95908
 93 07 24 00 16 00.0000000  0  8 22 28 26 23 21 31 17 03
 -19133049.69409 -14908860.66308  21469480.74909  21469482.00408
 -18234803.16908 -14208927.03008  21701327.81008  21701328.60808
   -553225.66408   -431084.87408  24395963.20408  24395965.92308
 -17529242.30308 -13659125.18708  22055401.37808  22055403.21808
  -8069400.03008  -6287831.63908  24033623.13508  24033626.89708
  -1517476.33107  -1182448.12207  24879301.26607  24879304.15007
 -25089586.64809 -19550308.38009  20610900.96809  20610902.18909
 -14152615.40808 -11028003.24508  22201112.21508  22201114.60708
 93 07 24 00 17 00.0000000  0  8 22 28 26 23 21 31 17 03
 -19023537.03909 -14823526.18808  21490320.33309  21490321.59708
 -18393590.27408 -14332657.18608  21671111.56208  21671112.36208
   -658776.40608   -513332.07408  24375877.23208  24375879.98608
 -17676937.61508 -13774212.33708  22027295.80208  22027297.66108
  -8295772.13908  -6464225.26308  23990545.81208  23990549.44508
  -1733740.97608  -1350965.88307  24838147.32608  24838150.16807
 -24990486.15509 -19473087.24009  20629759.17309  20629760.41609
 -13979079.58008 -10892780.59908  22234134.99308  22234137.44508
 93 07 24 00 18 00.0000000  0  8 22 28 26 23 21 31 17 03
 -18911988.27708 -14736605.12708  21511547.38008  21511548.66908
 -18551247.78708 -14455507.13308  21641110.38208  21641111.15908
   -762624.04908   -594252.18208  24356115.62908  24356118.34408
 -17822936.58108 -13887977.65108  21999513.03708  21999514.79208
  -8521705.01408  -6640276.65508  23947552.00508  23947555.73108
  -1949896.85108  -1519398.88207  24797014.14508  24797016.98907
 -24889658.52709 -19394520.28309  20648946.08709  20648947.30909
 -13804467.57808 -10756719.38308  22267362.66908  22267365.12908
 93 07 24 00 19 00.0000000  0  8 22 28 26 23 21 31 17 03
 -18798400.74108 -14648095.42008  21533162.47808  21533163.71008
 -18707680.61308 -14577402.77708  21611342.10008  21611342.87908
   -864714.02308   -673802.68708  24336688.50408  24336691.21108
 -17967227.31208 -14000411.87408  21972055.33208  21972057.07808
  -8747148.25608  -6815946.50708  23904651.37808  23904654.99808
  -2165766.95508  -1687609.22907  24755935.31008  24755937.94207
 -24787126.14709 -19314624.95109  20668457.34609  20668458.60609
 -13628760.13508 -10619804.57908  22300798.74108  22300801.21808
 93 07 24 00 20 00.0000000  0  8 22 28 26 23 21 31 17 03
 -18682859.36408 -14558063.23908  21555149.27108  21555150.52408
 -18862914.42108 -14698364.13308  21581802.19608  21581802.97508
   -965030.30608   -751971.09508  24317598.79708  24317601.46308
 -18109767.88308 -14111482.33408  21944930.69208  21944932.42108
  -8972091.45308  -6991226.73708  23861845.97208  23861849.50508
  -2381294.37708  -1855552.57307  24714921.74208  24714924.56807
 -24682790.14409 -19233324.20209  20688311.87009  20688313.12809
 -13451970.85908 -10482046.79808  22334440.69308  22334443.18308
 93 07 24 00 21 00.0000000  0  8 22 28 26 23 21 31 17 03
 -18565298.27408 -14466457.24708  21577520.51508  21577521.78408
 -19016908.34308 -14818359.34808  21552497.92708  21552498.70408
  -1063477.03408   -828682.72508  24298864.96608  24298867.59408
 -18250516.56008 -14221156.53808  21918147.07608  21918148.77608
  -9196408.30108  -7166018.89308  23819159.63708  23819163.10308
  -2596471.55408  -2023223.01707  24673974.92008  24673977.61007
 -24576532.59309 -19150526.14109  20708532.05409  20708533.27109
 -13274042.57508 -10343401.46908  22368299.41608  22368301.86408
 93 07 24 00 22 00.0000000  0  8 22 28 26 23 21 31 17 03
 -18445748.85608 -14373301.92008  21600270.05608  21600271.32308
 -19169655.76308 -14937383.28208  21523431.14408  21523431.90408
  -1160096.78408   -903970.74708  24280478.81308  24280481.43008
 -18389549.01208 -14329493.42308  21891689.99408  21891691.60508
  -9420077.17608  -7340306.12108  23776596.65508  23776600.17608
  -2811450.12408  -2190738.70708  24633065.74708  24633068.44408
 -24468429.55609 -19066290.02909  20729103.35409  20729104.57109
 -13095033.73108 -10203914.14508  22402363.69008  22402366.21908
 93 07 24 00 23 00.0000000  0  8 22 28 26 23 21 31 17 03
 -18324270.87808 -14278643.82908  21623386.61608  21623387.83708
 -19321130.32708 -15055415.37408  21494606.42508  21494607.23808
  -1254926.96708   -977864.30408  24262433.24208  24262435.71508
 -18526884.30208 -14436507.85708  21865555.87108  21865557.52208
  -9643171.73108  -7514145.85208  23734143.10308  23734146.49808
  -3026336.48908  -2358182.51808  24592173.98008  24592176.74708
 -24358569.24309 -18980684.61009  20750009.11109  20750010.37309
 -12915019.32108 -10063643.27108  22436619.40008  22436621.91808
 93 07 24 00 24 00.0000000  0  8 22 28 26 23 21 31 17 03
 -18200861.34208 -14182480.62108  21646870.62308  21646871.90708
 -19471255.67208 -15172396.12508  21466038.58108  21466039.31608
  -1347872.47408  -1050289.28508  24244746.27508  24244748.72208
 -18662442.96208 -14542137.91608  21839759.83608  21839761.48108
  -9865692.94608  -7687538.79408  23691798.48408  23691801.90808
  -3240975.44408  -2525433.52808  24551329.50608  24551332.25008
 -24246954.35209 -18893711.99109  20771248.72709  20771249.98909
 -12733966.06008  -9922562.90708  22471072.79908  22471075.26008
 93 07 24 00 25 00.0000000  0  8 22 28 26 23 21 31 17 03
 -18075527.98108 -14084818.33708  21670720.86508  21670722.14108
 -19620127.01908 -15288399.72808  21437709.15808  21437709.93408
  -1438967.96308  -1121272.70308  24227411.30208  24227413.56308
 -18796242.67608 -14646397.37508  21814298.55408  21814300.17108
 -10087610.26808  -7860461.16608  23649568.93608  23649572.39108
  -3455299.22408  -2692438.93108  24510545.02808  24510547.84108
 -24133614.78609 -18805395.45909  20792816.59309  20792817.83009
 -12551901.58108  -9780694.57508  22505718.62808  22505721.10808
 93 07 24 00 26 00.0000000  0  8 22 28 26 23 21 31 17 03
 -17948238.37608 -13985631.70408  21694943.39208  21694944.72108
 -19767740.05208 -15403422.82508  21409619.20208  21409619.97108
  -1528245.36408  -1190839.42908  24210422.33108  24210424.65208
 -18928246.55508 -14749257.46708  21789178.97508  21789180.64808
 -10308861.63508  -8032864.62108  23607466.12208  23607469.40208
  -3669298.20108  -2859191.22808  24469822.08408  24469824.93208
 -24018560.68609 -18715742.93209  20814710.65709  20814711.93909
 -12368831.79008  -9638042.89008  22540555.64108  22540558.23008
 93 07 24 00 27 00.0000000  0  8 22 28 26 23 21 31 17 03
 -17819100.86408 -13885005.14708  21719517.44008  21719518.80208
 -19914075.06708 -15517450.06908  21381772.54208  21381773.25808
  -1615711.32408  -1258994.62908  24193777.93108  24193780.35908
 -19058390.87608 -14850668.56508  21764413.38408  21764414.89508
 -10529548.25308  -8204828.02808  23565470.63008  23565473.91208
  -3883049.56508  -3025750.56608  24429146.34608  24429149.18708
 -23901851.45608 -18624800.69209  20836919.65808  20836920.93909
 -12184816.81308  -9494654.70308  22575572.59208  22575575.26008
 93 07 24 00 28 00.0000000  0  8 22 28 26 23 21 31 17 03
 -17688182.54408 -13782990.94808  21744430.36908  21744431.79308
 -20059090.10308 -15630448.76308  21354177.23508  21354177.97908
  -1701242.35908  -1325642.09108  24177501.85808  24177504.29808
 -19186618.72908 -14950586.32108  21740012.36908  21740013.87308
 -10749684.14608  -8376362.30508  23523580.12908  23523583.33708
  -4096553.13108  -3192116.80108  24388517.81708  24388520.74608
 -23783542.12808 -18532611.63009  20859433.25308  20859434.51909
 -11999831.17108  -9350510.15808  22610774.28508  22610776.91008
 93 07 24 00 29 00.0000000  0  8 22 28 26 23 21 31 17 03
 -17555465.55108 -13679575.18108  21769685.73308  21769687.15008
 -20202850.69308 -15742469.96608  21326820.51208  21326821.22208
  -1784824.97908  -1390771.30708  24161596.47108  24161598.97508
 -19312964.44708 -15049037.46508  21715969.58708  21715971.08708
 -10969225.08608  -8547432.99608  23481802.72908  23481805.89008
  -4309787.93308  -3358273.60908  24347940.57308  24347943.43908
 -23663735.98308 -18439256.20709  20882231.62608  20882232.85509
 -11813883.06408  -9205615.62408  22646159.07608  22646161.76008
 93 07 24 00 30 00.0000000  0  8 22 28 26 23 21 31 17 03
 -17420783.17908 -13574627.95708  21795314.99008  21795316.42408
 -20345288.24908 -15853460.23208  21299715.35908  21299716.12108
  -1866422.36108  -1454353.59508  24146068.87308  24146071.41508
 -19437392.10608 -15145994.01808  21692291.65408  21692293.20108
 -11187931.54908  -8717853.46508  23440184.15108  23440187.28308
  -4522584.70308  -3524089.09508  24307446.63908  24307449.35708
 -23542306.89208 -18344636.15708  20905338.83008  20905340.05808
 -11626891.01208  -9059907.62808  22681742.56808  22681745.31408
 93 07 24 00 31 00.0000000  0  8 22 28 26 23 21 31 17 03
 -17284183.78808 -13468186.95408  21821309.05308  21821310.41908
 -20486366.59208 -15963391.37808  21272868.97408  21272869.70808
  -1946128.03008  -1516461.84508  24130901.24708  24130903.79508
 -19559934.07608 -15241481.20408  21668972.60008  21668974.16908
 -11405752.07408  -8887583.60308  23398734.25408  23398737.31708
  -4734966.74508  -3689581.42708  24267031.42408  24267034.05408
 -23419180.60408 -18248693.62008  20928769.03308  20928770.23208
 -11438923.68808  -8913439.68508  22717511.68508  22717514.42808
 93 07 24 00 32 00.0000000  0  8 22 28 26 23 21 31 17 03
 -17145834.23608 -13360382.18108  21847636.22608  21847637.68208
 -20626034.08008 -16072223.14808  21246291.19108  21246291.92308
  -2023875.00908  -1577043.85008  24116106.49108  24116108.99408
 -19680579.91108 -15335490.88708  21646014.41208  21646015.95608
 -11622775.37508  -9056692.56008  23357436.05008  23357439.08808
  -4947008.95208  -3854808.94208  24226681.17108  24226683.62608
 -23294333.17708 -18151409.93808  20952526.69708  20952527.92008
 -11250033.67208  -8766252.76508  22753456.27908  22753459.09808
 93 07 24 00 33 00.0000000  0  8 22 28 26 23 21 31 17 03
 -17005872.60008 -13251321.24708  21874269.99608  21874271.51508
 -20764286.65008 -16179952.39808  21219982.58308  21219983.31508
  -2099583.32708  -1636037.28608  24101699.74408  24101702.24408
 -19799347.89508 -15428037.30608  21623413.55108  21623415.03608
 -11839157.78808  -9225302.12008  23316259.79608  23316262.72608
  -5158807.93108  -4019846.94108  24186377.04408  24186379.36508
 -23167883.78208 -18052877.97208  20976589.23408  20976590.49508
 -11060243.05008  -8618364.08108  22789572.28408  22789575.12508
 93 07 24 00 34 00.0000000  0  8 22 28 26 23 21 31 17 03
 -16864241.79908 -13140959.66708  21901221.54108  21901223.04608
 -20901067.36209 -16286534.74008  21193954.00009  21193954.72208
  -2173300.19608  -1693478.93508  24087671.83008  24087674.34908
 -19916190.66608 -15519083.55208  21601179.04008  21601180.58208
 -12054891.90008  -9393406.51208  23275206.88908  23275209.76408
  -5370283.29808  -4184632.77808  24146134.40508  24146136.79708
 -23039928.11108 -17953172.29608  21000938.39808  21000939.68808
 -10869514.14508  -8469744.27108  22825866.87408  22825869.74108
 93 07 24 00 35 00.0000000  0  8 22 28 26 23 21 31 17 03
 -16720850.30208 -13029226.12008  21928508.08408  21928509.61108
 -21036363.18009 -16391960.02008  21168208.09709  21168208.80808
  -2245142.76908  -1749460.09208  24074000.52308  24074003.02208
 -20031057.99408 -15608590.51208  21579320.52408  21579321.95108
 -12269830.06408  -9560890.69508  23234305.46108  23234308.30908
  -5581324.65508  -4349080.43008  24105974.61008  24105976.97108
 -22910418.99608 -17852256.13508  21025583.23308  21025584.48308
 -10677831.38508  -8320381.19308  22862342.99608  22862345.95508
 93 07 24 00 36 00.0000000  0  8 22 28 26 23 21 31 17 03
 -16575529.11808 -12915988.92308  21956161.78408  21956163.35608
 -21170171.38009 -16496226.11608  21142745.02909  21142745.76508
  -2315032.76708  -1803919.76408  24060700.90608  24060703.36608
 -20143874.65808 -15696499.55308  21557852.21708  21557853.66408
 -12483805.73508  -9727624.85908  23193587.10008  23193590.01808
  -5791822.46308  -4513104.54408  24065918.09808  24065920.46408
 -22779198.10808 -17750006.12508  21050553.68508  21050554.97908
 -10485159.13408  -8170247.08608  22899007.34108  22899010.34808
 93 07 24 00 37 00.0000000  0  8 22 28 26 23 21 31 17 03
 -16426757.14008 -12800062.79508  21984472.29408  21984473.85908
 -21301045.26909 -16598205.73108  21117840.59309  21117841.25908
  -2381288.53908  -1855547.56908  24048092.73008  24048095.22108
 -20253092.00908 -15781603.93108  21537068.86808  21537070.31208
 -12695257.12508  -9892392.03308  23153349.07108  23153351.96908
  -6000308.21108  -4675560.82608  24026244.30108  24026246.60708
 -22644743.93508 -17645236.66908  21076139.51508  21076140.82608
 -10290020.31208  -8018190.97708  22936141.16408  22936144.13408
 93 07 24 00 38 00.0000000  0  8 22 28 26 23 21 31 17 03
 -16275370.06208 -12682098.93908  22013280.38408  22013281.99008
 -21429623.77109 -16698396.74609  21093373.06409  21093373.67409
  -2444559.66608  -1904849.66808  24036052.59808  24036054.99608
 -20359447.26308 -15864478.10508  21516830.03608  21516831.42708
 -12904955.50308 -10055793.21608  23113444.67908  23113447.49008
  -6207568.85608  -4837062.49408  23986803.85208  23986806.07308
 -22507907.83508 -17538611.16408  21102178.56608  21102179.90908
 -10093143.31108  -7864780.43208  22973605.69308  22973608.71008
 93 07 24 00 39 00.0000000  0  8 22 28 26 23 21 31 17 03
 -16124098.62508 -12564225.18408  22042066.43608  22042068.05708
 -21558395.93909 -16798738.66909  21068868.60209  21068869.20709
  -2507425.86408  -1953836.22508  24024089.59408  24024092.01008
 -20465572.27208 -15947172.87308  21496635.11808  21496636.48608
 -13115494.11008 -10219849.09108  23073380.35808  23073383.06708
  -6416128.23208  -4999576.15608  23947116.18008  23947118.30608
 -22371347.83208 -17432200.80108  21128165.07808  21128166.47708
  -9897092.54808  -7712013.72008  23010913.05208  23010916.02008
 93 07 24 00 40 00.0000000  0  8 22 28 26 23 21 31 17 03
 -15972727.48408 -12446273.74108  22070871.51808  22070873.15308
 -21687141.79309 -16899060.09009  21044369.10309  21044369.69309
  -2569690.55808  -2002354.06108  24012240.99808  24012243.33508
 -20571274.11608 -16029537.90108  21476520.70208  21476522.13708
 -13326572.32008 -10384325.43308  23033213.34008  23033216.09908
  -6625642.66608  -5162833.99608  23907246.73608  23907248.86008
 -22234821.38508 -17325816.58608  21154145.19508  21154146.60708
  -9701637.03708  -7559710.84208  23048107.11808  23048110.09308
 93 07 24 00 41 00.0000000  0  8 22 28 26 23 21 31 17 03
 -15820168.21608 -12327396.49008  22099902.65308  22099904.32908
 -21814908.36909 -16998618.44309  21020055.83809  21020056.42209
  -2630389.01908  -2049651.45608  24000690.47308  24000692.72408
 -20675481.00108 -16110738.03108  21456690.71108  21456692.14408
 -13537152.43008 -10548413.62708  22993141.13608  22993143.81808
  -6835104.14708  -5326050.55708  23867387.43908  23867389.50708
 -22097291.76408 -17218650.67708  21180316.26908  21180317.67608
  -9505823.34608  -7407128.86508  23085369.35808  23085372.32108
 93 07 24 00 42 00.0000000  0  8 22 26 23 21 31 17 03 28
 -15665425.56408 -12206817.89808  22129349.23908  22129350.93808
  -2688516.10508  -2094945.19408  23989628.94908  23989631.28108
 -20777099.37808 -16189921.15408  21437353.51108  21437354.86208
 -13746316.74808 -10711398.60908  22953338.25008  22953341.01508
  -7043601.93608  -5488516.18908  23827711.36208  23827713.52908
 -21957718.42408 -17109892.26008  21206876.18708  21206877.59908
  -9308680.06708  -7253510.84808  23122884.52508  23122887.54008
 -21940606.81409 -17096565.25809  20996136.21309  20996136.78509
 93 07 24 00 43 00.0000000  0  8 22 26 23 21 31 17 28 03
 -15508774.15208 -12084751.96408  22159159.12308  22159160.86608
  -2744272.91408  -2138391.97008  23979018.88508  23979021.09108
 -20876276.49508 -16267201.99208  21418480.58808  21418481.92008
 -13954297.10208 -10873461.04108  22913760.85008  22913763.52008
  -7251380.55608  -5650421.43108  23788172.33508  23788174.51008
 -21816323.33408 -16999714.30508  21233782.82408  21233784.25508
 -22064370.56709 -17193004.51709  20972584.66409  20972585.23609
  -9110404.18608  -7099010.29108  23160615.21308  23160618.31508
 93 07 24 00 44 00.0000000  0  8 22 26 23 21 31 17 28 03
 -15350386.46208 -11961333.07908  22189299.33108  22189301.05208
  -2797774.28608  -2180081.27208  23968837.84508  23968840.03808
 -20973202.43708 -16342728.67608  21400036.21508  21400037.49408
 -14161104.56808 -11034609.55808  22874406.47408  22874409.15708
  -7458516.17608  -5811825.64208  23748755.64208  23748757.80708
 -21673294.62608 -16888263.40308  21261000.33508  21261001.72908
 -22186396.62609 -17288089.72709  20949363.85409  20949364.41509
  -8911104.73908  -6943712.16308  23198540.74708  23198543.92408
 93 07 24 00 45 00.0000000  0  8 22 26 23 21 31 17 28 03
 -15190229.98108 -11836535.92308  22219776.15008  22219777.93508
  -2849028.11808  -2220019.25908  23959084.45608  23959086.68608
 -21067918.11508 -16416533.05708  21382012.38408  21382013.69008
 -14366659.66908 -11194782.20708  22835290.51008  22835293.20608
  -7664942.50908  -5972677.17408  23709473.91108  23709475.98408
 -21528723.99408 -16775611.00208  21288511.23408  21288512.64108
 -22306780.19309 -17381895.07309  20926455.61709  20926456.19309
  -8710794.34808  -6787626.28608  23236658.69508  23236661.82208
 93 07 24 00 46 00.0000000  0  8 22 26 23 21 31 17 28 03
 -15028408.08408 -11710441.02908  22250569.96508  22250571.76808
  -2898091.31508  -2258250.27008  23949748.06308  23949750.35508
 -21160455.68908 -16488640.22608  21364403.06108  21364404.32608
 -14571135.44708 -11354113.84308  22796379.93408  22796382.57908
  -7870686.91208  -6132997.35108  23670321.92008  23670323.96708
 -21382707.00708 -16661831.57608  21316297.37608  21316298.80008
 -22425579.79309 -17474466.16209  20903848.71609  20903849.31909
  -8509581.46808  -6630837.15908  23274948.32308  23274951.45608
 93 07 24 00 47 00.0000000  0  8 22 26 23 21 31 17 28 03
 -14864991.31708 -11583103.39308  22281667.13608  22281668.99008
  -2944828.46308  -2294668.77108  23940854.16608  23940856.38808
 -21250809.11608 -16559045.45408  21347209.36508  21347210.71608
 -14774592.52408 -11512651.69808  22757663.33108  22757665.84508
  -8075751.53808  -6292787.84908  23631299.25308  23631301.33008
 -21235216.28508 -16546903.78608  21344363.97708  21344365.37308
 -22542671.07209 -17565706.09509  20881567.05009  20881567.65909
  -8307470.97008  -6473348.59808  23313408.79708  23313411.98908
 93 07 24 00 48 00.0000000  0  8 22 26 23 21 31 17 28 03
 -14700112.05308 -11454626.15208  22313042.75608  22313044.64608
  -2989278.98108  -2329305.49308  23932395.52408  23932397.70008
 -21339056.93208 -16627809.95208  21330416.29908  21330417.59108
 -14976975.27908 -11670352.42108  22719151.08008  22719153.58808
  -8280244.36008  -6452132.79208  23592385.53708  23592387.51408
 -21086341.46108 -16430897.47708  21372693.95608  21372695.38008
 -22658032.78209 -17655598.31909  20859614.38609  20859614.98109
  -8104512.65208  -6315199.39908  23352030.55608  23352033.76908
 93 07 24 00 49 00.0000000  0  8 22 26 23 21 31 17 28 03
 -14533781.03108 -11325017.67208  22344694.60308  22344696.44408
  -3031576.36608  -2362264.45008  23924346.44308  23924348.66208
 -21425169.40008 -16694910.54808  21314029.56708  21314030.85908
 -15178196.89408 -11827148.36608  22680859.82108  22680862.28908
  -8484158.97808  -6611027.18008  23553581.88008  23553583.78108
 -20936135.88008 -16313854.21808  21401277.11108  21401278.56708
 -22771702.43709 -17744172.05709  20837983.74309  20837984.34309
  -7900729.79308  -6156407.70708  23390809.19908  23390812.47508
 93 07 24 00 50 00.0000000  0  8 22 26 23 21 31 17 28 03
 -14365913.77308 -11194212.13408  22376638.78908  22376640.66808
  -3071828.84108  -2393629.97008  23916686.76708  23916688.89108
 -21509038.35308 -16760262.94908  21298069.82808  21298071.14508
 -15378230.43808 -11983018.54408  22642794.59708  22642797.05208
  -8687432.17408  -6769421.74108  23514900.05808  23514901.99908
 -20784555.61608 -16195739.77808  21430121.88808  21430123.33708
 -22883703.07009 -17831445.25509  20816670.69609  20816671.28709
  -7696133.22408  -5996981.96108  23429742.79908  23429746.07508
 93 07 24 00 51 00.0000000  0  8 22 26 23 21 31 17 28 03
 -14196466.31408 -11062175.26808  22408883.65908  22408885.53308
  -3109998.91808  -2423372.84208  23909423.09908  23909425.30708
 -21590674.11208 -16823875.19508  21282534.99308  21282536.32608
 -15577098.09608 -12137980.25308  22604951.29208  22604953.72808
  -8890007.98008  -6927272.87708  23476351.10008  23476353.00808
 -20631523.52308 -16076494.04608  21459243.00508  21459244.49108
 -22994007.03709 -17917396.37809  20795680.47709  20795681.00209
  -7490750.91008  -5836943.93408  23468825.88808  23468829.24408
 93 07 24 00 52 00.0000000  0  8 22 26 23 21 31 17 28 03
 -14025476.35708 -10928936.45308  22441422.00108  22441423.89408
  -3145991.28108  -2451418.78408  23902574.02108  23902576.19208
 -21670209.87208 -16885851.07508  21267399.85008  21267401.18908
 -15774796.98308 -12292031.23108  22567330.39008  22567332.78408
  -9091930.51108  -7084614.96508  23437926.43608  23437928.32508
 -20477080.65508 -15956149.01208  21488632.51408  21488634.03108
 -23102545.73909 -18001971.97109  20775026.28909  20775026.87409
  -7284614.03508  -5676317.94508  23508052.53208  23508055.94908
 93 07 24 00 53 00.0000000  0  8 22 26 23 21 31 28 17 03
 -13853022.21208 -10794556.71308  22474238.94808  22474240.92308
  -3179688.11808  -2477676.00208  23896161.53208  23896163.76708
 -21747703.40208 -16946235.60408  21252653.24308  21252654.56508
 -15971336.54808 -12445178.85108  22529930.02108  22529932.41008
  -9293185.01108  -7241436.52308  23399628.86308  23399630.70508
 -23209336.54809 -18085185.57509  20754704.72209  20754705.31309
 -20321274.09208 -15834741.35908  21518281.61608  21518283.12408
  -7077713.88308  -5515097.19608  23547424.38808  23547427.88308
 93 07 24 00 54 00.0000000  0  8 22 26 23 21 31 28 17 03
 -13679247.58408 -10659148.00608  22507307.26708  22507309.21708
  -3211141.96808  -2502185.43708  23890176.05608  23890178.27308
 -21823121.20208 -17005002.69408  21238301.74508  21238303.04408
 -16166746.40208 -12597446.16308  22492744.59808  22492746.99308
  -9493846.16508  -7397795.74608  23361444.23008  23361445.98108
 -23314572.05409 -18167187.25609  20734679.11009  20734679.71009
 -20164241.14108 -15712378.07408  21548164.03108  21548165.58708
  -6870120.80208  -5353336.51808  23586928.18408  23586931.69908
 93 07 24 00 55 00.0000000  0  8 22 26 23 21 31 28 17 03
 -13504136.37308 -10522697.80808  22540629.85508  22540631.87608
  -3240400.30108  -2524984.09108  23884608.41108  23884610.55108
 -21896314.66508 -17062036.52608  21224373.46408  21224374.76008
 -16360927.56608 -12748756.06408  22455793.23308  22455795.50208
  -9693901.29308  -7553682.74708  23323374.99008  23323376.68308
 -23418185.46209 -18247924.96609  20714961.98909  20714962.56909
 -20006001.27308 -15589074.33608  21578276.11508  21578277.72308
  -6661790.01008  -5191000.99908  23626572.33008  23626575.89008
 93 07 24 00 56 00.0000000  0  8 22 26 23 21 31 28 17 03
 -13327669.17208 -10385191.06208  22574210.56608  22574212.69208
  -3267492.81208  -2546095.09808  23879452.99308  23879455.02708
 -21967272.50808 -17117328.31708  21210870.61308  21210871.89008
 -16553825.47308 -12899066.01508  22419085.88008  22419088.08608
  -9893279.10908  -7709041.97008  23285434.55308  23285436.25108
 -23520017.84809 -18327274.85609  20695583.93809  20695584.55209
 -19846497.92508 -15464786.06708  21608628.58908  21608630.22308
  -6452709.87108  -5028081.57308  23666359.07808  23666362.64108
 93 07 24 00 57 00.0000000  0  8 22 26 23 21 31 28 17 03
 -13149911.68708 -10246678.87808  22608036.79408  22608038.93808
  -3292369.12808  -2565479.21008  23874719.23708  23874721.16708
 -22036068.58008 -17170935.61908  21197779.09208  21197780.38208
 -16745528.54508 -13048444.91408  22382605.86508  22382608.10708
 -10091912.24608  -7863820.91708  23247635.80208  23247637.48408
 -23619980.62309 -18405167.90209  20676561.68509  20676562.29409
 -19685740.45308 -15339520.55408  21639219.81308  21639221.40208
  -6242918.94608  -4864608.29308  23706281.02308  23706284.66108
 93 07 24 00 58 00.0000000  0  8 22 26 23 21 31 28 17 03
 -12970824.85708 -10107130.83408  22642115.95908  22642118.16208
  -3314936.52008  -2583064.16208  23870424.71108  23870426.74708
 -22102674.58908 -17222836.38408  21185104.43108  21185105.72808
 -16936045.33108 -13196899.42708  22346351.64708  22346353.80308
 -10289725.77008  -8017961.21108  23209993.10408  23209994.62808
 -23718086.40309 -18481613.94509  20657892.73009  20657893.29209
 -19523721.41208 -15213271.99408  21670051.08008  21670052.66308
  -6032407.16308  -4700573.31008  23746340.14208  23746343.93908
 93 07 24 00 59 00.0000000  0  8 22 26 23 21 31 28 17 03
 -12790339.71508  -9966493.20608  22676461.27708  22676463.50808
  -3335222.81408  -2598871.63308  23866564.40808  23866566.32808
 -22167038.93608 -17272990.40608  21172856.36808  21172857.62508
 -17125265.05508 -13344343.24008  22310344.19608  22310346.35808
 -10486748.40608  -8171485.24508  23172500.96608  23172502.38908
 -23814421.39409 -18556680.15709  20639560.76909  20639561.31809
 -19360452.92208 -15086049.83908  21701120.07008  21701121.67608
  -5821187.08908  -4535986.41808  23786534.12908  23786537.89608
 93 07 24 01 00 00.0000000  0  8 22 26 23 21 31 28 17 03
 -12608490.34908  -9824792.54008  22711066.22808  22711068.40908
  -3353327.16208  -2612978.88508  23863119.15708  23863121.11708
 -22229187.87909 -17321418.14308  21161029.79509  21161031.03508
 -17313147.71908 -13490745.18008  22274591.20808  22274593.35308
 -10683069.35008  -8324462.52408  23135142.19208  23135143.66508
 -23909073.69309 -18630435.17509  20621549.00209  20621549.56409
 -19195986.53108 -14957894.25508  21732416.99308  21732418.56308
  -5609319.20608  -4370894.73108  23826851.38808  23826855.13208
 93 07 24 01 01 00.0000000  0  8 22 26 23 21 31 28 17 03
 -12425370.63308  -9682101.98608  22745912.83508  22745915.05708
  -3369187.56108  -2625337.59308  23860100.89508  23860102.91908
 -22289119.97309 -17368118.46108  21149625.05309  21149626.24708
 -17499670.76808 -13636087.67208  22239096.89508  22239099.02708
 -10878666.58408  -8476875.87508  23097921.08708  23097922.66008
 -24001962.37709 -18702815.95009  20603872.95409  20603873.49509
 -19030284.05508 -14828775.48708  21763949.15208  21763950.75808
  -5396778.20708  -4205278.54408  23867296.83608  23867300.56208
 93 07 24 01 02 00.0000000  0  8 22 26 23 21 31 28 17 03
 -12241108.25408  -9538521.04808  22780976.99008  22780979.26208
  -3382781.40308  -2635930.14308  23857514.12508  23857516.07008
 -22346897.13709 -17413139.61308  21138630.40209  21138631.60608
 -17684951.08808 -13780461.81608  22203839.19308  22203841.28408
 -11073562.44508  -8628742.69808  23060833.70608  23060835.19008
 -24093052.68009 -18773795.38909  20586538.99309  20586539.53209
 -18863443.73808 -14698770.08908  21795697.84708  21795699.43108
  -5183604.00208  -4039168.93208  23907862.64008  23907866.43408
 93 07 24 01 03 00.0000000  0  8 23 22 26 21 31 28 17 03
 -22402417.30909 -17456402.06608  21128065.24509  21128066.42908
 -12055694.12108  -9394042.63708  22816260.22808  22816262.54108
  -3394106.27508  -2644754.67208  23855359.02708  23855360.99408
 -17868882.88008 -13923785.16108  22168838.01408  22168840.08008
 -11267636.24508  -8779968.95308  23023902.52908  23023903.99508
 -24182258.88509 -18843306.69909  20569563.56909  20569564.09009
 -18695480.32108 -14567889.54408  21827660.22408  21827661.81908
  -4969774.71108  -3872548.89608  23948553.08008  23948557.03608
 93 07 24 01 04 00.0000000  0  8 23 22 26 21 31 28 17 03
 -22455612.36109 -17497852.73508  21117942.53109  21117943.74608
 -11869112.18108  -9248654.24808  22851765.66708  22851767.95608
  -3403208.99408  -2651847.65408  23853626.75308  23853628.69308
 -18051354.60508 -14065970.81508  22134114.85608  22134116.85808
 -11460868.59308  -8930539.53408  22987131.58708  22987132.94808
 -24269568.69509 -18911340.30509  20552949.16809  20552949.67109
 -18526404.75508 -14436142.39208  21859834.26208  21859835.86108
  -4755291.64108  -3705419.40908  23989368.02308  23989371.91308
 93 07 24 01 05 00.0000000  0  8 23 22 26 21 31 28 17 03
 -22506587.08409 -17537573.27008  21108242.36409  21108243.55308
 -11681371.58108  -9102363.01408  22887491.56508  22887493.97308
  -3410153.21908  -2657258.72008  23852305.36208  23852307.26808
 -18232395.81508 -14207041.76608  22099663.71408  22099665.75708
 -11653294.93908  -9080482.06308  22950514.00808  22950515.45108
 -24355049.87709 -18977949.00809  20536682.50909  20536682.98709
 -18356228.77108 -14303537.77408  21892217.77208  21892219.37108
  -4540193.76308  -3537810.86208  24030299.92708  24030303.85408
 93 07 24 01 06 00.0000000  0  8 23 22 26 21 31 28 17 03
 -22555422.55509 -17575626.85708  21098949.26709  21098950.45008
 -11492510.45508  -8955198.65108  22923430.81108  22923433.27608
  -3414928.37108  -2660979.59208  23851396.63908  23851398.54508
 -18412059.53108 -14347039.36708  22065474.77408  22065476.77408
 -11844891.83508  -9229778.25208  22914054.27708  22914055.80908
 -24438712.95609 -19043141.00909  20520762.06709  20520762.52009
 -18184965.91608 -14170086.24208  21924808.06608  21924809.66808
  -4324484.99208  -3369726.29108  24071348.19208  24071352.09508
 93 07 24 01 07 00.0000000  0  8 23 22 26 21 31 28 17 03
 -22602060.81309 -17611968.32608  21090074.26909  21090075.43108
 -11302485.69108  -8807127.55508  22959591.42208  22959593.89908
  -3417425.78008  -2662925.59308  23850921.42108  23850923.25708
 -18590330.03108 -14485951.36108  22031550.96308  22031552.92908
 -12035543.39108  -9378337.81308  22877774.45908  22877775.85308
 -24520495.70809 -19106867.81609  20505199.27409  20505199.75909
 -18012622.37108 -14035792.61708  21957603.95508  21957605.52508
  -4108131.60808  -3201139.42508  24112518.98808  24112522.91108
 93 07 24 01 08 00.0000000  0  8 23 22 26 21 31 28 17 03
 -22646417.02309 -17646531.57808  21081633.57809  21081634.71608
 -11111286.02908  -8658140.95308  22995975.58908  22995978.17708
  -3417568.76708  -2663036.99808  23850894.14008  23850896.08308
 -18767174.25708 -14623751.99408  21997898.54908  21997900.47008
 -12225244.37108  -9526156.67608  22841675.54308  22841676.95908
 -24600338.91609 -19169083.28609  20490005.35109  20490005.83709
 -17839159.18008 -13900626.53408  21990612.98408  21990614.56008
  -3891144.53908  -3032058.78308  24153810.36908  24153814.46808
 93 07 24 01 09 00.0000000  0  8 23 22 26 21 28 31 17 03
 -22688478.25809 -17679306.53708  21073629.57409  21073630.71108
 -10918930.55608  -8508253.72008  23032579.72308  23032582.32808
  -3415376.87708  -2661329.01408  23851311.26108  23851313.21508
 -18942527.07508 -14760390.46808  21964529.91808  21964531.81808
 -24678182.28609 -19229740.44109  20475192.35609  20475192.81609
 -12414028.37608  -9673261.00008  22805751.03308  22805752.55108
 -17664512.10708 -13764537.94908  22023847.24608  22023848.89308
  -3673547.44908  -2862502.81508  24195217.91408  24195222.02708
 93 07 24 01 10 00.0000000  0  8 23 22 26 21 28 31 17 03
 -22728270.70109 -17710313.60508  21066057.33509  21066058.50708
 -10725500.86908  -8357529.44108  23069388.29808  23069390.83108
  -3410994.06908  -2657913.80108  23852145.27408  23852147.22908
 -19116355.08008 -14895840.77708  21931451.44508  21931453.33908
 -24754039.13009 -19288849.65609  20460757.36609  20460757.84109
 -12601990.65008  -9819725.03008  22769982.98708  22769984.31808
 -17488771.37508 -13627597.16508  22057289.55908  22057291.26508
  -3455390.84708  -2692510.86508  24236731.86308  24236736.07308
 93 07 24 01 11 00.0000000  0  8 23 22 26 21 28 31 17 03
 -22765806.97509 -17739562.62208  21058914.35109  21058915.46208
 -10531019.45708  -8205985.62608  23106396.89608  23106399.51708
  -3404411.52008  -2652784.51108  23853397.87208  23853399.78108
 -19288686.29008 -15030124.76808  21898657.91908  21898659.83308
 -24827934.83609 -19346430.71609  20446695.47809  20446695.95209
 -12789092.28808  -9965518.43108  22734378.65808  22734380.01608
 -17312071.27108 -13489908.82508  22090914.51108  22090916.27608
  -3236676.46408  -2522084.29008  24278351.83308  24278356.27508
 93 07 24 01 12 00.0000000  0  8 23 22 26 21 28 31 17 03
 -22801112.90209 -17767073.71008  21052195.84009  21052196.98308
 -10335468.84908  -8053608.68208  23143609.10708  23143611.75208
  -3395560.90308  -2645887.89208  23855082.03208  23855083.92908
 -19459537.97208 -15163255.88508  21866145.86508  21866147.75208
 -24899982.55409 -19402571.78609  20432985.17509  20432985.63109
 -12975246.00008 -10110573.19908  22698954.76208  22698956.11908
 -17134435.36008 -13351491.28708  22124717.55008  22124719.35108
  -3017402.92307  -2351222.00008  24320078.33307  24320082.75508
 93 07 24 01 13 00.0000000  0  8 23 22 26 21 28 31 17 03
 -22834102.07009 -17792779.53208  21045918.15409  21045919.29608
 -10138857.67508  -7900405.33708  23181023.08308  23181025.75708
  -3384359.39208  -2637159.41008  23857213.62308  23857215.53708
 -19628843.41608 -15295182.13808  21833928.04808  21833929.87308
 -24970167.96709 -19457261.70909  20419629.37309  20419629.83809
 -13160357.86508 -10254816.12908  22663729.02608  22663730.34608
 -16955757.60008 -13212261.91508  22158718.91308  22158720.66808
  -2797533.02907  -2179895.06108  24361918.27207  24361922.84708
 93 07 24 01 14 00.0000000  0  8 23 22 26 28 21 31 17 03
 -22864849.88209 -17816738.84409  21040067.05209  21040068.19309
  -9941296.37808  -7746461.63708  23218617.88508  23218620.67408
  -3370878.11708  -2626654.49008  23859779.02108  23859780.89808
 -25038363.59509 -19510401.14809  20406652.23009  20406652.70509
 -19796544.83808 -15425858.50608  21802015.51608  21802017.26408
 -13344458.55308 -10398271.12808  22628695.78308  22628697.02108
 -16776060.00808 -13072237.87508  22192914.12308  22192915.91908
  -2577102.88908  -2008131.53908  24403864.93308  24403869.45108
 93 07 24 01 15 00.0000000  0  8 23 22 26 21 28 31 17 03
 -22893352.75209 -17838948.84909  21034643.05709  21034644.27209
  -9742772.34008  -7591767.75008  23256395.86308  23256398.65308
  -3355085.47808  -2614348.53108  23862784.25408  23862786.10408
 -19962624.98208 -15555271.52708  21770411.41308  21770413.24608
 -25104455.49309 -19561901.31709  20394075.31109  20394075.78209
 -13527571.39608 -10540956.38608  22593850.49208  22593851.69008
 -16595292.62108 -12931380.22808  22227313.07408  22227314.85508
  -2356092.80608  -1835916.10208  24445921.97308  24445926.56608
 93 07 24 01 16 00.0000000  0  8 22 26 23 21 28 31 17 03
  -9543319.54808  -7436350.16208  23294350.50408  23294353.36308
  -3336987.61308  -2600246.27508  23866227.97508  23866229.72308
 -22919623.18209 -17859419.29509  21029643.93709  21029645.15209
 -20127127.96008 -15683455.59308  21739107.45608  21739109.32308
 -25168501.68309 -19611807.42909  20381887.67209  20381888.12709
 -13709649.84508 -10682835.62408  22559202.01908  22559203.16708
 -16413428.92108 -12789668.31308  22261920.65008  22261922.45608
  -2134522.23008  -1663263.91708  24488085.69208  24488090.22608
 93 07 24 01 17 00.0000000  0  8 22 26 23 21 28 31 17 03
  -9342904.73108  -7280182.95408  23332488.37408  23332491.24808
  -3316668.62408  -2584413.29508  23870094.70408  23870096.43708
 -22943607.19809 -17878108.11909  21025079.92209  21025081.11809
 -20290002.31508 -15810370.59408  21708113.39608  21708115.20808
 -25230556.86709 -19660162.10809  20370079.03209  20370079.46509
 -13890634.44008 -10823862.50408  22524761.75608  22524762.85208
 -16230492.48608 -12647120.50708  22296732.36908  22296734.11508
  -1912422.15408  -1490199.13508  24530350.16308  24530354.69908
 93 07 24 01 18 00.0000000  0  8 22 26 23 21 28 31 17 03
  -9141573.15508  -7123301.40308  23370800.73108  23370803.56408
  -3294161.83008  -2566875.53608  23874377.62008  23874379.37008
 -22965199.19209 -17894933.03208  21020971.11109  21020972.25208
 -20451201.31108 -15935980.12108  21677438.23008  21677440.04908
 -25290506.36009 -19706875.98809  20358670.97109  20358671.40209
 -14070497.39308 -10964015.38508  22490535.00208  22490536.11608
 -16046604.70708 -12503831.39108  22331725.15008  22331726.85108
  -1689815.95208  -1316739.96807  24572710.86708  24572715.42707
 93 07 24 01 19 00.0000000  0  8 22 26 23 21 28 31 17 03
  -8939401.51708  -6965765.25108  23409272.81508  23409275.77308
  -3269389.16308  -2547572.14708  23879091.66208  23879093.41808
 -22984349.22509 -17909855.12408  21017327.00109  21017328.10508
 -20610769.61008 -16060319.00308  21647073.35508  21647075.16708
 -25348323.34809 -19751928.17609  20347668.80009  20347669.21209
 -14249334.68008 -11103369.05108  22456503.25208  22456504.31308
 -15861954.59508 -12359948.25108  22366862.98008  22366864.72208
  -1466741.95108  -1142916.26507  24615160.62408  24615165.29707
 93 07 24 01 20 00.0000000  0  8 22 26 23 21 28 31 17 03
  -8736458.00608  -6807627.64308  23447891.90808  23447894.83408
  -3242316.14408  -2526476.28308  23884243.44908  23884245.22108
 -23001138.88709 -17922937.96408  21014132.00109  21014133.13208
 -20768730.39708 -16183405.27208  21617014.40408  21617016.16208
 -25404160.07009 -19795437.29909  20337043.40409  20337043.80909
 -14427216.26108 -11241978.01108  22422653.41908  22422654.54408
 -15676545.97008 -12215474.07508  22402145.02508  22402146.82108
  -1243211.79508   -968737.13707  24657697.16608  24657701.78607
 93 07 24 01 21 00.0000000  0  8 22 26 23 21 28 31 17 03
  -8532694.70708  -6648851.24708  23486666.94908  23486669.88208
  -3212982.04608  -2503618.53908  23889825.45608  23889827.32708
 -23015752.21709 -17934324.96108  21011351.17609  21011352.28008
 -20925028.24708 -16305195.73608  21587271.84808  21587273.57008
 -25458052.32609 -19837431.25809  20326788.00309  20326788.43009
 -14604050.23608 -11379770.66208  22389002.99408  22389004.17508
 -15490186.06508 -12070258.64508  22437608.18308  22437610.01308
  -1019202.21108   -794184.40007  24700324.85508  24700329.65807
 93 07 24 01 22 00.0000000  0  8 22 26 23 21 28 31 17 03
  -8328042.67408  -6489382.33208  23525611.13108  23525614.08108
  -3181457.29208  -2479053.79108  23895824.56008  23895826.37808
 -23028251.81409 -17944064.89308  21008972.56709  21008973.66208
 -21079641.28708 -16425673.34808  21557849.97008  21557851.61708
 -25509941.82809 -19877864.62709  20316913.81909  20316914.25509
 -14779747.46508 -11516677.52608  22355568.88908  22355570.04308
 -15302859.08508 -11924289.64608  22473255.33008  22473257.19608
   -794703.85708   -619250.77307  24743045.62208  24743050.32507
 93 07 24 01 23 00.0000000  0  8 22 26 23 21 28 31 17 03
  -8122551.16908  -6329259.28008  23564715.01508  23564717.98608
  -3147687.48408  -2452739.66708  23902250.63908  23902252.49608
 -23038490.65209 -17952043.19308  21007024.17209  21007025.25308
 -21232556.85408 -16544828.24108  21528750.99508  21528752.64608
 -25559734.62709 -19916664.20009  20307438.52609  20307438.95909
 -14954241.91608 -11652647.17008  22322363.60708  22322364.72508
 -15114706.81808 -11777677.56508  22509059.69308  22509061.54008
   -569715.88908   -443935.66907  24785859.49008  24785864.33907
 93 07 24 01 24 00.0000000  0  8 22 26 23 21 28 31 17 03
  -7916227.36908  -6168487.67308  23603977.18308  23603980.30208
  -3111519.24908  -2424556.63208  23909133.21508  23909135.07608
 -23046310.24509 -17958136.36608  21005536.13509  21005537.20408
 -21383678.57108 -16662585.34308  21499993.40208  21499995.10008
 -25607356.13809 -19953771.86109  20298376.37409  20298376.78409
 -15127493.68108 -11787648.48808  22289394.88508  22289395.99708
 -14925769.43508 -11630453.70808  22545013.31508  22545015.21808
   -344220.42007   -268225.07407  24828770.05507  24828774.84107
 93 07 24 01 25 00.0000000  0  8 22 26 23 21 28 31 17 03
  -7709109.64308  -6007097.42908  23643390.52808  23643393.63508
  -3072953.75808  -2394505.61508  23916472.08008  23916473.85708
 -23051781.62609 -17962399.76108  21004494.99709  21004496.05808
 -21532997.90008 -16778938.00208  21471578.80008  21471580.42408
 -25652784.53709 -19989170.61009  20289731.72509  20289732.12209
 -15299535.84508 -11921707.24908  22256656.35508  22256657.45508
 -14735944.89808 -11482538.56508  22581135.74608  22581137.75608
   -118269.63707    -92159.68307  24871767.01007  24871771.98907
 93 07 24 01 26 00.0000000  0  8 22 26 23 21 28 31 17 03
  -7501285.22408  -5845156.50808  23682938.37008  23682941.52608
  -3032197.38008  -2362747.40208  23924227.70708  23924229.53608
 -23055091.58909 -17964978.93608  21003865.01509  21003866.14708
 -21680599.93308 -16893952.48508  21443491.06508  21443492.68608
 -25696065.42609 -20022895.97009  20281495.62109  20281496.01409
 -15470458.00008 -12054893.29708  22224130.90508  22224131.96408
 -14545196.65608 -11333903.65308  22617433.97908  22617436.00308
    108034.65207     84181.15007  24914831.37807  24914836.59607
 93 07 24 01 27 00.0000000  0  8 22 26 23 21 28 31 17 03
  -7292793.34208  -5682695.49108  23722613.07908  23722616.33308
  -2989367.91208  -2329373.79408  23932377.90208  23932379.73508
 -23056303.22709 -17965923.05908  21003634.46609  21003635.58208
 -21826508.92808 -17007647.72208  21415725.40808  21415727.01008
 -25737258.45109 -20054994.42509  20273656.76309  20273657.15709
 -15640277.52308 -12187220.15808  22191815.20508  22191816.29908
 -14353530.24708 -11184553.28308  22653906.99308  22653908.99108
    334691.39907    260796.57307  24957962.84507  24957968.14707
 93 07 24 01 28 00.0000000  0  8 22 26 23 28 21 31 17 03
  -7083644.10508  -5519722.25108  23762413.02808  23762416.46408
  -2944418.84908  -2294348.56208  23940931.46108  23940933.27108
 -23055419.98909 -17965234.81108  21003802.55909  21003803.69808
 -25776435.81509 -20085522.23609  20266201.55309  20266201.94309
 -21970700.66908 -17120004.84408  21388286.56108  21388288.14008
 -15808950.63008 -12318653.68708  22159717.79108  22159718.86108
 -14161047.61808 -11034566.89808  22690535.24308  22690537.28608
    561737.08107    437715.06607  25001168.41407  25001173.63307
 93 07 24 01 29 00.0000000  0  8 23 22 26 28 21 31 17 03
 -23052303.03309 -17962806.00108  21004395.68309  21004396.80108
  -6873800.75308  -5356208.16208  23802345.02208  23802348.43108
  -2897201.13208  -2257555.54208  23949916.69508  23949918.59408
 -25813534.87209 -20114430.59009  20259141.96009  20259142.36009
 -22113095.30408 -17230961.62008  21361189.74608  21361191.28808
 -15976384.41108 -12449121.52508  22127856.23808  22127857.29108
 -13967825.05808 -10884003.94408  22727304.41808  22727306.41108
    789221.87707    614975.79008  25044457.44307  25044462.74508
 93 07 24 01 30 00.0000000  0  7 21 22 26 28 31 17 03
 -22253560.52708 -17340414.95208  21334460.07108  21334461.57108
  -6663259.31108  -5192150.11108  23842409.86508  23842413.36308
  -2847671.20908  -2218960.81308  23959341.91308  23959343.80708
 -25848400.38709 -20141598.52309  20252507.10109  20252507.52509
 -16142520.00308 -12578577.78308  22096241.59008  22096242.62408
 -13773867.01608 -10732867.88708  22764213.54508  22764215.46208
   1017160.72007    792590.31208  25087833.06907  25087838.19308
 93 07 24 01 31 00.0000000  0  8 23 22 26 28 21 31 17 03
         0.12219        -0.12118  21006938.65119  21006939.73218
  -6452130.72408  -5027634.53608  23882586.39908  23882590.01408
  -2795898.60408  -2178618.53108  23969193.96108  23969195.85008
 -25881020.84309 -20167017.05909  20246299.60809  20246300.04209
 -22392073.25708 -17448346.88108  21308101.92008  21308103.39108
 -16307328.60608 -12707000.01408  22064879.46708  22064880.60308
 -13579181.40508 -10581164.88808  22801260.92208  22801262.95208
   1245493.98108    970512.16808  25131283.52308  25131288.73908
 93 07 24 01 32 00.0000000  0  8 23 22 26 28 21 31 17 03
     10193.96409      7943.14808  21008878.43909  21008879.52908
  -6240467.42408  -4862702.30408  23922864.72208  23922868.37408
  -2741921.20208  -2136558.24508  23979465.53708  23979467.46608
 -25911420.17909 -20190704.84709  20240514.99909  20240515.41109
 -22528671.09208 -17554786.68508  21282108.14608  21282109.68708
 -16470758.98108 -12834348.29108  22033779.68708  22033780.84408
 -13383732.11408 -10428866.81708  22838453.74508  22838455.79608
   1474186.15608   1148713.74208  25174802.22908  25174807.53208
 93 07 24 01 33 00.0000000  0  8 23 22 26 21 28 31 17 03
     22732.00209     17713.06008  21011264.30609  21011265.41708
  -6028244.36208  -4697333.89908  23963249.60208  23963253.45308
  -2685752.35808  -2092790.34408  23990153.97008  23990155.96908
 -22663451.07108 -17659809.98208  21256460.32308  21256461.82508
 -25939627.06309 -20212684.23909  20235147.30209  20235147.71109
 -16632847.64208 -12960651.08108  22002935.18108  22002936.23708
 -13187484.69608 -10275946.83208  22875798.37208  22875800.55708
   1703230.39008   1327189.66507  25218387.95908  25218393.30307
 93 07 24 01 34 00.0000000  0  8 23 21 22 28 26 31 17 03
     37559.75309     29267.16208  21014085.94009  21014087.03708
 -22796487.75408 -17763474.86408  21231144.16708  21231145.67808
  -5815497.64908  -4531557.46808  24003733.93708  24003737.87808
 -25965684.00309 -20232988.35109  20230188.90609  20230189.32209
  -2627467.01608  -2047373.22408  24001245.45708  24001247.45208
 -16793726.04708 -13086010.81308  21972321.05008  21972322.05408
 -12990491.71908 -10122445.89208  22913284.94508  22913287.07408
   1932579.84608   1505903.43907  25262031.84408  25262037.06707
 93 07 24 01 35 00.0000000  0  8 23 21 22 28 26 31 17 03
     54543.43408     42501.20908  21017317.78108  21017318.85608
 -22927719.02108 -17865732.94208  21206171.63508  21206173.10108
  -5602194.67108  -4365347.57108  24044324.25308  24044328.34208
 -25989598.62809 -20251623.12209  20225638.05709  20225638.45909
  -2567110.16108  -2000341.94008  24012730.85008  24012732.87308
 -16953367.76308 -13210406.89108  21941942.23308  21941943.21008
 -12792804.73308  -9968404.16508  22950903.53108  22950905.76408
   2162229.96608   1684851.52008  25305732.83208  25305738.09208
 93 07 24 01 36 00.0000000  0  8 23 21 22 28 26 31 17 03
     73589.91008     57342.62908  21020942.16708  21020943.28208
 -23057066.74908 -17966523.33208  21181557.53908  21181559.00708
  -5388322.43408  -4198694.11608  24085023.12908  24085027.13608
 -26011343.80809 -20268567.41709  20221500.18809  20221500.56809
  -2504678.01108  -1951693.54008  24024611.34808  24024613.36208
 -17111679.84608 -13333766.88908  21911816.35108  21911817.38208
 -12594463.00208  -9813852.24908  22988646.77008  22988649.03608
   2392210.67708   1864057.22807  25349496.73008  25349502.03407
 93 07 24 01 37 00.0000000  0  8 23 21 22 28 26 31 17 03
     94798.86008     73869.09408  21024978.07508  21024979.22008
 -23184485.99108 -18065810.99308  21157310.41708  21157311.86708
  -5173854.69008  -4031576.63808  24125835.07808  24125839.17808
 -26030868.95409 -20283781.81709  20217784.61209  20217784.98209
  -2440043.82608  -1901329.27108  24036910.80608  24036912.86508
 -17268598.73508 -13456041.28208  21881955.56108  21881956.57508
 -12395428.93508  -9658760.85308  23026521.83708  23026524.04708
   2622573.91308   2043561.01207  25393333.50108  25393338.76107
 93 07 24 01 38 00.0000000  0  8 23 21 22 28 26 31 17 03
    118316.27508     92194.36408  21029453.28108  21029454.41108
 -23310002.63108 -18163616.11108  21133425.34908  21133426.80508
  -4958883.37308  -3864066.76808  24166743.14908  24166747.08208
 -26048163.89009 -20297258.38809  20214493.59709  20214493.99009
  -2373127.11708  -1849186.41708  24049644.63408  24049646.67008
 -17424143.01908 -13577244.55708  21852356.49108  21852357.47408
 -12195697.53608  -9503126.08308  23064529.48708  23064531.80008
   2853296.17007   2223344.53007  25437238.49407  25437243.70807
 93 07 24 01 39 00.0000000  0  8 23 21 22 28 26 31 17 03
    144162.78508    112334.51208  21034371.72808  21034372.85808
 -23433526.19208 -18259868.18208  21109919.60908  21109921.00608
  -4743559.47308  -3696282.14908  24207718.06108  24207722.10708
 -26063184.30809 -20308962.60809  20211635.27709  20211635.67809
  -2303921.99308  -1795260.37408  24062813.88308  24062815.98408
 -17578246.91108 -13697325.45508  21823031.48608  21823032.41808
 -11995236.95908  -9346923.12908  23102675.93508  23102678.24508
   3084347.24907   2403384.24207  25481206.06607  25481211.51207
 93 07 24 01 40 00.0000000  0  8 23 21 22 28 26 31 17 03
    172281.12508    134244.91108  21039722.41908  21039723.58008
 -23554948.21708 -18354482.70608  21086813.74708  21086815.07108
  -4527900.62608  -3528236.51208  24248756.84908  24248760.84808
 -26075917.83509 -20318884.83309  20209212.04709  20209212.45009
  -2232472.75708  -1739585.69708  24076410.39108  24076412.46708
 -17730802.14608 -13816199.60808  21794001.14308  21794002.02608
 -11794076.20408  -9190174.58508  23140955.63408  23140957.93608
   3315702.32407   2583660.87307  25525231.57307  25525236.92807
 93 07 24 01 41 00.0000000  0  7 23 21 22 28 26 31 17
    202589.19908    157861.59308  21045489.87308  21045491.01408
 -23674358.24908 -18447529.45108  21064090.76408  21064092.09708
  -4311874.81808  -3359904.94908  24289865.28608  24289869.48608
 -26086498.53709 -20327129.52909  20207198.58109  20207198.97209
  -2158948.58508  -1682294.18908  24090401.42608  24090403.61908
 -17881888.28908 -13933929.02008  21765250.31708  21765251.15808
 -11592324.77108  -9032965.76808  23179347.78808  23179350.06708
 93 07 24 01 42 00.0000000  0  8 23 21 22 28 26 31 17 19
    235124.50508    183213.77908  21051681.15208  21051682.27508
 -23791832.48408 -18539067.77108  21041736.12208  21041737.44008
  -4095411.60708  -3191232.56008  24331057.17908  24331061.25508
 -26094936.36709 -20333704.45409  20205593.02309  20205593.40509
  -2083381.16508  -1623410.54308  24104781.54908  24104783.74608
 -18031532.42808 -14050534.79608  21736774.00208  21736774.81608
 -11389998.94308  -8875309.37608  23217849.13408  23217851.53608
        -0.62218        -0.82118  25441386.12818  25441390.16218
 93 07 24 01 43 00.0000000  0  8 23 21 22 28 26 31 17 19
    269845.71408    210269.26308  21058288.38108  21058289.51108
 -23907413.71308 -18629131.02008  21019741.69908  21019743.05608
  -3878518.85408  -3022225.44208  24372330.71508  24372334.78708
 -26101114.21809 -20338518.37409  20204417.34209  20204417.77609
  -2005741.48008  -1562912.13908  24119555.96408  24119558.18508
 -18179763.39008 -14166039.38808  21708566.55308  21708567.35608
 -11187133.77708  -8717232.72908  23256453.18808  23256455.57208
    134139.60308    104523.99808  25466912.22908  25466916.14608
 93 07 24 01 44 00.0000000  0  8 23 21 22 28 26 31 17 19
    306725.06208    239006.41608  21065306.31408  21065307.40708
 -24021059.70109 -18717686.28508  20998115.56709  20998116.88308
  -3661205.55708  -2852890.65108  24413684.20108  24413688.37808
 -26104950.22409 -20341507.47009  20203687.40409  20203687.85509
  -1925960.53808  -1500745.23708  24134737.74508  24134739.96808
 -18326537.87508 -14280409.05708  21680636.28508  21680637.10208
 -10983683.72608  -8558700.32908  23295168.55408  23295170.86108
    269538.83308    210029.83208  25492677.98608  25492681.76908
 93 07 24 01 45 00.0000000  0  8 23 31 17 22 28 26 21 19
    345690.29108    269368.93308  21072721.17808  21072722.26608
 -18471821.16808 -14393616.75608  21652989.62208  21652990.44808
 -10779618.96508  -8399688.92508  23334000.90608  23334003.19208
  -3443554.74308  -2683292.84508  24455101.89608  24455106.18208
 -26106561.80209 -20342763.24909  20203380.69809  20203381.16809
  -1844089.38508  -1436949.60508  24150317.37808  24150319.51708
 -24132735.53508 -18804706.37208  20976864.26908  20976865.61508
    406182.62408    316505.46108  25518680.50308  25518684.37708
 93 07 24 01 46 00.0000000  0  8 23 31 17 22 28 26 21 19
    386808.68708    301409.24508  21080545.74708  21080546.83708
 -18615539.30708 -14505604.86408  21625640.93808  21625641.75008
 -10574823.75608  -8240108.33508  23372972.11208  23372974.46408
  -3225618.64808  -2513472.74508  24496573.96808  24496578.30108
 -26105977.08209 -20342307.62609  20203491.90809  20203492.34909
  -1760154.57708  -1371545.92708  24166289.72208  24166291.86808
 -24242300.12309 -18890081.31808  20956014.81709  20956016.13408
    544175.29608    424032.17108  25544939.71508  25544943.53708
 93 07 24 01 47 00.0000000  0  8 23 31 17 22 28 26 21 19
    430160.14108    335189.60308  21088795.27408  21088796.35408
 -18757590.83208 -14616294.31108  21598609.46008  21598610.19108
 -10369362.97908  -8080009.12608  23412070.05108  23412072.52208
  -3007391.32408  -2343425.73108  24538101.53108  24538106.00808
 -26103108.41809 -20340072.29709  20204037.77809  20204038.24209
  -1674155.95408  -1304534.09508  24182654.86608  24182657.01808
 -24349661.24409 -18973739.27708  20935584.65009  20935585.90108
    683541.29208    532628.94308  25571460.16108  25571464.07008
 93 07 24 01 48 00.0000000  0  8 23 31 17 22 28 26 21 19
    475719.43008    370690.35208  21097464.92708  21097465.97708
 -18898036.70508 -14725732.61108  21571883.41108  21571884.15108
 -10163400.89508  -7919519.29508  23451263.44308  23451265.94408
  -2788868.93708  -2173148.82508  24579685.17008  24579689.65708
 -26097957.54109 -20336058.63209  20205018.06609  20205018.50009
  -1586100.94708  -1235919.87408  24199411.16108  24199413.22508
 -24454892.61709 -19055737.69408  20915559.74609  20915560.95608
    824198.72008    642232.16807  25598226.39908  25598230.34907
 93 07 24 01 49 00.0000000  0  7 23 31 17 22 28 26 21
    523443.43908    407877.89108  21106546.50108  21106547.58108
 -19036990.89308 -14834008.56008  21545441.35308  21545442.07408
  -9956998.77108  -7758686.57808  23490540.51108  23490543.03008
  -2570152.00008  -2002720.31408  24621305.68008  24621310.24208
 -26090539.21409 -20330278.12509  20206429.55709  20206430.02109
  -1495967.03108  -1165685.70408  24216563.22408  24216565.15108
 -24558096.49809 -19136156.25708  20895920.69309  20895921.86708
 93 07 24 01 50 00.0000000  0  8 23 31 22 26 28 21 17 19
    573282.74808    446713.71308  21116030.53408  21116031.62808
 -19174480.32008 -14941143.13708  21519277.90208  21519278.63708
  -2351347.64108  -1832223.70508  24662942.91808  24662947.67108
  -1403746.91808  -1093825.93708  24234112.21008  24234114.19608
 -26080796.14509 -20322686.12409  20208283.68909  20208284.12209
 -24659384.02009 -19215081.56008  20876646.31209  20876647.48508
  -9750115.77108  -7597479.15708  23529909.09308  23529911.66608
        -0.88518        -0.74017  25652435.15418  25652439.16617
 93 07 24 01 51 00.0000000  0  7 23 31 22 26 28 21 17
    625237.91808    487198.25508  21125917.32508  21125918.38108
 -19310366.40108 -15047028.35308  21493419.60908  21493420.35408
  -2132430.11808  -1661638.93608  24704601.84508  24704606.65008
  -1309471.77508  -1020364.83308  24252052.26608  24252054.09108
 -26068630.85309 -20313206.68709  20210598.73109  20210599.18009
 -24758715.18709 -19292482.42908  20857744.11409  20857745.33608
  -9542647.85808  -7435815.96108  23569389.04508  23569391.62608
 93 07 24 01 52 00.0000000  0  7 23 31 22 26 28 21 17
    679284.34808    529312.35008  21136202.05708  21136203.07908
 -19444619.30008 -15151640.95908  21467872.11108  21467872.89208
  -1913330.18008  -1490912.00808  24746295.48108  24746300.26208
  -1213259.73608   -945394.45308  24270360.84108  24270362.67408
 -26054155.30309 -20301927.03209  20213353.29709  20213353.75809
 -24855957.75809 -19368255.81908  20839239.43209  20839240.66508
  -9334611.66408  -7273709.94808  23608977.09008  23608979.71508
 93 07 24 01 53 00.0000000  0  7 23 31 22 28 26 21 17
    735482.76408    573103.32208  21146896.27208  21146897.31908
 -19577222.35508 -15254967.97408  21442638.51608  21442639.21508
  -1693985.68908  -1319994.53508  24788035.53008  24788040.40508
 -26037464.84709 -20288921.48709  20216529.57709  20216530.03209
  -1115123.94008   -868925.05108  24289035.44108  24289037.29608
 -24950992.27509 -19442308.64608  20821154.91809  20821156.13608
  -9126135.14408  -7111260.83808  23648648.90908  23648651.60908
 93 07 24 01 54 00.0000000  0  7 23 31 22 26 28 21 17
    793854.21508    618587.56808  21158003.92208  21158004.97708
 -19708103.52508 -15356953.26308  21417732.60508  21417733.29508
  -1474419.71308  -1148904.48008  24829817.73608  24829822.71408
  -1015003.75008   -790909.37608  24308087.78508  24308089.66708
 -26018565.21909 -20274194.50409  20220125.93109  20220126.38709
 -25043862.39709 -19514674.93308  20803482.30309  20803483.50108
  -8917270.94408  -6948509.63808  23688394.58808  23688397.28608
 93 07 24 01 55 00.0000000  0  7 23 31 22 28 26 21 17
    854300.85808    665688.84608  21169506.55308  21169507.61308
 -19837224.89408 -15457567.28208  21393161.70208  21393162.36808
  -1254710.03008   -977702.42308  24871627.41908  24871632.28708
 -25997407.89809 -20257708.28409  20224151.96509  20224152.40009
   -912883.93508   -711335.54708  24327520.49508  24327522.37808
 -25134668.76809 -19585433.10408  20786202.40409  20786203.60308
  -8707966.00308  -6785415.00308  23728224.12108  23728226.76808
 93 07 24 01 56 00.0000000  0  8 23 31 22 28 26 21 17 15
    916787.55908    714379.78108  21181397.45208  21181398.45008
 -19964665.25208 -15556871.42308  21368910.52308  21368911.17508
  -1034978.30308   -806483.19408  24913441.22008  24913446.19908
 -25974003.11409 -20239470.79209  20228605.82109  20228606.25909
   -808804.20408   -630234.51408  24347326.29308  24347328.27508
 -25223413.64309 -19654584.91509  20769314.77109  20769315.98209
  -8498168.40808  -6621936.48108  23768147.31308  23768150.00908
        -0.74317        -0.61317  25221902.90417  25221907.55217
 93 07 24 01 57 00.0000000  0  8 23 31 22 28 26 21 17 15
    981337.25208    764678.24008  21193680.83108  21193681.79908
 -20090461.42308 -15654894.37908  21344972.29008  21344972.88108
   -815223.83408   -635246.27608  24955259.28508  24955264.44008
 -25948295.45609 -20219438.86109  20233497.83909  20233498.29209
   -702706.90208   -547561.34908  24367515.94408  24367518.01808
 -25309985.94109 -19722043.81209  20752840.60109  20752841.81509
  -8287838.19408  -6458042.93608  23808171.99008  23808174.69008
   -218657.34607   -170382.02507  25180293.60707  25180298.17107
 93 07 24 01 58 00.0000000  0  8 23 31 22 28 26 21 17 15
   1047949.74208    816584.07408  21206356.81008  21206357.77308
 -20214550.43908 -15751587.08008  21321358.95608  21321359.57708
   -595394.83608   -463951.31208  24997091.65308  24997096.79508
 -25920239.15409 -20197576.80909  20238836.66909  20238837.10909
   -594583.68108   -463309.56508  24388091.24908  24388093.33108
 -25394293.60709 -19787738.05509  20736797.30309  20736798.54809
  -8077041.71708  -6293786.06808  23848285.26308  23848288.09008
   -437142.48407   -340629.89607  25138717.00007  25138721.53307
 93 07 24 01 59 00.0000000  0  7 23 31 17 22 28 21 15
   1116594.04208    870073.13708  21219419.40608  21219420.37408
 -20336888.19508 -15846915.16308  21298078.82608  21298079.45308
  -7865842.79808  -6129215.62008  23888475.18108  23888477.97408
   -375512.93208   -292615.10407  25038934.05708  25038939.24507
 -25889794.07109 -20173853.37409  20244630.18809  20244630.63409
 -25476320.32109 -19851654.94209  20721188.13809  20721189.32509
   -655473.20807   -510757.52307  25097169.96307  25097174.41707
 93 07 24 02 00 00.0000000  0  8 23 31 17 22 28 01 21 15
   1187262.23408    925139.25408  21232867.03508  21232868.04008
 -20457475.09808 -15940878.94608  21275131.79308  21275132.38608
  -7654272.72208  -5964355.95608  23928735.79408  23928738.51008
   -155641.79508   -121287.25207  25080774.46608  25080779.61307
 -25856973.23309 -20148278.70109  20250875.92109  20250876.35309
        -0.53518        -0.00918  25230938.14418  25230943.96618
 -25556179.43909 -19913882.79109  20705991.45709  20705992.57409
   -873685.88207   -680793.18607  25055645.26807  25055649.78307
 93 07 24 02 01 00.0000000  0  8 23 31 17 22 28 01 21 15
   1259941.04408    981772.08508  21246697.35908  21246698.40508
 -20576312.15908 -16033479.22608  21252517.81708  21252518.46108
  -7442321.08008  -5799198.97608  23969068.99908  23969071.64408
     64174.81308     49998.11507  25122604.38908  25122609.68107
 -25821851.05109 -20120910.77809  20257559.42509  20257559.85409
   -215196.25608   -167684.59708  25189987.44808  25189993.16408
 -25633983.76209 -19974509.50809  20691185.77009  20691186.91509
  -1091788.38708   -850743.05607  25014141.72408  25014146.02807
 93 07 24 02 02 00.0000000  0  7 23 31 22 28 01 21 15
   1334595.41908   1039944.31508  21260903.56608  21260904.62308
 -20693378.94108 -16124700.07008  21230240.77408  21230241.36908
    283981.11608    221275.40907  25164432.31108  25164437.90607
 -25784498.61709 -20091804.99409  20264667.33109  20264667.79309
   -430403.94107   -335378.51208  25149034.36707  25149040.06108
 -25709723.77509 -20033527.67409  20676772.91409  20676774.07009
  -1309735.11608  -1020571.53707  24972667.65408  24972671.98507
 93 07 24 02 03 00.0000000  0  8 23 31 22 28 01 21 27 15
   1411327.44508   1099735.49408  21275505.22408  21275506.24208
 -20808606.25409 -16214487.56708  21208313.72209  21208314.35908
    503824.51307    392581.62007  25206267.37907  25206272.95507
 -25744889.65209 -20060940.88009  20272204.70909  20272205.20309
   -645570.58107   -503040.41908  25108089.17807  25108094.88108
 -25783304.61409 -20090863.36509  20662770.90409  20662772.00909
        -0.16918        -0.98718  24966409.04318  24966412.13618
  -1527469.18708  -1190234.28907  24931234.13708  24931238.39207
 93 07 24 02 04 00.0000000  0  8 23 31 22 28 01 21 27 15
   1490154.82208   1161159.41308  21290505.68108  21290506.67908
 -20921939.69409 -16302799.31708  21186747.06109  21186747.70408
    723609.34307    563842.16107  25248091.39107  25248097.05207
 -25702924.55309 -20028240.82609  20280190.43209  20280190.93309
   -860659.52406   -670641.76308  25067158.54206  25067164.43808
 -25854636.99509 -20146447.01309  20649196.79609  20649197.90109
     97081.63808     75647.13608  24984883.31108  24984886.27608
  -1744981.01208  -1359723.84808  24889842.90808  24889847.15908
 93 07 24 02 05 00.0000000  0  8 23 31 22 28 01 21 27 15
   1570914.93408   1224089.35708  21305873.78908  21305874.82408
 -21033397.47709 -16389649.51308  21165537.38109  21165537.98708
    943217.98807    734965.43808  25289881.75907  25289887.51208
 -25658520.97109 -19993640.64109  20288640.08509  20288640.59909
  -1075606.64406   -838132.58308  25026255.32106  25026261.02508
 -25923690.47909 -20200254.89809  20636056.31709  20636057.46009
    196247.59708    152919.29808  25003753.97308  25003757.12208
  -1962270.47808  -1529040.13108  24848493.95808  24848498.19608
 93 07 24 02 06 00.0000000  0  8 23 31 22 28 01 21 27 15
   1653472.20508   1288419.68408  21321583.88408  21321584.94308
 -21143076.54109 -16475113.68808  21144666.14309  21144666.74008
   1162602.42307    905913.99608  25331629.34607  25331635.30908
 -25611850.59609 -19957274.12809  20297521.17109  20297521.62509
  -1290529.01607  -1005604.16607  24985357.02307  24985362.22707
 -25990594.03709 -20252387.51009  20623324.97109  20623326.07609
    297355.18608    231704.40908  25022994.16308  25022997.05408
  -2179418.55008  -1698246.21508  24807171.89108  24807176.03408
 93 07 24 02 07 00.0000000  0  8 23 31 22 28 01 21 27 15
   1737979.36108   1354269.40108  21337665.05608  21337666.13108
 -21250962.17509 -16559180.37908  21124136.13709  21124136.72908
   1381866.03007   1076768.37408  25373354.19307  25373360.18108
 -25563074.50509 -19919266.79309  20306802.93309  20306803.43109
  -1505527.68007  -1173135.24907  24944443.90307  24944448.99607
 -26055370.76309 -20302862.85409  20610998.32409  20610999.46609
    400339.12208    311951.59208  25042591.33508  25042594.26808
  -2396431.56508  -1867347.06308  24765875.63408  24765879.63208
 93 07 24 02 08 00.0000000  0  8 23 31 22 28 01 21 27 15
   1824619.75208   1421781.37908  21354152.21508  21354153.28008
 -21356887.19109 -16641719.31808  21103979.24009  21103979.78908
   1601064.70007   1247572.19608  25415066.51607  25415072.60408
 -25512070.62609 -19879523.51509  20316508.67909  20316509.19309
  -1720430.27608  -1340591.51107  24903549.09008  24903553.91607
 -26117916.99009 -20351600.14909  20599096.15609  20599097.28509
    505291.27308    393732.45408  25062563.15208  25062566.03208
  -2613176.63108  -2036239.11208  24724630.20208  24724634.12908
 93 07 24 02 09 00.0000000  0  8 23 31 22 28 01 21 27 15
   1913213.78608   1490815.67608  21371011.09508  21371012.14108
 -21460864.46909 -16722740.54308  21084192.97009  21084193.51708
   1820057.08008   1418215.30008  25456739.70608  25456745.76408
 -25458770.69109 -19837991.10809  20326651.36509  20326651.90009
  -1935133.45808  -1507892.44107  24862692.18108  24862696.81407
 -26178227.32409 -20398595.18609  20587619.51309  20587620.60209
    612159.19108    477006.09308  25082899.39108  25082902.37408
  -2829668.84408  -2204934.13508  24683432.90908  24683436.87208
 93 07 24 02 10 00.0000000  0  8 23 31 22 28 01 21 27 15
   2003639.14808   1561276.97908  21388218.47108  21388219.57608
 -21562922.45509 -16802266.21708  21064772.03309  21064772.57408
   2038867.44008   1588716.57308  25498378.18108  25498384.33408
 -25403127.68509 -19794632.94709  20337239.73309  20337240.27109
  -2149667.63608  -1675061.68607  24821867.39208  24821872.17007
 -26236344.26809 -20443881.09309  20576560.19309  20576561.26609
    720954.43708    561781.53008  25103602.51808  25103605.59808
  -3045943.04408  -2373459.28108  24642277.23808  24642281.04808
 93 07 24 02 11 00.0000000  0  8 23 31 22 28 01 21 27 15
   2095968.32708   1633221.77608  21405788.16408  21405789.28008
 -21663065.94609 -16880300.08108  21045715.26009  21045715.76508
   2257586.43208   1759146.60908  25539999.34108  25540005.46108
 -25345138.08909 -19749446.26909  20348274.74309  20348275.23009
  -2364012.24808  -1842083.16308  24781078.77108  24781083.53408
 -26292248.28309 -20487442.64109  20565921.97609  20565923.04009
    831735.80308    648104.57208  25124683.54408  25124686.65208
  -3261974.70708  -2541795.44208  24601167.51408  24601171.42008
 93 07 24 02 12 00.0000000  0  8 23 31 22 28 01 21 27 15
   2190162.17808   1706619.56508  21423712.69108  21423713.78608
 -21761311.92909 -16956855.36808  21027019.73609  21027020.23308
   2476114.45808   1929427.83507  25581584.06508  25581590.30107
 -25284811.43509 -19702438.49209  20359754.75209  20359755.23909
  -2578154.12708  -2008946.64708  24740328.62308  24740333.49008
 -26345929.53509 -20529272.16509  20555706.78009  20555707.85709
    944492.51608    735966.84608  25146140.50108  25146143.63608
  -3477761.96708  -2709941.13308  24560104.44508  24560108.25608
 93 07 24 02 13 00.0000000  0  8 23 31 22 28 01 21 27 15
   2286120.41208   1781392.19908  21441972.90608  21441973.97208
 -21857664.39209 -17031935.18608  21008684.43209  21008684.89608
   2694255.96107   2099407.85407  25623095.30907  25623101.60007
 -25222186.92309 -19653640.17909  20371671.73409  20371672.20409
  -2792058.12508  -2175624.75608  24699623.78008  24699628.54608
 -26397408.23509 -20569385.41409  20545910.63909  20545911.70109
   1059092.50308    825265.46208  25167948.15508  25167951.44008
  -3693324.98408  -2877912.07408  24519084.06708  24519087.70508
 93 07 24 02 14 00.0000000  0  8 23 22 28 01 21 31 27 15
   2383932.48608   1857609.38008  21460586.00408  21460587.05308
   2912017.66107   2269091.91407  25664534.29507  25664540.70407
 -25157314.25509 -19603090.06709  20384016.75209  20384017.22509
  -3005728.08408  -2342120.49308  24658963.50808  24658968.18608
 -26446596.97009 -20607714.27709  20536550.33409  20536551.39309
 -21952078.14809 -17105504.32209  20990718.04209  20990718.52609
   1175447.94808    915931.97708  25190089.91608  25190093.12508
  -3908623.84808  -3045677.18108  24478113.84608  24478117.43308
 93 07 24 02 15 00.0000000  0  8 23 22 28 01 21 31 27 15
   2483747.01508   1935386.91608  21479580.04708  21479581.08608
   3129484.00307   2438545.78907  25705917.10007  25705923.50707
 -25090178.47109 -19550776.49109  20396792.36109  20396792.84309
  -3219120.35308  -2508399.84208  24618355.97508  24618360.57708
 -26493402.96509 -20644186.46109  20527643.41709  20527644.50309
 -22044515.65609 -17177533.52509  20973127.77609  20973128.29409
   1293604.13608   1008001.65208  25212574.29908  25212577.55808
  -4123591.39708  -3213184.15008  24437206.62608  24437210.26408
 93 07 24 02 16 00.0000000  0  8 23 22 28 01 21 31 27 15
   2585468.58908   2014650.45908  21498937.01108  21498938.08908
   3346625.79207   2607746.72307  25747238.08407  25747244.77707
 -25020825.91109 -19496735.54709  20409989.52609  20409990.02809
  -3432228.23608  -2674457.60108  24577802.71908  24577807.24208
 -26537899.19509 -20678858.82909  20519176.05209  20519177.12509
 -22134963.48309 -17248012.32609  20955916.09109  20955916.57009
   1413551.15908   1101466.81208  25235399.53308  25235402.78408
  -4338267.53508  -3380464.04808  24396354.93208  24396358.55508
 93 07 24 02 17 00.0000000  0  8 23 22 28 01 21 31 27 15
   2689071.65108   2095380.09508  21518652.05408  21518653.13108
   3563547.59307   2776776.19507  25788517.26307  25788524.11707
 -24949204.32309 -19440926.52209  20423618.69009  20423619.16309
  -3645001.78408  -2840254.83908  24537312.99208  24537317.43508
 -26580122.40709 -20711760.01709  20511141.21709  20511142.30309
 -22223296.39509 -17316843.14509  20939106.82109  20939107.28309
   1535345.85108   1196371.73208  25258576.55608  25258579.66608
  -4552605.88708  -3547480.72408  24355567.55208  24355571.13808
 93 07 24 02 18 00.0000000  0  7 23 28 01 21 31 27 15
   2794447.90708   2177491.43708  21538704.52508  21538705.65408
 -24875322.96009 -19383356.65309  20437677.90209  20437678.40109
  -3857529.67208  -3005860.64508  24496870.02808  24496874.37608
 -26620192.55509 -20742983.49209  20503516.07909  20503517.19009
 -22309607.99709 -17384098.91609  20922682.30309  20922682.77409
   1658876.79208   1292629.56708  25282083.55908  25282086.79608
  -4766639.88708  -3714260.23208  24314838.10908  24314841.54008
 93 07 24 02 19 00.0000000  0  8 23 26 28 01 21 31 27 15
   2901474.58708   2260888.82308  21559071.02108  21559072.15908
         0.02318        -0.33718  24899365.93518  24899368.67318
 -24799104.25509 -19323965.47409  20452181.84009  20452182.35509
  -4069739.11608  -3171218.32008  24456487.65508  24456491.90908
 -26658080.68709 -20772506.69709  20496306.24209  20496307.31709
 -22393933.26409 -17449806.89209  20906635.77209  20906636.25809
   1784124.04307   1390224.80807  25305917.41307  25305920.58707
  -4980338.75708  -3880778.60108  24274172.43908  24274175.83908
 93 07 24 02 20 00.0000000  0  8 23 26 28 01 21 31 27 15
   3010128.20008   2345553.94908  21579747.13908  21579748.27108
    146491.16308    114148.50308  24927242.28008  24927244.92208
 -24720555.71009 -19262758.83209  20467129.18609  20467129.71409
  -4281514.85608  -3336238.03908  24416187.82408  24416191.96008
 -26693722.17509 -20800279.26709  20489523.86709  20489524.92509
 -22476165.59409 -17513884.00609  20890987.36309  20890987.85809
   1911140.11407   1489198.36407  25330087.87707  25330090.92707
  -5193691.52708  -4047027.29708  24233572.60408  24233575.86208
 93 07 24 02 21 00.0000000  0  8 23 26 28 01 21 31 27 15
   3120642.33308   2431668.83208  21600777.31508  21600778.42008
    294537.98908    229509.54908  24955414.67408  24955417.45908
 -24639722.79709 -19199772.15809  20482511.05709  20482511.59309
  -4492709.38108  -3500804.84808  24375998.48108  24376002.66008
 -26727020.24509 -20826225.79709  20483187.44009  20483188.50709
 -22556174.07309 -17576228.24809  20875762.30609  20875762.79409
   2039941.43207   1589563.01507  25354597.87207  25354600.93407
  -5406655.83208  -4212973.31608  24193046.65508  24193049.87608
 93 07 24 02 22 00.0000000  0  8 23 26 28 01 21 31 27 15
   3233081.87108   2519284.03208  21622173.86208  21622174.97708
    444168.42208    346104.55508  24983888.54908  24983891.28808
 -24556716.39909 -19135091.85709  20498306.73909  20498307.25809
  -4703357.14908  -3664945.61908  24335913.38008  24335917.45808
 -26758086.61909 -20850433.33909  20477275.71109  20477276.78809
 -22634051.36309 -17636911.82709  20860942.68109  20860943.17209
   2170349.11907   1691179.40407  25379413.54307  25379416.77107
  -5619280.82908  -4378654.91708  24152585.36308  24152588.40708
 93 07 24 02 23 00.0000000  0  8 23 26 28 01 21 31 27 15
   3347314.86708   2608296.72808  21643911.67008  21643912.78808
    595334.10808    463895.86708  25012654.39008  25012657.22408
 -24471533.12409 -19068715.29009  20514516.40609  20514516.94309
  -4913581.09008  -3828756.17108  24295908.90808  24295912.86708
 -26786916.35609 -20872898.05109  20471789.53809  20471790.60609
 -22709907.75309 -17696020.67909  20846507.71509  20846508.19309
   2302321.05507   1794014.68407  25404526.86707  25404530.12107
  -5831571.16008  -4544075.73208  24112187.63708  24112190.71108
 93 07 24 02 24 00.0000000  0  7 23 26 28 01 21 31 15
   3463178.88908   2698580.36108  21665959.89008  21665960.99008
    747935.30308    582805.77108  25041693.64008  25041696.31308
 -24384098.61509 -19000584.52209  20531154.66709  20531155.21109
  -5123513.21908  -3992339.37908  24255960.02908  24255963.81908
 -26813401.05209 -20893535.46009  20466749.67709  20466750.74209
 -22783755.92109 -17753564.68109  20832454.88409  20832455.36909
  -6043511.37908  -4709223.76008  24071856.67708  24071859.68008
 93 07 24 02 25 00.0000000  0  7 23 26 28 01 21 31 15
   3580695.27108   2790151.53808  21688322.48808  21688323.62908
    901929.17508    702800.89107  25070997.88608  25071000.50807
 -24294397.81809 -18930687.81809  20548224.21609  20548224.72709
  -5333090.17708  -4155645.86308  24216078.70408  24216082.39208
 -26837515.62509 -20912326.02109  20462160.82009  20462161.87709
 -22855541.88509 -17809501.77209  20818794.41309  20818794.86809
  -6255078.89208  -4874081.39408  24031596.48308  24031599.46608
 93 07 24 02 26 00.0000000  0  7 23 26 28 01 21 31 15
   3699948.22808   2883075.89308  21711015.57808  21711016.73008
   1057391.14508    823939.99807  25100581.27708  25100584.01607
 -24202502.40309 -18859081.01809  20565711.31709  20565711.81009
  -5542057.59008  -4318477.37508  24176313.24808  24176316.90208
 -26859351.02609 -20929340.60609  20458005.68109  20458006.73409
 -22925182.10909 -17863766.85709  20805542.26409  20805542.74909
  -6466236.44608  -5038619.56708  23991414.39908  23991417.50208
 93 07 24 02 27 00.0000000  0  7 23 26 28 01 21 31 15
   3820903.95908   2977327.07808  21734032.76508  21734033.91508
   1214354.21307    946248.80607  25130450.48007  25130453.16107
 -24108435.19609 -18785781.90809  20583611.89109  20583612.41109
  -5750315.06408  -4480755.69208  24136682.97708  24136686.47408
 -26879063.23809 -20944700.75709  20454254.55409  20454255.59609
 -22992649.88709 -17916339.12809  20792703.60809  20792704.06709
  -6676991.26408  -5202843.91908  23951308.96008  23951311.93208
 93 07 24 02 28 00.0000000  0  7 23 26 28 01 21 31 15
   3943520.70508   3072872.56208  21757365.98808  21757367.16908
   1372803.38607   1069715.59407  25160602.50707  25160605.27407
 -24012147.62109 -18710752.64109  20601934.73409  20601935.28409
  -5957972.20908  -4642566.22008  24097167.01308  24097170.40408
 -26896700.47009 -20958444.04509  20450898.29409  20450899.34209
 -23057912.23109 -17967192.88309  20780284.50609  20780284.99009
  -6887340.23008  -5366752.02208  23911280.76008  23911283.69808
 93 07 24 02 29 00.0000000  0  7 23 26 28 01 21 31 15
   4067805.02208   3169717.44608  21781016.53808  21781017.71008
   1532675.27307   1194290.97607  25191025.09407  25191027.88607
 -23913628.53809 -18633984.54009  20620682.45009  20620683.01409
  -6165122.48108  -4803981.78008  24057747.43808  24057750.82108
 -26912131.51909 -20970468.23109  20447961.85709  20447962.89009
 -23120978.21309 -18016335.18709  20768283.46009  20768283.97109
  -7097276.11008  -5530338.25008  23871331.15208  23871334.10708
 93 07 24 02 30 00.0000000  0  7 23 01 28 21 31 17 15
   4193754.34508   3267859.74508  21804983.91908  21804985.10108
  -6371704.49608  -4964954.54108  24018435.96708  24018439.33708
 -23812910.99109 -18555503.35909  20639848.21209  20639848.82109
 -26925135.49809 -20980601.19809  20445487.27209  20445488.30009
 -23181934.70709 -18063833.73609  20756683.94209  20756684.45509
        -0.25617        -0.91018  25163833.67617  25163837.50318
  -7306795.66608  -5693600.07708  23831460.76908  23831463.69608
 93 07 24 02 31 00.0000000  0  8 23 26 28 01 21 31 17 15
   4321284.78208   3367234.07208  21829252.16708  21829253.32708
        -0.00817        -0.64517  25252629.20117  25252632.16617
 -23710026.00809 -18475333.27309  20659426.58509  20659427.14409
  -6577627.69208  -5125413.93808  23979249.90408  23979253.12808
 -26935725.29509 -20988852.98309  20443472.08309  20443473.14409
 -23240782.08909 -18109688.82209  20745485.49009  20745485.99209
    219531.57107    171062.73808  25205609.32507  25205613.12808
  -7515900.53408  -5856538.76808  23791669.35708  23791672.23408
 93 07 24 02 32 00.0000000  0  7 23 01 15 28 21 31 17
   4450305.37708   3467769.57108  21853804.04008  21853805.17108
  -6782856.57008  -5285332.31108  23940196.01608  23940199.25908
  -7724595.35408  -6019157.93408  23751955.84008  23751958.72208
 -23605005.34609 -18393499.01709  20679411.54709  20679412.09609
 -26944079.03509 -20995362.38609  20441882.41509  20441883.46709
 -23297459.14609 -18153852.74609  20734700.15509  20734700.67809
    439191.12507    342225.93808  25247409.28407  25247413.11108
 93 07 24 02 33 00.0000000  0  7 23 01 15 26 28 21 31
   4580848.62508   3569491.54908  21878645.57508  21878646.79008
  -6987336.07208  -5444666.77908  23901284.68608  23901287.99708
  -7932807.22808  -6181400.77508  23712334.24108  23712337.18408
         0.42817        -0.11617  25315259.37517  25315262.61217
 -23497848.90009 -18310000.51109  20699802.69109  20699803.22409
 -26950229.12609 -21000154.66009  20440712.09709  20440713.14409
 -23351840.65609 -18196227.93209  20724351.74809  20724352.25209
 93 07 24 02 34 00.0000000  0  7 23 01 15 26 28 21 31
   4712897.95808   3672387.09608  21903773.73108  21903774.97508
  -7191124.27308  -5603462.57608  23862504.85208  23862508.19808
  -8140569.57208  -6343293.32208  23672798.16308  23672801.14608
    166514.86807    129751.24407  25346946.32207  25346949.49307
 -23388599.81809 -18224871.37609  20720592.22709  20720592.76709
 -26954179.31309 -21003232.72409  20439960.36109  20439961.42709
 -23403973.75209 -18236851.10709  20714431.09709  20714431.58809
 93 07 24 02 35 00.0000000  0  7 23 01 15 26 28 21 31
   4846487.71708   3776482.96908  21929195.06108  21929196.33208
  -7394207.74708  -5761709.21108  23823859.13708  23823862.56308
  -8347857.82208  -6504816.44608  23633352.43808  23633355.34708
    334223.37007    260433.09107  25378860.14107  25378863.41107
 -23277190.97809 -18138059.32909  20741792.61109  20741793.18609
 -26955880.37509 -21004558.22709  20439636.79309  20439637.88709
 -23453933.32309 -18275780.62409  20704924.25209  20704924.71309
 93 07 24 02 36 00.0000000  0  8 23 01 15 26 28 21 31 02
   4981699.91408   3881843.07908  21954925.07708  21954926.33708
  -7596517.52408  -5919352.95808  23785360.73108  23785364.06308
  -8554589.91708  -6665906.18708  23594012.47008  23594015.27308
    503260.80207    392150.44307  25411027.04807  25411030.29907
 -23163525.23809 -18049488.66109  20763422.34409  20763422.90209
 -26955304.07509 -21004109.16209  20439746.36709  20439747.44109
 -23501696.29809 -18312998.50809  20695835.13409  20695835.58509
        -0.21717        -0.56517  25484807.83217  25484811.36017
 93 07 24 02 37 00.0000000  0  8 23 01 15 26 28 21 31 02
   5116939.14108   3987224.25208  21980660.27108  21980661.59808
  -7799665.25208  -6077649.68508  23746702.98208  23746706.07008
  -8762401.60808  -6827837.19208  23554467.15308  23554469.85608
    672000.78807    523636.02307  25443137.32407  25443140.60207
 -23049291.60509 -17960475.48509  20785160.38009  20785160.96609
 -26954087.75509 -21003161.38009  20439977.82909  20439978.89409
 -23548857.91109 -18349747.79609  20686860.57409  20686861.02409
   -170368.02907   -132754.57707  25452387.89907  25452391.38607
 93 07 24 02 38 00.0000000  0  8 23 01 15 26 28 21 31 02
   5251689.51908   4092224.50008  22006302.45108  22006303.81208
  -8004082.58508  -6236935.70108  23707803.48408  23707806.49508
  -8971770.71508  -6990981.77608  23514625.39508  23514627.97008
    839899.36207    654465.98607  25475087.45307  25475090.82607
 -22935088.75109 -17871486.27709  20806892.38109  20806892.99609
 -26952647.13209 -21002038.81409  20440251.98309  20440253.00809
 -23595796.48409 -18386323.29009  20677928.38209  20677928.85609
   -341430.53407   -266049.90907  25419835.53707  25419839.10007
 93 07 24 02 39 00.0000000  0  8 23 01 15 26 28 21 31 02
   5391490.24008   4201160.08008  22032905.73408  22032907.09708
  -8204062.12608  -6392763.69208  23669748.43008  23669751.35308
  -9177038.95708  -7150930.90108  23475564.07208  23475566.56108
   1012514.92707    788971.51907  25507934.99707  25507938.54407
 -22815341.17309 -17778176.49909  20829679.69509  20829680.28309
 -26945303.05609 -20996316.15509  20441649.54009  20441650.56709
 -23636790.45209 -18418266.62509  20670127.52809  20670128.01209
   -507525.10007   -395474.13707  25388228.67007  25388232.15407
 93 07 24 02 40 00.0000000  0  8 23 01 15 26 28 21 31 02
   5533640.07108   4311926.13308  22059955.98808  22059957.28708
  -8402146.87108  -6547115.20208  23632053.97108  23632056.82808
  -9380795.04808  -7309701.73208  23436790.44608  23436792.97908
   1187269.41806    925143.75807  25541189.85206  25541193.15407
 -22692605.84409 -17682538.60209  20853035.46009  20853036.03809
 -26934721.27409 -20988070.60509  20443663.14109  20443664.19909
 -23674486.02609 -18447639.78809  20662954.22609  20662954.70209
   -671245.44507   -523048.32707  25357073.76707  25357077.20607
 93 07 24 02 41 00.0000000  0  8 23 01 15 26 28 21 31 02
   5677248.70508   4423828.91908  22087283.82208  22087285.16708
  -8599194.38308  -6700658.48408  23594556.90508  23594559.66408
  -9583915.59408  -7467977.34808  23398137.83608  23398140.22608
   1363334.64006   1062337.34607  25574693.94406  25574697.40307
 -22567634.50409 -17585158.36509  20876816.81909  20876817.36809
 -26921905.93209 -20978084.62009  20446101.83809  20446102.87109
 -23709831.27409 -18475181.52909  20656228.31909  20656228.78009
   -833493.37507   -649475.18708  25326198.83407  25326202.34808
 93 07 24 02 42 00.0000000  0  7 23 01 15 02 28 21 31
   5822106.65708   4536705.19508  22114849.35308  22114850.69808
  -8795443.13808  -6853579.38508  23557211.83908  23557214.51708
  -9786595.31608  -7625909.45908  23359569.11308  23359571.44108
   -994506.65807   -774939.98908  25295558.89907  25295562.42508
 -22440574.98409 -17486150.98009  20900995.43509  20900996.00409
 -26907035.46409 -20966497.23909  20448931.59309  20448932.63509
 -23743055.83409 -18501070.78609  20649906.01409  20649906.45609
 93 07 24 02 43 00.0000000  0  7 23 01 15 02 28 21 31
   5968245.84408   4650579.83308  22142658.75508  22142660.15908
  -8990961.35908  -7005931.05708  23520005.80208  23520008.43308
  -9988852.79008  -7783512.54908  23321080.66608  23321082.94908
  -1154224.81907   -899395.60008  25265165.49607  25265169.02208
 -22311520.11809 -17385588.78709  20925553.79509  20925554.34209
 -26890057.24209 -20953267.45609  20452162.43709  20452163.49609
 -23774190.39609 -18525331.47209  20643981.12209  20643981.56109
 93 07 24 02 44 00.0000000  0  7 23 01 15 28 21 31 02
   6115739.05708   4765509.55208  22170725.87308  22170727.22108
  -9185748.76408  -7157713.28808  23482938.97308  23482941.46408
 -10190670.12808  -7940772.68508  23282675.95508  23282678.24008
 -22180581.87809 -17283559.03108  20950470.43809  20950470.98908
 -26870944.05909 -20938374.06609  20455799.58009  20455800.60609
 -23803224.05709 -18547955.09209  20638456.20109  20638456.63509
  -1312523.90308  -1022745.44208  25235042.22708  25235045.53708
 93 07 24 02 45 00.0000000  0  7 28 23 01 15 02 21 31
 -22047845.25909 -17180127.93108  20975729.40409  20975729.94008
   6264611.07308   4881513.66808  22199055.35208  22199056.67408
  -9379709.21208  -7308851.12608  23446029.32008  23446031.88708
 -10392040.41108  -8097684.44908  23244356.29608  23244358.60708
  -1469380.93508  -1144971.62008  25205193.15308  25205196.58208
 -26849766.00409 -20921871.68409  20459829.61109  20459830.65109
 -23830125.29209 -18568917.07909  20633337.05709  20633337.51009
 93 07 24 02 46 00.0000000  0  7 28 23 01 15 02 21 31
 -21913286.32309 -17075276.83608  21001335.20909  21001335.74808
   6414820.84008   4998560.19208  22227639.38808  22227640.69008
  -9572736.27608  -7459261.62108  23409297.29908  23409299.95208
 -10592951.77008  -8254238.60408  23206124.02908  23206126.28608
  -1624835.28508  -1266104.79508  25175611.10408  25175614.50408
 -26826608.11609 -20903826.58009  20464236.39309  20464237.43209
 -23854778.65409 -18588127.48009  20628645.62409  20628646.04609
 93 07 24 02 47 00.0000000  0  7 28 23 01 15 02 21 31
 -21776837.84009 -16968953.37708  21027300.54509  21027301.12908
   6566240.60408   5116549.57008  22256453.62508  22256454.97008
  -9764787.91108  -7608912.04008  23372750.89408  23372753.59508
 -10793373.31108  -8410411.07208  23167984.92008  23167987.19208
  -1778878.80807  -1386138.61008  25146297.48707  25146300.90008
 -26801424.83209 -20884203.24509  20469028.62309  20469029.64809
 -23877108.19509 -18605527.11409  20624396.52809  20624396.98409
 93 07 24 02 48 00.0000000  0  7 28 23 01 15 02 21 31
 -21638445.74409 -16861115.41508  21053635.75509  21053636.31908
   6718828.47708   5235449.16008  22285490.10408  22285491.47108
  -9955845.38608  -7757787.77708  23336393.69208  23336396.39108
 -10993247.83708  -8566157.29508  23129949.91608  23129952.16308
  -1931423.74107  -1505004.68908  25117269.07207  25117272.55608
 -26774100.93909 -20862911.90009  20474228.18209  20474229.27209
 -23897140.39109 -18621136.61009  20620584.46909  20620584.88909
 93 07 24 02 49 00.0000000  0  6 28 23 01 15 21 31
 -21498140.99209 -16751787.08508  21080335.01609  21080335.61708
   6872607.16808   5355276.66308  22314753.35008  22314754.71008
 -10145930.21308  -7905905.62108  23300221.66408  23300224.18808
 -11192549.59208  -8721457.21608  23092023.91208  23092026.10508
 -26744510.64909 -20839854.53209  20479859.02009  20479860.11809
 -23914941.35609 -18635007.48509  20617197.07209  20617197.48109
 93 07 24 02 50 00.0000000  0  7 28 01 23 15 02 21 31
 -21355918.66608 -16640964.55108  21107398.89108  21107399.50508
 -10335006.84108  -8053237.84608  23264241.47008  23264243.89708
   7027694.90008   5476124.19208  22344265.56108  22344266.92208
 -11391234.67008  -8876276.61708  23054215.36908  23054217.41108
        -0.62617        -0.91918  25060087.06517  25060090.63918
 -26712645.32609 -20815024.41109  20485922.75309  20485923.82809
 -23930511.84409 -18647140.32909  20614234.09409  20614234.50509
 93 07 24 02 51 00.0000000  0  7 28 01 23 15 02 21 31
 -21211790.28008 -16528656.77108  21134825.66408  21134826.32308
 -10523024.23308  -8199744.72408  23228462.79308  23228465.18008
   7184124.59108   5598017.40908  22374033.11408  22374034.62308
 -11589298.80408  -9030612.17608  23016524.92108  23016526.91708
   -147904.41707   -115250.47507  25031941.79507  25031945.21707
 -26678717.85409 -20788587.41809  20492378.96009  20492380.03209
 -23943814.97909 -18657506.40209  20611702.58109  20611703.00809
 93 07 24 02 52 00.0000000  0  7 28 01 23 15 02 21 31
 -21065709.91208 -16414827.96108  21162623.86208  21162624.52808
 -10709894.67908  -8345357.89008  23192902.34808  23192904.66708
   7341827.67008   5720902.86508  22404043.12608  22404044.62008
 -11786713.26208  -9184441.50408  22978958.14408  22978960.16608
   -294231.18807   -229271.22807  25004096.74507  25004099.95307
 -26642706.06609 -20760526.28109  20499231.74809  20499232.82209
 -23954712.58309 -18665998.03709  20609628.83909  20609629.28109
 93 07 24 02 53 00.0000000  0  7 28 01 23 15 02 21 31
 -20917630.93508 -16299441.78208  21190802.40808  21190803.10908
 -10895555.18908  -8490028.28908  23157572.28008  23157574.45708
   7500778.83008   5844760.85708  22434290.55108  22434291.99208
 -11983431.86008  -9337728.61408  22941523.77108  22941525.81108
   -438923.44108   -342018.38107  24976562.74008  24976565.84607
 -26604390.94709 -20730670.34409  20506522.89109  20506523.99109
 -23963132.75309 -18672559.21209  20608026.54709  20608026.97309
 93 07 24 02 54 00.0000000  0  7 28 01 23 15 02 21 31
 -20767668.29608 -16182587.82208  21219339.16408  21219339.88708
 -11080066.67308  -8633803.33608  23122460.80008  23122463.01108
   7660901.10808   5969531.40808  22464760.86308  22464762.28608
 -12179491.81608  -9490502.49208  22904214.68708  22904216.67908
   -581922.25408   -453445.99207  24949350.93208  24949353.72307
 -26563834.36509 -20699067.81709  20514240.56009  20514241.65409
 -23969227.77409 -18677308.57509  20606866.64709  20606867.06609
 93 07 24 02 55 00.0000000  0  7 28 01 23 15 02 21 31
 -20615950.58308 -16064366.28808  21248210.15508  21248210.83208
 -11263409.03308  -8776667.37108  23087571.80408  23087574.13508
   7822157.05108   6095185.33008  22495446.84308  22495448.35008
 -12374911.08708  -9642777.13508  22867027.56108  22867029.55708
   -723174.11408   -563512.34507  24922471.60608  24922474.56807
 -26521275.51309 -20665905.08009  20522339.24409  20522340.33309
 -23973093.71309 -18680320.99109  20606131.03609  20606131.45509
 93 07 24 02 56 00.0000000  0  7 28 01 23 15 02 21 31
 -20462453.42808 -15944758.18308  21277419.91008  21277420.65308
 -11445508.50908  -8918562.92608  23052919.19908  23052921.54808
   7984596.03808   6221761.09808  22526358.07108  22526359.49708
 -12569634.84208  -9794509.81008  22829972.77608  22829974.76808
   -862675.59008   -672214.74407  24895925.33708  24895928.30307
 -26476774.51809 -20631228.98709  20530807.46909  20530808.53909
 -23974631.64009 -18681519.37409  20605838.38009  20605838.81409
 93 07 24 02 57 00.0000000  0  7 28 01 23 15 02 21 31
 -20307088.32608 -15823694.51908  21306984.67108  21306985.43908
 -11626326.22208  -9059459.70408  23018510.66008  23018512.90008
   8148198.01508   6349243.08908  22557490.47708  22557491.93608
 -12763648.14508  -9945688.89208  22793053.20208  22793055.14608
  -1000513.83708   -779621.10007  24869695.44508  24869698.46707
 -26430166.36909 -20594910.96209  20539676.73709  20539677.79309
 -23973820.70609 -18680887.47709  20605992.69009  20605993.11909
 93 07 24 02 58 00.0000000  0  7 28 01 23 02 15 21 31
 -20149745.44408 -15701089.73408  21336926.24108  21336927.05508
 -11805818.82808  -9199323.93708  22984354.34308  22984356.48808
   8312993.17708   6477654.83608  22588850.06308  22588851.62708
  -1136608.21408   -885668.57808  24843797.49908  24843800.48408
 -12956876.36108 -10096256.21808  22756283.02308  22756284.89008
 -26381301.55309 -20556834.49609  20548975.40809  20548976.41709
 -23970640.98909 -18678409.77509  20606597.72409  20606598.15209
 93 07 24 02 59 00.0000000  0  7 28 01 23 02 15 21 31
 -19990605.21508 -15577084.41008  21367209.67908  21367210.51108
 -11984047.42108  -9338203.24208  22950438.56308  22950440.56108
   8478851.88608   6606895.31808  22620411.95908  22620413.50408
  -1270950.07608   -990350.44908  24818233.08608  24818236.06508
 -13149394.91508 -10246270.56808  22719647.87408  22719649.78708
 -26330297.26509 -20517090.90709  20558681.26509  20558682.28209
 -23965146.57209 -18674128.41309  20607643.34609  20607643.76909
 93 07 24 03 00 00.0000000  0  7 28 01 23 02 15 21 31
 -19829729.15308 -15451726.50608  21397823.34808  21397824.21708
 -12160934.18108  -9476036.97508  22916777.97808  22916779.99508
   8645888.89608   6737053.96008  22652198.10908  22652199.72708
  -1403484.83708  -1093624.17708  24793012.26508  24793015.43608
 -13341145.00708 -10395686.11308  22683158.99308  22683160.83708
 -26277142.91709 -20475671.94609  20568796.18309  20568797.20909
 -23957196.45809 -18667933.52209  20609156.22009  20609156.59309
 93 07 24 03 01 00.0000000  0  8 28 01 23 02 09 21 31 15
 -19667131.94208 -15325027.46208  21428764.81508  21428765.66808
 -12336524.10308  -9612860.18008  22883364.22408  22883366.20008
   8814103.50308   6868130.21008  22684208.32808  22684209.93808
  -1534291.72008  -1195551.49508  24768120.44908  24768123.61508
         0.49417         0.21118  25358711.03117  25358714.58718
 -26221968.68809 -20432679.05209  20579295.46009  20579296.53109
 -23946807.58109 -18659838.29609  20611133.12409  20611133.48309
 -13532179.07708 -10544543.72408  22646806.31308  22646808.10608
 93 07 24 03 02 00.0000000  0  8 28 01 23 02 09 15 21 31
 -19502696.27408 -15196895.83808  21460055.92208  21460056.75908
 -12510770.04008  -9748636.12808  22850206.17508  22850208.18108
   8983501.79808   7000128.81808  22716443.74708  22716445.34108
  -1663316.60608  -1296090.26308  24743567.72508  24743570.91308
   -124797.04307    -97244.55108  25334962.91407  25334966.23808
 -13722434.59108 -10692794.67208  22610601.84108  22610603.58008
 -26164747.85009 -20388091.39709  20590184.23309  20590185.30309
 -23934045.00109 -18649893.43209  20613561.77009  20613562.17109
 93 07 24 03 03 00.0000000  0  8 28 01 23 02 09 15 21 31
 -19336444.79908 -15067349.29108  21491692.56308  21491693.42108
 -12683690.03308  -9883378.88108  22817300.44008  22817302.39508
   9153941.15908   7132938.64008  22748877.40908  22748879.02408
  -1790549.46008  -1395232.67108  24719356.14508  24719359.18208
   -248089.51207   -193316.51308  25311500.99707  25311504.39108
 -13911917.73808 -10840443.78108  22574544.38208  22574546.07108
 -26105431.88609 -20341871.17609  20601471.68509  20601472.77009
 -23919023.02609 -18638187.99809  20616420.32309  20616420.75409
 93 07 24 03 04 00.0000000  0  8 28 01 23 02 09 15 21 31
 -19168395.46008 -14936401.84408  21523671.17008  21523672.07808
 -12855240.05408 -10017054.11008  22784655.54508  22784657.52008
   9325427.53508   7266564.31608  22781510.21008  22781511.81908
  -1915940.03608  -1492939.56008  24695495.14008  24695498.18808
   -369842.43607   -288188.87508  25288332.14307  25288335.48208
 -14100579.35408 -10987452.74008  22538643.12608  22538644.80708
 -26044001.67909 -20294003.49209  20613161.50909  20613162.59209
 -23901683.20109 -18624676.44409  20619720.03709  20619720.44609
 93 07 24 03 05 00.0000000  0  8 28 01 23 02 09 15 21 31
 -18998658.21808 -14804139.10908  21555971.24708  21555972.14008
 -13025405.75808 -10149650.63808  22752274.01108  22752276.03708
   9497942.65608   7400991.61308  22814338.85008  22814340.38808
  -2039494.93608  -1589216.02708  24671983.34908  24671986.40608
   -490031.63807   -381842.74508  25265460.87607  25265464.25808
 -14288430.88508 -11133830.46108  22502896.07008  22502897.71208
 -25980621.03109 -20244615.97809  20625222.44709  20625223.48909
 -23881984.47309 -18609326.78209  20623468.54709  20623468.94609
 93 07 24 03 06 00.0000000  0  8 28 01 02 23 09 15 21 31
 -18827230.90008 -14670559.43708  21588592.72308  21588593.60008
 -13193977.99308 -10281005.50008  22720195.64008  22720197.60008
  -2161069.64208  -1683949.49008  24648848.53308  24648851.43408
   9671544.47608   7536265.67908  22847374.18108  22847375.82808
   -608569.11507   -474209.55507  25242904.11707  25242907.17807
 -14475401.08208 -11279521.43408  22467316.79008  22467318.39508
 -25915281.49009 -20193702.05809  20637656.16809  20637657.20809
 -23859817.00709 -18592053.42909  20627686.93309  20627687.34009
 93 07 24 03 07 00.0000000  0  8 28 01 02 23 09 15 21 31
 -18654089.59308 -14535644.20308  21621540.50408  21621541.41408
 -13360873.19108 -10411053.59508  22688436.61108  22688438.39908
  -2280651.90908  -1777130.42408  24626092.64108  24626095.56208
   9846187.83808   7672351.32708  22880607.90308  22880609.49808
   -725466.75007   -565298.54207  25220659.00007  25220662.11107
 -14661507.35708 -11424539.22608  22431901.91408  22431903.44308
 -25847825.11209 -20141138.66009  20650492.66509  20650493.72509
 -23835173.39609 -18572850.61309  20632376.45809  20632376.85209
 93 07 24 03 08 00.0000000  0  8 28 01 02 23 09 21 31 15
 -18479250.03208 -14399405.66208  21654811.35408  21654812.35308
 -13526220.88608 -10539895.84508  22656971.84108  22656973.81108
  -2398289.60508  -1868796.12408  24603707.06308  24603709.71408
  10021799.44808   7809191.45708  22914025.59108  22914027.28708
   -840760.25407   -655137.56107  25198719.26007  25198722.37007
 -25778151.72109 -20086847.72209  20663751.09709  20663752.15409
 -23808096.94709 -18551752.08309  20637528.84309  20637529.26009
 -14846775.15308 -11568903.66208  22396646.55808  22396648.15008
 93 07 24 03 09 00.0000000  0  8 28 01 02 23 09 21 31 15
 -18302774.34108 -14261892.23808  21688393.67908  21688394.69208
 -13690177.38408 -10667654.03808  22625771.89708  22625773.78308
  -2514048.81408  -1958998.07408  24581678.56508  24581681.36708
  10198351.28908   7946764.23008  22947622.30008  22947624.08908
   -954457.31307   -743732.58107  25177083.58807  25177086.65107
 -25706394.52909 -20030933.04409  20677406.01009  20677407.10309
 -23778687.73509 -18528835.82209  20643125.32909  20643125.75009
 -15031211.51308 -11712620.22208  22361549.40308  22361550.94908
 93 07 24 03 10 00.0000000  0  8 28 02 01 23 09 21 31 15
 -18124644.98108 -14123090.24708  21722290.58908  21722291.61308
  -2627910.13308  -2047721.09308  24560011.25508  24560014.34308
 -13852738.93408 -10794325.27808  22594837.33408  22594839.14308
  10375872.92508   8085092.69008  22981403.73608  22981405.43308
  -1066474.10407   -831018.32007  25155767.40207  25155770.50707
 -25632672.29809 -19973487.16909  20691434.91009  20691436.01309
 -23746999.76809 -18504143.91209  20649155.35809  20649155.77709
 -15214784.39608 -11855663.94008  22326616.60608  22326618.07708
 93 07 24 03 11 00.0000000  0  8 28 02 01 23 09 21 31 15
 -17944841.34508 -13982983.60108  21756506.36008  21756507.34408
  -2739828.45308  -2134930.07608  24538713.94008  24538716.98708
 -14013729.47908 -10919772.35208  22564201.74008  22564203.59808
  10554391.83208   8224198.24508  23015374.73808  23015376.53608
  -1176787.35507   -916976.64507  25134775.28107  25134778.43707
 -25557006.01409 -19914526.44509  20705833.75809  20705834.83509
 -23712925.25109 -18477592.35609  20655639.48109  20655639.90609
 -15397434.89008 -11997988.91608  22291859.30608  22291860.81208
 93 07 24 03 12 00.0000000  0  8 02 28 01 23 09 21 31 15
  -2849740.76008  -2220575.95508  24517798.35808  24517801.34008
 -17763415.43408 -13841612.83108  21791030.58908  21791031.58008
 -14173044.11908 -11043913.52508  22533885.15208  22533887.01008
  10733944.34708   8364109.20208  23049542.55408  23049544.35708
  -1285378.06907  -1001592.72507  25114111.28707  25114114.27207
 -25479369.55709 -19854030.52209  20720607.45009  20720608.56409
 -23676386.82809 -18449120.87209  20662592.53709  20662592.93009
 -15579142.73808 -12139579.35708  22257281.37608  22257282.86408
 93 07 24 03 13 00.0000000  0  8 02 28 01 23 21 31 09 15
  -2957625.96008  -2304642.28108  24497268.47208  24497271.40008
 -17580430.92408 -13699027.59408  21825851.49408  21825852.47708
 -14330736.76808 -11166790.82008  22503877.11908  22503878.91908
  10914462.79908   8504772.83808  23083894.17208  23083896.00708
 -25399831.44009 -19792052.78809  20735743.10309  20735744.21209
 -23637470.84709 -18418796.74909  20669998.12009  20669998.51209
  -1392223.02507  -1084848.46107  25093779.26407  25093782.20207
 -15759951.57708 -12280469.27608  22222874.48708  22222875.98208
 93 07 24 03 14 00.0000000  0  8 02 28 01 23 21 31 09 15
  -3063524.37108  -2387160.46608  24477116.69108  24477119.58308
 -17395910.72108 -13555245.69608  21860964.55108  21860965.56108
 -14486826.63408 -11288419.20308  22474174.24608  22474175.93408
  11095840.07308   8646105.68508  23118409.13508  23118411.03008
 -25318377.40909 -19728582.13308  20751243.28509  20751244.39608
 -23596225.63709 -18386657.64109  20677846.73409  20677847.10809
  -1497299.69107  -1166726.32907  25073783.84007  25073786.82507
 -15939868.71008 -12420664.36808  22188637.34308  22188638.87808
 93 07 24 03 15 00.0000000  0  8 02 28 01 23 21 31 09 15
  -3167456.48408  -2468146.48108  24457339.06008  24457341.84408
 -17209873.00908 -13410281.33408  21896366.30708  21896367.41008
 -14641253.73508 -11408751.93608  22444787.60708  22444789.31008
  11278031.47108   8788072.91808  23153079.12008  23153081.07508
 -25234938.74309 -19663565.01108  20767121.18309  20767122.24008
 -23552598.92609 -18352662.81209  20686148.60509  20686149.02309
  -1600599.24108  -1247219.43707  25054126.55708  25054129.65607
 -16118843.14308 -12560124.89808  22154579.58308  22154581.06608
 93 07 24 03 16 00.0000000  0  8 02 28 01 23 21 31 09 15
  -3269345.10108  -2547540.16508  24437950.17908  24437953.00908
 -17022293.00308 -13264115.20808  21932061.69908  21932062.79908
 -14793986.08308 -11527764.08708  22415723.58108  22415725.25508
  11461062.91708   8930694.73808  23187908.87408  23187910.84108
 -25149555.12109 -19597032.33508  20783369.15309  20783370.20408
 -23506643.39309 -18316853.31509  20694893.64909  20694894.09509
  -1702126.74908  -1326331.73407  25034806.55108  25034809.39707
 -16296864.53608 -12698842.80108  22120703.15808  22120704.67408
 93 07 24 03 17 00.0000000  0  8 02 28 01 23 21 31 09 15
  -3369094.24608  -2625266.67308  24418968.28608  24418971.31808
 -16833110.09408 -13116700.02608  21968062.02108  21968063.17508
 -14944950.96508 -11645398.98508  22386995.92008  22386997.62208
  11645025.61908   9074042.21408  23222915.96808  23222917.93708
 -25062209.90709 -19528971.14108  20799990.38509  20799991.46108
 -23458329.89809 -18279206.44309  20704087.41309  20704087.87009
  -1801810.67608  -1404007.43407  25015837.15108  25015840.17007
 -16473898.40808 -12836791.21108  22087014.69208  22087016.18508
 93 07 24 03 18 00.0000000  0  8 02 28 01 23 21 31 09 15
  -3466755.30108  -2701366.13208  24400384.24008  24400386.83408
 -16642391.98808 -12968088.59908  22004354.71008  22004355.84908
 -15094165.26708 -11761669.77808  22358601.29208  22358602.92008
  11829916.85508   9218113.22308  23258099.58708  23258101.58308
 -24972856.66409 -19459345.25108  20816993.75909  20816994.84608
 -23407632.61409 -18239702.07809  20713734.81509  20713735.26509
  -1899643.77108  -1480240.94207  24997220.13608  24997223.12707
 -16649945.06408 -12973970.37008  22053514.06208  22053515.53908
 93 07 24 03 19 00.0000000  0  8 02 28 01 23 09 21 31 15
  -3562408.27408  -2775900.91108  24382182.05808  24382184.66608
 -16450273.06408 -12818385.61508  22040913.82508  22040915.07408
 -15241700.80108 -11876632.45508  22330526.20808  22330527.66508
  12015623.21108   9362819.38408  23293438.36008  23293440.37408
  -1995694.58108  -1555085.67007  24978942.20508  24978945.21207
 -24881530.84209 -19388182.28608  20834372.50709  20834373.56608
 -23354631.36809 -18198402.41909  20723820.66109  20723821.08109
 -16825049.49208 -13110415.32608  22020192.75008  22020194.23308
 93 07 24 03 20 00.0000000  0  8 02 28 01 23 09 21 31 15
  -3655985.35908  -2848818.05008  24364374.69608  24364377.55608
 -16256772.69608 -12667606.19208  22077735.63608  22077736.94408
 -15387529.43908 -11990265.10108  22302775.87708  22302777.31708
  12202113.42508   9508136.34508  23328926.33408  23328928.33608
  -2089963.07808  -1628541.58407  24961003.47908  24961006.62407
 -24788337.10709 -19315563.81008  20852106.72209  20852107.81108
 -23299363.20709 -18155336.33709  20734337.76509  20734338.20109
 -16999185.51408 -13246105.67408  21987055.70108  21987057.18208
 93 07 24 03 21 00.0000000  0  8 02 28 01 23 09 21 31 15
  -3747343.31708  -2920006.00208  24346990.04708  24346992.83008
 -16061823.63908 -12515697.91508  22114833.12708  22114834.41908
 -15531502.20008 -12102451.60708  22275378.66908  22275380.18008
  12389472.04008   9654129.98208  23364579.55608  23364581.54908
  -2182384.73908  -1700558.41307  24943416.19708  24943419.18707
 -24693330.93809 -19241533.05608  20870185.82209  20870186.92608
 -23241688.16509 -18110394.76509  20745312.89909  20745313.34209
 -17172266.25008 -13380973.72308  21954119.48808  21954120.97908
 93 07 24 03 22 00.0000000  0  8 02 28 01 23 09 21 31 15
  -3836547.29308  -2989515.53708  24330014.97208  24330017.65508
 -15865444.29108 -12362675.16108  22152203.04108  22152204.29908
 -15673681.43408 -12213240.55908  22248322.72408  22248324.32308
  12577676.75608   9800782.91508  23400393.71108  23400395.72208
  -2272942.84508  -1771123.11407  24926183.39808  24926186.22807
 -24596510.16109 -19166088.32308  20888610.19009  20888611.31908
 -23181610.94709 -18063581.36909  20756745.31909  20756745.79309
 -17344329.29008 -13515048.76508  21921376.98408  21921378.40008
 93 07 24 03 23 00.0000000  0  8 02 28 01 23 09 21 31 15
  -3923633.53908  -3057374.90808  24313442.90508  24313445.57508
 -15667639.04308 -12208541.33208  22189844.20508  22189845.52608
 -15814149.54208 -12322696.16808  22221592.47008  22221594.08908
  12766650.60008   9948035.16508  23436354.33208  23436356.38608
  -2361640.01408  -1840237.73308  24909304.80108  24909307.94308
 -24497857.85309 -19089216.42608  20907383.12809  20907384.26608
 -23119206.72409 -18014954.72709  20768620.47309  20768620.95109
 -17515369.91608 -13648327.12208  21888828.99508  21888830.34508
 93 07 24 03 24 00.0000000  0  8 02 28 01 23 09 21 31 15
  -4008627.93408  -3123604.25308  24297268.96308  24297271.52708
 -15468414.36508 -12053301.45508  22227755.57708  22227756.86908
 -15952864.74308 -12430785.87808  22195195.84908  22195197.44808
  12956264.87508  10095786.45508  23472436.76908  23472438.84308
  -2448430.38708  -1907866.53908  24892789.19208  24892792.16608
 -24397395.89609 -19010934.41408  20926500.46309  20926501.54708
 -23054526.82509 -17964554.82809  20780928.68209  20780929.12009
 -17685358.01008 -13780785.32408  21856481.30908  21856482.65408
 93 07 24 03 25 00.0000000  0  8 02 28 01 23 09 21 31 15
  -4091546.36208  -3188215.96308  24281489.84308  24281492.66508
 -15267819.35208 -11896993.77508  22265927.70508  22265929.05308
 -16089710.17708 -12537418.62908  22169155.01908  22169156.45308
  13146517.31808  10244035.01108  23508640.75608  23508642.85608
  -2533215.44308  -1973932.75808  24876655.02308  24876657.94608
 -24295088.10409 -18931214.08508  20945969.05109  20945970.12208
 -22987512.45809 -17912335.86309  20793681.05809  20793681.51709
 -17854246.44408 -13912386.64508  21824342.86708  21824344.22108
 93 07 24 03 26 00.0000000  0  8 02 28 01 23 09 21 31 15
  -4172307.69908  -3251146.82308  24266121.62808  24266124.17408
 -15065876.40508 -11739635.77308  22304356.16608  22304357.49808
 -16224663.84408 -12642577.27608  22143474.14708  22143475.69108
  13337523.08108  10392870.56908  23544988.13108  23544990.22808
  -2615983.92008  -2038427.63508  24860904.65208  24860907.59808
 -24190874.96209 -18850009.06808  20965800.17609  20965801.25908
 -22918131.52309 -17858272.81809  20806883.84509  20806884.29709
 -18022016.45108 -14043116.46808  21792417.22308  21792418.58308
 93 07 24 03 27 00.0000000  0  8 21 02 28 01 23 09 31 15
 -24084802.95909 -18767355.58308  20985985.02209  20985986.08308
  -4250807.85608  -3312315.73608  24251183.50408  24251186.18108
 -14862604.06408 -11581241.88408  22343037.67208  22343039.10708
 -16357756.84708 -12746286.03508  22118147.27008  22118148.83208
  13529340.31908  10542338.44408  23581489.87508  23581491.93108
  -2696806.42608  -2101406.16408  24845524.61808  24845527.54908
 -22846424.25709 -17802397.04709  20820529.35009  20820529.79109
 -18188679.70008 -14172983.88708  21760702.24608  21760703.56408
 93 07 24 03 28 00.0000000  0  8 02 28 01 23 21 09 31 15
  -4327051.63608  -3371726.41908  24236674.59208  24236677.26408
 -14657978.78108 -11421793.73708  22381976.71908  22381978.21408
 -16488950.79908 -12848515.01908  22093181.88308  22093183.38908
  13721920.45408  10692400.79408  23618136.67808  23618138.74108
 -23976952.60809 -18683316.37008  21006508.20109  21006509.29608
  -2775685.85108  -2162870.60608  24830514.35508  24830517.22608
 -22772514.18409 -17744804.80209  20834593.97009  20834594.42209
 -18354249.93408 -14301999.60708  21729195.28508  21729196.51408
 93 07 24 03 29 00.0000000  0  8 02 28 01 23 21 31 09 15
  -4401094.23408  -3429421.90208  24222584.74408  24222587.65708
 -14452014.11308 -11261301.90808  22421170.55808  22421172.12008
 -16618157.04708 -12949195.14408  22068594.73808  22068596.24608
  13915210.60108  10843016.39908  23654918.73108  23654920.79508
 -23867305.90008 -18597877.39808  21027373.32608  21027374.44408
 -22696389.61109 -17685486.97209  20849079.99909  20849080.43209
  -2852533.52508  -2222751.86208  24815890.70408  24815893.61808
 -18518701.76908 -14430143.84508  21697901.06808  21697902.33808
 93 07 24 03 30 00.0000000  0  8 02 28 01 23 21 31 09 15
  -4473052.34408  -3485493.07708  24208891.62908  24208894.58208
 -14244907.43008 -11099920.21308  22460581.63008  22460583.17408
 -16745385.60308 -13048334.22208  22044383.87108  22044385.34108
  14109024.39408  10994040.03108  23691800.30008  23691802.47308
 -23755982.57308 -18511131.96708  21048557.44608  21048558.59808
 -22618015.84809 -17624416.53109  20863994.09309  20863994.52709
  -2927361.20708  -2281059.11008  24801651.33708  24801654.31708
 -18682095.88008 -14557463.89208  21666808.19908  21666809.43708
 93 07 24 03 31 00.0000000  0  8 02 28 01 23 21 09 31 15
  -4542764.84308  -3539814.47008  24195625.91108  24195628.42008
 -14036670.14908 -10937657.52908  22500208.22508  22500209.72708
 -16870624.29408 -13145922.76608  22020551.68108  22020553.17608
  14303380.45708  11145486.20108  23728785.08308  23728787.27708
 -23643028.91008 -18423116.14708  21070051.84708  21070052.97908
  -3000200.10008  -2337816.63508  24787790.62908  24787793.32808
 -22537299.41709 -17561520.63609  20879353.91109  20879354.33309
 -18844357.42708 -14683901.42008  21635930.82108  21635932.07908
 93 07 24 03 32 00.0000000  0  8 02 28 01 23 21 09 31 15
  -4610185.78508  -3592350.25308  24182795.93508  24182798.68208
 -13827206.31008 -10774439.07608  22540067.92208  22540069.47708
 -16993917.90708 -13241995.66908  21997089.68008  21997091.08608
  14498354.84808  11297414.17708  23765887.52408  23765889.85508
 -23528443.42108 -18333828.77308  21091856.74908  21091857.89108
  -3071109.54908  -2393070.68808  24774296.96308  24774299.77108
 -22454297.28609 -17496843.67909  20895148.70209  20895149.15309
 -19005451.77408 -14809429.43808  21605275.56308  21605276.82808
 93 07 24 03 33 00.0000000  0  7 02 28 01 23 21 15 31
  -4675357.48408  -3643133.35008  24170394.19908  24170396.75908
 -13616417.48408 -10610188.16808  22580179.87508  22580181.38208
 -17115246.29508 -13336537.21508  21974001.53408  21974003.06908
  14694001.20208  11449865.75308  23803117.88408  23803120.23308
 -23412053.56308 -18243135.39908  21114004.97108  21114006.15808
 -19165354.69108 -14934029.06808  21574846.98208  21574848.26408
 -22369000.87309 -17430378.96809  20911380.07209  20911380.54109
 93 07 24 03 34 00.0000000  0  8 02 28 01 23 21 12 31 15
  -4738352.08108  -3692220.01308  24158406.62008  24158409.40708
 -13404413.90608 -10444990.72808  22620522.79908  22620524.41308
 -17234617.43708 -13429553.62108  21951285.93608  21951287.48308
  14890299.05008  11602824.98208  23840472.14208  23840474.62408
 -23293833.45408 -18151015.85808  21136501.57508  21136502.70908
        -0.82218        -0.34818  25270195.90218  25270200.67318
 -22281371.84009 -17362096.63309  20928055.36409  20928055.84009
 -19324074.39908 -15057706.71008  21544643.54708  21544644.84908
 93 07 24 03 35 00.0000000  0  8 02 28 01 23 21 12 31 15
  -4799206.17008  -3739638.75008  24146826.69008  24146829.20708
 -13191335.55508 -10278955.79708  22661070.40108  22661071.97408
 -17351989.95808 -13521012.67108  21928950.69208  21928952.10508
  15087170.79308  11756231.39408  23877935.77208  23877938.20708
 -23173940.92408 -18057593.13408  21159316.33808  21159317.47808
   -163701.63107   -127559.33608  25239044.74307  25239049.34008
 -22191495.94309 -17292063.50009  20945158.22409  20945158.68009
 -19481630.37508 -15180477.55408  21514661.61808  21514662.84708
 93 07 24 03 36 00.0000000  0  8 28 02 01 23 21 12 31 15
 -12977141.94208 -10112051.80408  22701830.28608  22701831.85608
  -4857802.90708  -3785298.50208  24135676.04008  24135678.48408
 -17467288.22508 -13610855.42308  21907010.15808  21907011.52008
  15284640.92508  11910104.08308  23915513.17508  23915515.62708
 -23052438.12708 -17962915.66308  21182437.61708  21182438.79908
   -325748.68507   -253829.70708  25208207.99107  25208212.85808
 -22099442.63209 -17220333.68509  20962675.35109  20962675.81209
 -19637965.40808 -15302297.01408  21484911.99208  21484913.24508
 93 07 24 03 37 00.0000000  0  8 02 28 01 23 21 31 12 15
  -4914076.31408  -3829147.91008  24124967.58008  24124969.91808
 -12761805.56608  -9944257.37308  22742807.57908  22742809.19708
 -17580444.42508 -13699029.03508  21885477.19408  21885478.56308
  15482717.60108  12064449.40708  23953205.94308  23953208.44908
 -22929320.37308 -17866979.78508  21205866.17508  21205867.32008
 -22005203.49809 -17146900.62809  20980608.46709  20980608.95809
   -486108.18007   -378785.05008  25177692.61807  25177697.28308
 -19793058.36308 -15423148.62808  21455398.80008  21455400.01808
 93 07 24 03 38 00.0000000  0  8 02 28 01 23 21 31 12 15
  -4968046.04808  -3871202.22208  24114697.33908  24114699.73308
 -12545372.67208  -9775608.50808  22783993.35108  22783995.11208
 -17691464.79008 -13785538.36008  21864350.68808  21864352.07308
  15681395.64108  12219263.32308  23991013.20208  23991015.75408
 -22804532.94208 -17769742.86308  21229612.49708  21229613.67808
 -21908737.85109 -17071732.62809  20998965.39509  20998965.87409
   -644773.96707   -502420.61707  25147499.43007  25147504.09007
 -19946915.98508 -15543037.64208  21426120.62208  21426121.88708
 93 07 24 03 39 00.0000000  0  8 02 28 01 23 21 31 12 15
  -5019744.64208  -3911486.84908  24104859.53908  24104861.96108
 -12327882.98708  -9606136.15508  22825380.11708  22825381.92308
 -17800433.30608 -13870448.84908  21843614.70808  21843616.03108
  15880615.20108  12374499.20008  24028923.50108  24028926.04808
 -22678081.28208 -17671209.13908  21253675.46408  21253676.68608
 -21810110.18109 -16994879.93409  21017733.73109  21017734.23709
   -801743.47307   -624734.44407  25117628.99707  25117633.75707
 -20099548.40608 -15661971.95908  21397075.64208  21397076.84208
 93 07 24 03 40 00.0000000  0  8 02 28 01 23 21 31 12 15
  -5069166.14608  -3949997.07508  24095454.89708  24095457.45108
 -12109332.38608  -9435837.11308  22866969.20408  22866970.99008
 -17907415.88708 -13953811.86008  21823256.56008  21823257.85508
  16080241.65008  12530052.14508  24066911.28508  24066913.73408
 -22549980.37508 -17571390.28708  21278052.24608  21278053.48308
 -21709391.33909 -16916397.75208  21036899.78609  21036900.31408
   -956976.00607   -745694.73907  25088089.39607  25088093.95607
 -20250927.43808 -15779929.61008  21368269.14408  21368270.33408
 93 07 24 03 41 00.0000000  0  8 02 28 01 23 21 31 12 15
  -5116236.95108  -3986675.60408  24086497.65208  24086500.05408
 -11889713.53808  -9264705.69408  22908761.37508  22908763.33308
 -18012386.54608 -14035607.13908  21803281.23608  21803282.55908
  16280263.77408  12685913.40708  24104974.35708  24104976.86608
 -22420245.85008 -17470298.48208  21302739.92408  21302741.15508
 -21606491.96309 -16836216.45308  21056481.01909  21056481.56608
  -1110413.07007   -865255.99407  25058891.04607  25058895.82807
 -20401006.97608 -15896874.67008  21339709.90708  21339711.10908
 93 07 24 03 42 00.0000000  0  8 02 28 01 23 21 31 12 15
  -5160951.79208  -4021518.31308  24077988.57608  24077990.94708
 -11669027.67208  -9092742.83908  22950756.67308  22950758.57208
 -18115188.32908 -14115712.36808  21783718.61008  21783720.00308
  16480826.98308  12842196.30008  24143140.41308  24143142.82508
 -22288883.59508 -17367938.31408  21327737.36708  21327738.60508
 -21501296.34309 -16754245.87008  21076499.07109  21076499.62408
  -1262004.58607   -983379.14507  25030044.22607  25030048.63207
 -20549748.82108 -16012777.37408  21311405.25508  21311406.44308
 93 07 24 03 43 00.0000000  0  8 02 28 01 23 21 31 12 15
  -5203418.36208  -4054609.13308  24069907.52608  24069910.02208
 -11447313.17308  -8919978.45708  22992947.63608  22992949.46408
 -18215786.62008 -14194100.60208  21764575.32908  21764576.67508
  16681963.93708  12998926.28008  24181415.55508  24181417.92608
 -22155988.23608 -17264383.52208  21353026.49708  21353027.73208
 -21393888.24409 -16670551.28408  21096938.04709  21096938.63208
  -1411766.97907  -1100077.00207  25001545.17707  25001549.75507
 -20697180.93108 -16127659.49908  21283349.83808  21283351.01008
 93 07 24 03 44 00.0000000  0  8 02 28 01 23 21 31 12 15
  -5243641.93808  -4085952.14708  24062253.08708  24062255.69608
 -11224548.11708  -8746395.45108  23035338.63308  23035340.59008
 -18314164.24408 -14270758.44408  21745854.67508  21745855.95808
  16883602.26308  13156046.94108  24219786.14708  24219788.61108
 -22021566.26108 -17159639.15808  21378606.21508  21378607.45508
 -21284371.66109 -16585213.73008  21117778.40409  21117779.00008
  -1559682.53807  -1215335.76107  24973397.75307  24973402.27707
 -20843298.42608 -16241517.25808  21255544.58408  21255545.73308
 93 07 24 03 45 00.0000000  0  8 02 28 01 23 21 31 12 15
  -5281524.30208  -4115470.82908  24055044.30208  24055046.82408
 -11000813.03608  -8572056.58808  23077914.02308  23077916.07908
 -18410355.65308 -14345712.73908  21727550.04508  21727551.27608
  17085651.92808  13313488.12908  24258234.91808  24258237.45708
 -21885645.48408 -17053726.89508  21404471.12708  21404472.36808
 -21172841.69009 -16498307.30708  21139001.88009  21139002.46708
  -1705750.59108  -1329154.90507  24945601.86808  24945606.13807
 -20988110.91908 -16354358.12608  21227987.65108  21227988.81008
 93 07 24 03 46 00.0000000  0  8 02 28 01 23 21 31 12 15
  -5316998.14208  -4143112.77308  24048293.86808  24048296.30008
 -10776217.69508  -8397047.39908  23120653.35008  23120655.49808
 -18504304.59108 -14418919.67108  21709672.15408  21709673.36408
  17288184.82708  13471305.85408  24296775.90808  24296778.43408
 -21748174.71608 -16946606.84808  21430630.90608  21430632.13808
 -21059254.70809 -16409798.01208  21160616.83109  21160617.45908
  -1849924.15608  -1441497.82007  24918166.40408  24918170.84307
 -21131583.79408 -16466155.13208  21200685.59708  21200686.76308
 93 07 24 03 47 00.0000000  0  8 02 28 01 23 21 31 12 15
  -5350135.47208  -4168934.02408  24041987.88408  24041990.35908
 -10550793.02308  -8221392.00808  23163550.34208  23163552.49008
 -18596028.20708 -14490392.57708  21692217.64608  21692218.90008
  17491209.80408  13629507.01308  24335410.36408  24335412.99908
 -21609139.57908 -16838267.81508  21457088.45408  21457089.73808
 -20943537.99709 -16319629.19408  21182637.02709  21182637.62708
  -1992179.12008  -1552345.71907  24891096.11908  24891100.58307
 -21273703.28508 -16576897.55608  21173641.12508  21173642.24608
 93 07 24 03 48 00.0000000  0  8 02 28 01 23 21 31 12 15
  -5380993.67008  -4192979.35608  24036115.88308  24036118.36008
 -10324517.92108  -8045073.94208  23206609.07208  23206611.08208
 -18685563.07808 -14560159.97408  21675179.70908  21675180.93908
  17694652.11208  13788033.36308  24374124.21108  24374126.92608
 -21468576.35208 -16728738.06708  21483836.79808  21483838.07008
 -20825646.65909 -16227765.84908  21205071.03409  21205071.63408
  -2132491.85908  -1661680.22307  24864395.33208  24864399.60307
 -21414456.15208 -16686575.07808  21146856.74408  21146857.86708
 93 07 24 03 49 00.0000000  0  8 02 28 01 23 21 31 12 15
  -5409570.22608  -4215246.77408  24030677.83808  24030680.19808
 -10097354.84208  -7868063.91108  23249837.06608  23249839.06208
 -18772970.71808 -14628269.79108  21658546.54708  21658547.81208
  17898452.30108  13946838.57308  24412906.15808  24412908.91208
 -21326547.08308 -16618065.94808  21510864.07608  21510865.36608
 -20705660.52408 -16134270.21008  21227903.67508  21227904.26708
  -2270849.85608  -1769491.52307  24838066.58108  24838070.98107
 -21553840.94208 -16795186.56308  21120332.63508  21120333.78308
 93 07 24 03 50 00.0000000  0  8 02 28 01 23 21 31 12 15
  -5435893.13608  -4235758.13008  24025668.72008  24025671.12408
  -9869372.74108  -7690415.70008  23293220.79108  23293222.93808
 -18858217.81408 -14694696.06708  21642324.48508  21642325.77408
  18102605.64408  14105918.95008  24451755.48408  24451758.22608
 -21183108.27508 -16506295.48908  21538159.64308  21538160.92408
 -20583674.37008 -16039216.13408  21251116.95508  21251117.60808
  -2407240.60808  -1875769.96108  24812112.24608  24812116.71108
 -21691855.65908 -16902730.46008  21094069.33208  21094070.45208
 93 07 24 03 51 00.0000000  0  8 02 28 01 23 21 31 12 15
  -5459891.94808  -4254458.48408  24021101.87908  24021104.46108
  -9640575.20708  -7512132.09008  23336759.60108  23336761.85408
 -18941131.66708 -14759304.23208  21626546.49608  21626547.78308
  18307144.26008  14265299.55108  24490677.95108  24490680.78708
 -21038208.39808 -16393386.53608  21565733.20608  21565734.46508
 -20459612.24708 -15942544.39308  21274725.16008  21274725.87908
  -2541572.74608  -1980444.26008  24786549.56708  24786553.95208
 -21828418.68109 -17009143.17409  21068082.23809  21068083.35709
 93 07 24 03 52 00.0000000  0  7 28 01 23 21 31 12 15
  -9410935.82908  -7333192.50008  23380458.58708  23380460.82408
 -19021648.44008 -14822044.53808  21611224.66408  21611225.93108
  18512005.92508  14424931.87808  24529661.92708  24529664.82008
 -20891871.77208 -16279358.04108  21593580.22108  21593581.49208
 -20333472.65408 -15844253.85308  21298728.76908  21298729.48308
  -2673824.78508  -2083497.71208  24761382.79008  24761387.05008
 -21963518.43009 -17114415.67509  21042373.59509  21042374.68809
 93 07 24 03 53 00.0000000  0  8 28 14 01 23 21 31 12 15
  -9180447.53508  -7153591.42808  23424319.24908  23424321.63208
        -0.98217        -0.72617  25401639.33417  25401644.83817
 -19099827.34908 -14882963.13208  21596347.73408  21596348.94408
  18717195.00708  14584819.33408  24568708.14408  24568711.16508
 -20744067.16808 -16164185.66908  21621706.49108  21621707.72608
 -20205309.70308 -15744386.67908  21323117.46808  21323118.19008
  -2803996.73508  -2184930.31908  24736611.74108  24736616.15308
 -22097164.45609 -17218555.40209  21016941.58909  21016942.66809
 93 07 24 03 54 00.0000000  0  8 01 28 21 14 23 31 12 15
 -19175860.02208 -14942209.34908  21581879.22108  21581880.41908
  -8949140.32008  -6973352.23708  23468335.61508  23468338.03908
 -20594893.82808 -16047946.74808  21650093.24408  21650094.58108
   -219822.52807   -171289.78407  25359808.42407  25359813.72407
  18922721.75408  14744969.89408  24607818.67608  24607821.66808
 -20075218.54808 -15643017.00108  21347872.94808  21347873.74108
  -2932144.17308  -2284785.38508  24712226.14908  24712230.45208
 -22229422.37709 -17321613.50009  20991773.71509  20991774.77709
 93 07 24 03 55 00.0000000  0  8 01 28 21 14 23 31 12 15
 -19249741.12308 -14999779.01208  21567820.06108  21567821.30408
  -8716966.66208  -6792437.89008  23512517.11208  23512519.47608
 -20444372.95308 -15930657.80008  21678736.48008  21678737.85608
   -439453.01907   -342429.97907  25318013.83807  25318018.92607
  19128604.15608  14905397.59608  24646996.78308  24646999.83308
 -19943107.83008 -15540073.64508  21373012.88808  21373013.70108
  -3058184.27408  -2382998.34408  24688241.30508  24688245.60008
 -22360218.09409 -17423532.21909  20966884.10109  20966885.15009
 93 07 24 03 56 00.0000000  0  8 01 21 28 14 23 31 12 15
 -19321397.90308 -15055615.43208  21554184.18208  21554185.37008
 -20292442.11308 -15812270.17608  21707647.95808  21707649.38008
  -8484081.12208  -6610968.83908  23556833.72408  23556836.25308
   -658847.87108   -513386.57207  25276264.04408  25276269.07807
  19334770.61008  15066046.64208  24686229.09808  24686232.12108
 -19808991.02708 -15435567.09208  21398534.43608  21398535.24208
  -3182071.23408  -2479533.52608  24664666.45908  24664670.60408
 -22489514.19609 -17524282.40509  20942279.89009  20942280.89609
 93 07 24 03 57 00.0000000  0  8 01 21 28 14 23 31 12 15
 -19390713.27908 -15109627.38808  21540993.88208  21540995.05108
 -20139049.67608 -15692743.64808  21736837.57408  21736839.03808
  -8250659.07008  -6429081.73808  23601252.56108  23601255.25208
   -878017.50208   -684167.73207  25234557.16608  25234561.76007
  19541177.13608  15226882.74608  24725507.08208  24725510.05908
 -19672951.70108 -15329562.47908  21424421.93908  21424422.68408
  -3303802.05308  -2574388.59608  24641501.70008  24641505.97108
 -22617316.24109 -17623868.39909  20917959.95409  20917960.95809
 93 07 24 03 58 00.0000000  0  8 01 21 28 14 23 31 12 15
 -19457586.82608 -15161736.62108  21528268.24608  21528269.43008
 -19984190.26608 -15572074.02408  21766306.37608  21766307.83308
  -8016608.39308  -6246704.81408  23645791.05308  23645793.77508
  -1096876.79208   -854707.08207  25192909.38708  25192914.06507
  19747903.50108  15387968.12008  24764845.88908  24764848.88708
 -19535015.35708 -15222079.67708  21450670.46008  21450671.17708
  -3423338.37508  -2667533.67208  24618754.62508  24618758.84408
 -22743594.44409 -17722266.97009  20893929.98309  20893931.00709
 93 07 24 03 59 00.0000000  0  8 01 21 14 28 23 31 12 15
 -19522046.33508 -15211964.78408  21516002.01508  21516003.10808
 -19828039.49908 -15450398.14408  21796020.86708  21796022.29908
  -1315444.37008  -1025019.13207  25151317.05408  25151321.68307
  -7781781.76408  -6063723.25208  23690477.29408  23690480.12208
  19954912.01708  15549273.35808  24804238.46008  24804241.47008
 -19395163.04308 -15113103.91508  21477283.45508  21477284.16808
  -3540694.20208  -2758979.65608  24596422.47008  24596426.61608
 -22868370.62909 -17819495.13709  20870185.81609  20870186.82609
 93 07 24 04 00 00.0000000  0  8 01 21 14 28 23 31 12 15
 -19584159.92408 -15260364.96908  21504182.18508  21504183.33008
 -19670740.76408 -15327827.74108  21825953.88108  21825955.26308
  -1533805.23708  -1195170.08207  25109764.13208  25109768.62907
  -7546237.16408  -5880182.24408  23735300.28208  23735303.02708
  20162162.04108  15710766.78507  24843676.97108  24843680.03607
 -19253342.63308 -15002594.57408  21504271.08708  21504271.82508
  -3655879.32308  -2848734.20408  24574503.39708  24574507.50608
 -22991662.14109 -17915566.42309  20846724.19609  20846725.21209
 93 07 24 04 01 00.0000000  0  8 01 21 14 28 23 31 12 15
 -19643941.73608 -15306948.17808  21492805.99508  21492807.21108
 -19512220.45608 -15204305.46608  21856119.35908  21856120.78208
  -1751997.40308  -1365189.58407  25068243.19808  25068247.68307
  -7310130.50508  -5696203.25908  23780229.96608  23780232.93508
  20369691.89408  15872478.27007  24883168.59308  24883171.67007
 -19109560.50208 -14890556.62808  21531631.90008  21531632.72508
  -3768830.72808  -2936748.19208  24553009.32808  24553013.44308
 -23113413.97009 -18010437.95709  20823555.54309  20823556.60209
 93 07 24 04 02 00.0000000  0  8 01 21 14 28 23 31 12 15
 -19701405.43508 -15351725.07008  21481871.07808  21481872.26408
 -19352402.25008 -15079771.84908  21886531.80608  21886533.29408
  -1969994.21308  -1535056.86708  25026759.46008  25026763.97908
  -7073573.95808  -5511873.71108  23825245.28808  23825248.28308
  20577425.78308  16034348.75107  24922698.98908  24922702.05507
 -18963942.88708 -14777088.42008  21559342.11708  21559342.90908
  -3879557.22808  -3023028.47308  24531938.76408  24531942.80008
 -23233641.52109 -18104121.74209  20800677.00209  20800678.00709
 93 07 24 04 03 00.0000000  0  8 01 21 14 28 23 31 12 15
 -19756446.02308 -15394613.82308  21471397.14908  21471398.34208
 -19191193.20408 -14954154.46308  21917208.88108  21917210.40708
  -2187704.11708  -1704700.61308  24985330.28608  24985334.79108
  -6836447.15308  -5327099.80108  23870369.10308  23870372.01908
  20785385.00508  16196394.81407  24962272.29508  24962275.44407
 -18816500.58608 -14662198.35608  21587399.44808  21587400.28708
  -3987988.56908  -3107520.32308  24511304.87308  24511308.97808
 -23352281.42509 -18196568.40409  20778100.57109  20778101.58309
 93 07 24 04 04 00.0000000  0  8 01 21 14 28 23 31 12 15
 -19809140.05208 -15435674.08908  21461369.77908  21461370.96308
 -19028733.41808 -14827562.47608  21948124.00008  21948125.46608
  -2405164.89208  -1874150.21408  24943948.62908  24943953.07908
  -6598746.99208  -5141879.11608  23915602.12208  23915605.15808
  20993512.78908  16358572.23707  25001877.88908  25001880.96207
 -18667288.01708 -14545928.91308  21615793.72008  21615794.58708
  -4094135.38108  -3190232.04908  24491105.77008  24491109.84008
 -23469351.03409 -18287791.46309  20755822.94709  20755823.96809
 93 07 24 04 05 00.0000000  0  8 01 21 31 14 28 23 12 15
 -19859552.55708 -15474956.54608  21451776.63708  21451777.78808
 -18865104.70008 -14700059.63608  21979261.58508  21979263.04408
 -18516332.10308 -14428301.01508  21644519.78108  21644520.64108
  -2622378.70508  -2043407.39308  24902613.84508  24902618.26508
  -6360537.24708  -4956261.34308  23960932.22508  23960935.17508
  21201824.37607  16520892.89707  25041518.41507  25041521.36307
  -4197980.75508  -3271150.45208  24471344.66608  24471348.69708
 -23584839.46309 -18377782.43509  20733846.20009  20733847.24409
 93 07 24 04 06 00.0000000  0  8 01 21 31 14 28 23 12 15
 -19907634.23208 -15512422.77608  21442626.96808  21442628.15208
 -18700226.74308 -14571583.36208  22010636.88708  22010638.39208
 -18363562.83808 -14309260.10408  21673590.82808  21673591.68108
  -2839200.59308  -2212359.19508  24861353.79608  24861358.23508
  -6121814.56708  -4770243.87908  24006359.69908  24006362.90408
  21410411.83407  16683428.50807  25081211.08507  25081214.37607
  -4299448.10208  -3350215.84408  24452035.97708  24452040.00108
 -23698676.10909 -18466486.30009  20712183.79409  20712184.85009
 93 07 24 04 07 00.0000000  0  8 01 21 31 14 28 23 12 15
 -19953295.40508 -15548002.90008  21433937.93208  21433939.11808
 -18534085.60308 -14442122.79408  22042252.37008  22042254.00308
 -18208925.46308 -14188763.52108  21703017.52108  21703018.37508
  -3055588.82808  -2380973.10908  24820176.29108  24820180.62208
  -5882535.85808  -4583793.14508  24051893.31608  24051896.45908
  21619274.39007  16846178.48707  25120956.57407  25120959.77507
  -4398529.15808  -3427421.76808  24433181.41808  24433185.31708
 -23810857.76709 -18553900.56609  20690836.32209  20690837.34109
 93 07 24 04 08 00.0000000  0  8 01 21 31 14 28 23 12 15
 -19996535.13508 -15581696.18808  21425709.71508  21425710.82108
 -18366747.15608 -14311729.26808  22074095.86508  22074097.53008
 -18052470.54208 -14066850.66108  21732789.98108  21732790.88908
  -3271680.48208  -2549355.96408  24779055.21008  24779059.55708
  -5642688.88108  -4396899.58508  24097534.68308  24097537.89308
  21828311.35107  17009064.36507  25160734.88207  25160738.34107
  -4495234.45708  -3502776.45708  24414778.99608  24414782.92408
 -23921400.65009 -18640037.86909  20669800.70509  20669801.72109
 93 07 24 04 09 00.0000000  0  8 01 21 31 14 28 23 12 15
 -20037435.98808 -15613566.97608  21417926.52708  21417927.73808
 -18198243.42708 -14180427.72508  22106161.15108  22106162.74908
 -17894297.68408 -13943599.16708  21762889.18208  21762890.14908
  -3487610.57308  -2717612.92208  24737964.88908  24737969.15308
  -5402393.46208  -4209656.61308  24143261.46408  24143264.91308
  22037405.65207  17171994.90207  25200524.26907  25200527.62807
  -4589585.48208  -3576296.65008  24396824.48708  24396828.41708
 -24030332.01309 -18724919.44509  20649071.74609  20649072.77409
 93 07 24 04 10 00.0000000  0  8 01 21 31 14 28 23 12 15
 -20075957.61208 -15643583.81608  21410596.06408  21410597.24908
 -18028557.71208 -14048205.15308  22138451.31908  22138452.91208
 -17734407.03708 -13819009.13708  21793315.36908  21793316.37508
  -3703250.67408  -2885643.92708  24696929.74908  24696934.00208
  -5161710.48408  -4022111.67508  24189062.14308  24189065.62708
  22246583.21707  17334990.35108  25240329.57707  25240332.87908
  -4681535.04008  -3647945.57008  24379327.01008  24379330.87608
 -24137608.93409 -18808511.84409  20628657.61409  20628658.67009
 93 07 24 04 11 00.0000000  0  8 01 21 31 14 28 23 12 15
 -20112010.02508 -15671676.60008  21403735.60108  21403736.74008
 -17857726.44508 -13915089.93508  22170959.56408  22170961.04808
 -17572770.47408 -13693058.66908  21824073.86908  21824074.88508
  -3918469.94008  -3053347.02408  24655974.70708  24655978.93508
  -4920661.91008  -3834281.85808  24234932.04308  24234935.67008
  22455913.75407  17498105.02008  25280163.91907  25280167.28408
  -4771039.01108  -3717688.84308  24362294.89708  24362298.69908
 -24243190.94909 -18890783.53609  20608566.01909  20608567.09809
 93 07 24 04 12 00.0000000  0  8 01 21 31 14 28 23 12 15
 -20145550.22608 -15697811.81208  21397353.09808  21397354.26008
 -17685762.48808 -13781092.09608  22203683.23108  22203684.71208
 -17409343.62108 -13565713.15508  21855173.04808  21855174.03608
  -4133315.83208  -3220759.17608  24615090.74508  24615094.95108
  -4679176.97108  -3646112.05408  24280885.45808  24280889.12608
  22665385.11207  17661329.42608  25320024.98507  25320028.38708
  -4858067.47408  -3785503.15108  24345733.89308  24345737.72108
 -24347053.18609 -18971715.13909  20588801.66709  20588802.74709
 93 07 24 04 13 00.0000000  0  8 01 21 31 14 28 23 12 15
 -20176708.43508 -15722090.92308  21391423.84708  21391424.97508
 -17512704.18508 -13646241.52508  22236615.22508  22236616.78908
 -17244194.23408 -13437025.40808  21886599.97808  21886601.05008
  -4347871.56908  -3387945.22908  24574261.97608  24574266.08608
  -4437317.25407  -3457650.25508  24326910.03407  24326913.87108
  22874905.11608  17824591.74408  25359895.38208  25359898.67308
  -4942681.93808  -3851436.41608  24329632.29508  24329636.02808
 -24449260.58509 -19051357.25609  20569352.26909  20569353.30609
 93 07 24 04 14 00.0000000  0  8 01 21 31 14 28 23 12 15
 -20205485.06808 -15744514.26908  21385947.87108  21385948.95308
 -17338527.22208 -13510519.27208  22269759.99508  22269761.55508
 -17077380.98908 -13307041.15008  21918343.56508  21918344.67908
  -4562044.68008  -3554833.13608  24533506.02508  24533510.05608
  -4195128.80308  -3268932.28908  24372997.23908  24373001.05208
  23084532.07708  17987937.43108  25399786.08008  25399789.37908
  -5024842.03408  -3915457.17808  24313997.60008  24314001.37608
 -24549776.13509 -19129681.04909  20550224.80509  20550225.81009
 93 07 24 04 15 00.0000000  0  8 01 21 31 14 28 23 12 15
 -20231929.69408 -15765120.46408  21380915.57308  21380916.70308
 -17163292.67408 -13373972.92808  22303106.02708  22303107.58308
 -16909067.80008 -13175888.11808  21950372.51908  21950373.66708
  -4775829.84308  -3721418.76108  24492823.90408  24492827.88308
  -3952671.28808  -3080004.64008  24419135.74708  24419139.41508
  23294238.60908  18151345.14308  25439691.95608  25439695.21508
  -5104555.10708  -3977571.18308  24298828.68908  24298832.41808
 -24648609.69109 -19206694.19709  20531417.39109  20531418.40009
 93 07 24 04 16 00.0000000  0  8 01 21 31 14 28 23 12 15
 -20255925.04608 -15783818.13208  21376349.35808  21376350.52008
 -16986984.15608 -13236589.72708  22336656.42308  22336658.08308
 -16739222.24308 -13043541.02008  21982693.20108  21982694.34108
  -4989225.40008  -3887700.79208  24452215.96808  24452219.83708
  -3709851.98808  -2890795.09808  24465342.97208  24465346.69108
  23504041.23208  18314827.70208  25479616.00308  25479619.32808
  -5181750.82608  -4037723.63108  24284138.74408  24284142.37508
 -24745694.09409 -19282344.36009  20512942.80409  20512943.83509
 93 07 24 04 17 00.0000000  0  8 01 21 31 14 28 23 12 15
 -20277456.47708 -15800595.86408  21372252.04508  21372253.20808
 -16809618.77108 -13098383.00308  22370407.98708  22370409.65808
 -16567751.96408 -12909927.90308  22015322.99508  22015324.09408
  -5202268.93308  -4053708.50608  24411674.93408  24411678.69408
  -3466681.10508  -2701311.58308  24511617.10208  24511620.85508
  23713884.39308  18478341.90508  25519547.66708  25519551.04208
  -5256440.95608  -4095923.67308  24269925.64808  24269929.29308
 -24841042.83909 -19356642.06309  20494798.52009  20494799.56309
 93 07 24 04 18 00.0000000  0  8 01 21 31 14 28 23 12 15
 -20296537.63408 -15815464.29308  21368621.01708  21368622.13708
 -16631216.51108 -12959368.33208  22404356.93908  22404358.57208
 -16394621.47808 -12775021.10708  22048268.73808  22048269.83808
  -5414822.45108  -4219334.40308  24371227.26508  24371230.92508
  -3223214.05408  -2511597.27708  24557947.42708  24557951.33108
  23923806.02508  18641917.24108  25559494.43108  25559497.57908
  -5328603.59108  -4152154.22608  24256193.52108  24256197.06408
 -24934636.98809 -19429572.55109  20476988.14109  20476989.18309
 93 07 24 04 19 00.0000000  0  8 01 21 31 14 28 23 12 15
 -20313223.05508 -15828465.91508  21365445.92608  21365447.06108
 -16451851.31808 -12819603.32208  22438489.08708  22438490.80408
 -16219988.68908 -12638943.67008  22081500.25608  22081501.40508
  -5626878.14508  -4384572.40308  24330874.22508  24330877.84708
  -2979600.99608  -2321769.19608  24604305.67208  24604309.63708
  24133801.95008  18805550.44008  25599455.37508  25599458.62008
  -5398260.31008  -4206432.11008  24242938.29208  24242941.79208
 -25026499.66509 -19501153.84209  20459507.24209  20459508.26309
 93 07 24 04 20 00.0000000  0  8 01 21 31 14 28 23 12 15
 -20327486.39308 -15839580.19708  21362731.71808  21362732.80408
 -16271473.29608 -12679049.09708  22472813.98008  22472815.73608
 -16043910.99208 -12501740.34208  22115006.74508  22115007.87708
  -5838508.04408  -4549478.62208  24290602.23808  24290605.75808
  -2735896.52608  -2131869.85508  24650681.32708  24650685.35508
  24343857.14908  18969229.96707  25639427.43108  25639430.70807
  -5465361.30108  -4258718.53208  24230169.36308  24230172.79608
 -25116582.55609 -19571348.29009  20442365.02609  20442366.03009
 93 07 24 04 21 00.0000000  0  7 01 21 31 14 28 23 15
 -20339282.23209 -15848771.75208  21360487.01709  21360488.14508
 -16090013.58208 -12537651.99608  22507344.69308  22507346.38108
 -15866295.71708 -12363338.90808  22148805.83808  22148807.10808
  -6049741.62808  -4714076.03108  24250405.72108  24250409.12808
  -2491988.66608  -1941812.01808  24697095.49908  24697099.58108
  24553956.56508  19132943.89207  25679408.00308  25679410.98207
 -25204830.23709 -19640112.70409  20425572.05809  20425573.04009
 93 07 24 04 22 00.0000000  0  7 01 21 31 14 28 07 15
 -20348643.87809 -15856066.53508  21358705.56109  21358706.65808
 -15907541.71308 -12395466.19808  22542067.93708  22542069.67708
 -15687097.94108 -12223704.37008  22182906.09508  22182907.32908
  -6260568.67008  -4878356.64308  24210286.49708  24210289.86308
  -2247808.02008  -1751541.61007  24743561.77008  24743565.79907
        -0.39418         0.36218  25431836.31618  25431839.65218
 -25291268.87409 -19707467.47309  20409123.32709  20409124.28509
 93 07 24 04 23 00.0000000  0  7 01 21 31 14 28 07 15
 -20355565.82209 -15861460.25108  21357388.36509  21357389.46508
 -15724099.23708 -12252524.08508  22576975.93708  22576977.70308
 -15506336.41908 -12082851.33908  22217304.02008  22217305.24208
  -6470875.89908  -5042232.19108  24170266.13208  24170269.50808
  -2003368.65308  -1561069.59407  24790077.08908  24790081.23207
   -212451.37708   -165545.78608  25391408.28008  25391411.61508
 -25375878.07009 -19773396.70409  20393022.69109  20393023.66909
 93 07 24 04 24 00.0000000  0  7 01 21 31 14 28 07 15
 -20359971.95709 -15864893.60008  21356549.89909  21356551.00608
 -15539642.05308 -12108791.29108  22612077.06608  22612078.82208
 -15324099.98308 -11940849.01908  22251982.73808  22251983.91208
  -6680614.93308  -5205664.99808  24130353.96008  24130357.30808
  -1758814.08208  -1370507.79707  24836614.60508  24836618.64607
   -424192.15508   -330538.48608  25351115.09308  25351118.49908
 -25458637.33809 -19837884.42609  20377274.11509  20377275.09509
 93 07 24 04 25 00.0000000  0  7 01 21 31 14 28 07 15
 -20361877.47609 -15866378.42008  21356187.29909  21356188.37008
 -15354201.13708 -11964291.95308  22647365.33808  22647367.13208
 -15140471.31808 -11797761.85108  22286926.07408  22286927.27008
  -6889880.62108  -5368728.96308  24090531.95608  24090535.26808
  -1514219.93407  -1179915.15007  24883159.51807  24883163.73707
   -635197.72608   -494958.25308  25310961.99608  25310965.32308
 -25539574.90509 -19900952.64209  20361872.16209  20361873.15909
 93 07 24 04 26 00.0000000  0  8 01 21 31 14 28 12 07 15
 -20361395.32809 -15866002.72308  21356279.05109  21356280.13308
 -15167909.92608 -11819130.05208  22682815.34308  22682817.25508
 -14955487.15108 -11653618.44108  22322127.39908  22322128.67608
  -7098762.87208  -5531494.14308  24050782.76508  24050786.04208
  -1269577.87807   -989285.17107  24929713.70907  24929717.98607
        -0.15818        -0.39218  24163961.91518  24163965.33818
   -845446.89008   -658788.57808  25270952.76908  25270955.96308
 -25618718.47709 -19962622.94009  20346811.63909  20346812.63409
 93 07 24 04 27 00.0000000  0  7 01 21 14 12 31 07 15
 -20358551.05309 -15863786.40408  21356820.25309  21356821.38508
 -14980792.33308 -11673324.22108  22718422.67008  22718424.66508
  -7307193.18208  -5693907.15708  24011119.63308  24011122.88308
    -48838.47808    -38056.17908  24154668.27208  24154671.62508
 -14769029.92908 -11508327.19608  22357609.12608  22357610.50308
  -1054881.76308   -821984.41708  25231098.54108  25231101.75008
 -25695978.95409 -20022825.89109  20332109.45609  20332110.44109
 93 07 24 04 28 00.0000000  0  8 01 21 14 09 12 31 07 15
 -20353433.09409 -15859798.38408  21357794.17009  21357795.26508
 -14792826.95308 -11526857.77408  22754191.37908  22754193.35608
  -7515094.18608  -5855907.72608  23971557.27908  23971560.48008
        -0.38518        -0.24618  24683120.48218  24683123.33618
    -95026.51808    -74046.81308  24145878.93808  24145882.22908
 -14581158.03508 -11361933.65608  22393359.96808  22393361.36808
  -1263591.74907   -984615.45408  25191382.39107  25191385.42808
 -25771363.23709 -20081566.87209  20317764.27509  20317765.26709
 93 07 24 04 29 00.0000000  0  8 01 21 14 09 12 31 07 15
 -20345946.28309 -15853964.50808  21359218.84509  21359219.96108
 -14603903.37108 -11379644.67108  22790142.39408  22790144.35008
  -7722319.71208  -6017381.96008  23932123.40008  23932126.58608
     55457.26508     43213.47308  24693673.78008  24693676.51108
   -138519.34408   -107937.28308  24137602.42708  24137605.82308
 -14391948.32908 -11214497.64408  22429365.49208  22429366.93908
  -1471524.23807  -1146640.65608  25151813.74307  25151817.05408
 -25844825.00409 -20138809.79009  20303784.95409  20303785.95009
 93 07 24 04 30 00.0000000  0  8 01 14 09 12 21 31 07 15
 -20335972.85209 -15846193.00708  21361116.76909  21361117.83608
  -7928862.71208  -6178324.35808  23892819.42508  23892822.47108
    113126.71708     88150.69108  24704647.85008  24704650.66708
   -179322.86508   -139732.18108  24129837.69208  24129841.10308
 -14414083.61008 -11231733.24808  22826264.00108  22826265.94408
 -14201440.04208 -11066049.73208  22465618.07808  22465619.58608
  -1678603.55206  -1308000.96108  25112407.54406  25112411.12208
 -25916368.60209 -20194558.03609  20290170.64209  20290171.62209
 93 07 24 04 31 00.0000000  0  8 01 14 09 12 21 31 07 15
 -20323471.01809 -15836451.31708  21363495.79709  21363496.85008
  -8134833.51608  -6338820.89508  23853624.32408  23853627.34008
    172908.60908    134733.95508  24716024.00508  24716026.70508
   -217464.68308   -169453.02008  24122579.57308  24122582.98808
 -14223481.99508 -11083212.59408  22862534.33608  22862536.33008
 -14009597.93808 -10916562.49808  22502124.44808  22502125.86608
  -1884825.58707  -1468693.30507  25073165.24407  25073168.12807
 -25986018.79409 -20248830.90209  20276916.65309  20276917.62809
 93 07 24 04 32 00.0000000  0  8 01 14 09 12 21 31 07 15
 -20308510.63909 -15824793.88608  21366342.65709  21366343.72808
  -8340296.20808  -6498921.50208  23814525.90208  23814528.92808
    234800.11308    182961.06408  24727801.55008  24727804.35908
   -252949.79008   -197103.71008  24115826.97708  24115830.44208
 -14032081.29308 -10934069.28208  22898956.71508  22898958.76208
 -13816389.21208 -10766010.41008  22538891.04308  22538892.47908
  -2090209.06308  -1628732.31907  25034082.08408  25034084.77507
 -26053777.44709 -20301629.83909  20264022.60709  20264023.54209
 93 07 24 04 33 00.0000000  0  8 01 14 09 12 21 31 07 15
 -20291165.16809 -15811277.94208  21369643.41809  21369644.54908
  -8545195.76208  -6658583.29808  23775534.62008  23775537.63808
    298888.54908    232900.08108  24739996.97308  24739999.90108
   -285769.67308   -222677.60508  24109581.49508  24109584.98908
 -13839772.51108 -10784218.37508  22935551.93108  22935553.96708
 -13621870.30208 -10614437.37908  22575906.83108  22575908.35208
  -2294763.59008  -1788125.46807  24995156.57408  24995159.09507
 -26119633.44209 -20352946.19309  20251490.64509  20251491.56609
 93 07 24 04 34 00.0000000  0  8 01 14 09 12 21 31 07 15
 -20271460.61908 -15795923.75908  21373393.04308  21373394.18508
  -8749557.23308  -6817825.81108  23736645.74908  23736648.63708
    365211.11708    284579.97108  24752617.90308  24752620.75308
   -315915.66808   -246167.95008  24103844.80308  24103848.41408
 -13646566.67508 -10633668.46208  22972317.86308  22972319.90508
 -13426118.10308 -10461903.33408  22613157.39608  22613158.95708
  -2498421.88508  -1946820.20107  24956401.56208  24956404.31007
 -26183575.16709 -20402770.91309  20239322.96009  20239323.85609
 93 07 24 04 35 00.0000000  0  8 01 14 09 12 21 31 07 15
 -20249406.96209 -15778739.10308  21377589.71609  21377590.84308
  -8953423.36508  -6976682.34608  23697851.15008  23697854.00508
    433676.79308    337929.80308  24765646.59708  24765649.44608
   -343387.20208   -267574.29008  24098617.04608  24098620.64108
 -13452565.16908 -10482498.54708  23009235.19408  23009237.19308
 -13229254.08108 -10308502.92108  22650619.46108  22650620.97908
  -2701109.12908  -2104758.19607  24917831.28508  24917834.24807
 -26245598.22209 -20451100.56209  20227520.36409  20227521.28609
 93 07 24 04 36 00.0000000  0  8 01 14 09 12 21 31 07 15
 -20224917.28209 -15759656.24408  21382249.95109  21382251.07708
  -9156714.50508  -7135090.82908  23659165.91308  23659168.73208
    504288.50307    392951.87608  24779083.53407  24779086.38508
   -368133.05308   -286856.73408  24093908.15708  24093911.62308
 -13257802.45708 -10330735.48108  23046297.32408  23046299.27808
 -13031257.04308 -10154219.64808  22688297.13208  22688298.72608
  -2902791.51908  -2261913.13008  24879452.25108  24879455.22708
 -26305647.21509 -20497891.98209  20216093.43009  20216094.34309
 93 07 24 04 37 00.0000000  0  8 01 14 09 12 21 31 07 15
 -20198047.40709 -15738718.68508  21387363.17409  21387364.25908
  -9359377.43008  -7293009.80308  23620600.38908  23620603.12008
    577062.48907    449658.83408  24792932.16007  24792934.96608
   -390150.30508   -304012.98708  24089718.37708  24089721.80908
 -13062287.53308 -10178386.27908  23083502.66908  23083504.70608
 -12832102.00908  -9999034.03408  22726195.10708  22726196.82308
  -3103511.03708  -2418317.79908  24841256.54808  24841259.38208
 -26363714.19309 -20543138.97909  20205043.63809  20205044.54809
 93 07 24 04 38 00.0000000  0  8 01 14 09 12 21 31 07 15
 -20168808.92209 -15715935.45708  21392927.09209  21392928.12908
  -9561365.97708  -7450403.30708  23582163.05808  23582165.85108
    652021.36807    508068.31908  24807196.17607  24807199.04208
   -409419.42508   -319027.84008  24086051.55908  24086054.93808
 -12865951.52908 -10025397.29008  23120864.29808  23120866.28408
 -12631735.32308  -9842904.28808  22764323.80708  22764325.51408
  -3303269.33408  -2573973.47708  24803243.56308  24803246.37308
 -26419775.03409 -20586822.75009  20194375.61709  20194376.52209
 93 07 24 04 39 00.0000000  0  8 01 14 09 12 21 31 07 15
 -20137209.98509 -15691312.91908  21398940.12009  21398941.17208
  -9762746.17008  -7607322.76908  23543841.61608  23543844.38608
    729108.70807    568136.32308  24821865.48307  24821868.37008
   -425961.74308   -331917.91408  24082903.62608  24082907.13408
 -12668847.89508  -9871810.14108  23158371.93208  23158373.92808
 -12430153.86408  -9685827.96408  22802683.52308  22802685.23808
  -3502058.29308  -2728873.81308  24765415.18008  24765418.01208
 -26473845.96109 -20628955.93509  20184086.23709  20184087.15009
 93 07 24 04 40 00.0000000  0  8 01 14 09 12 21 31 07 15
 -20103216.06408 -15664824.15608  21405408.95208  21405410.08008
  -9963512.69108  -7763764.03508  23505636.89108  23505639.63608
    808285.11208    629832.15508  24836932.30908  24836935.14308
   -439786.93308   -342690.76408  24080272.76508  24080276.26308
 -12471052.08108  -9717683.62408  23196011.29108  23196013.33708
 -12227400.93708  -9527838.81308  22841266.27208  22841267.99608
  -3699888.01508  -2883026.68608  24727769.48808  24727772.14708
 -26525931.83309 -20669542.32709  20174174.60009  20174175.53809
 93 07 24 04 41 00.0000000  0  8 01 14 09 12 21 31 07 15
 -20066803.79208 -15636450.96508  21412337.97408  21412339.10008
 -10163590.45608  -7919668.61708  23467563.22508  23467565.89608
    889531.37208    693140.86608  24852393.10508  24852395.98608
   -450881.76808   -351336.06008  24078161.44208  24078164.99308
 -12272548.04108  -9563005.24308  23233785.51908  23233787.55308
 -12023486.32208  -9368944.44808  22880070.07008  22880071.89808
  -3896683.65908  -3036373.80608  24690320.34908  24690322.96208
 -26576013.04609 -20708566.64109  20164644.44609  20164645.39709
 93 07 24 04 42 00.0000000  0  8 01 14 09 12 21 31 07 15
 -20028013.49008 -15606224.76508  21419719.55508  21419720.67008
 -10362973.00508  -8075031.48108  23429621.93908  23429624.50408
    972800.33308    758025.73708  24868238.63308  24868241.40808
   -459239.64108   -357848.65008  24076570.93508  24076574.39608
 -12073348.16108  -9407784.64908  23271692.11808  23271694.12508
 -11818453.86308  -9209179.03808  22919086.57208  22919088.37008
  -4092329.43608  -3188824.94408  24653090.10508  24653092.76208
 -26624077.70409 -20746019.61509  20155498.03509  20155498.98609
 93 07 24 04 43 00.0000000  0  8 01 14 09 12 21 31 07 15
 -19986879.26408 -15574172.13008  21427547.12408  21427548.19508
 -10561718.25508  -8229897.73708  23391801.75608  23391804.31908
   1058111.36108    824501.82907  24884472.76408  24884475.72507
   -464866.86608   -362233.47208  24075500.10008  24075503.58608
 -11873488.88008  -9252050.22808  23309724.07908  23309726.13008
 -11612353.50908  -9048581.50008  22958306.32808  22958308.10708
  -4286822.52008  -3340377.87808  24616079.17108  24616081.70908
 -26670125.31409 -20781900.87109  20146735.46309  20146736.40309
 93 07 24 04 44 00.0000000  0  8 01 14 09 12 21 31 07 15
 -19943387.35308 -15540282.33708  21435823.38608  21435824.43108
 -10759796.25408  -8384244.06808  23354108.62108  23354111.14308
   1145540.49508    892628.40007  24901110.15908  24901113.07807
   -467742.91108   -364474.51908  24074952.75708  24074956.24208
 -11672908.57808  -9095753.97408  23347893.26808  23347895.40608
 -11405198.94008  -8887162.47708  22997726.54608  22997728.34408
  -4480255.48908  -3491104.75208  24579269.97708  24579272.53708
 -26714128.35509 -20816188.95409  20138361.95209  20138362.89109
 93 07 24 04 45 00.0000000  0  7 01 14 12 21 31 07 15
 -19897483.33608 -15504512.98408  21444558.60808  21444559.65308
 -10957110.38308  -8537995.19608  23316560.87908  23316563.36108
   -467854.82908   -364561.70808  24074931.48608  24074934.92908
 -11471576.27108  -8938871.74808  23386205.58808  23386207.80808
 -11197028.60708  -8724951.94908  23037340.12908  23037342.01108
  -4672627.79308  -3641005.12608  24542662.72508  24542665.36008
 -26756067.57909 -20848868.86809  20130381.16809  20130382.11509
 93 07 24 04 46 00.0000000  0  7 01 14 12 21 31 07 15
 -19849294.57908 -15466963.31508  21453728.65308  21453729.73008
 -11153760.25708  -8691228.70208  23279139.62808  23279142.05208
   -465300.32208   -362571.18208  24075417.63608  24075421.01508
 -11269657.18908  -8781532.29408  23424629.56308  23424631.85808
 -10987980.88208  -8562057.73808  23077120.61108  23077122.57108
  -4863867.11508  -3790022.66408  24506271.01008  24506273.67208
 -26796032.65609 -20880010.48809  20122776.05609  20122777.01909
 93 07 24 04 47 00.0000000  0  7 01 14 12 21 31 07 15
 -19798850.66208 -15427656.37508  21463327.76908  21463328.87908
 -11349767.76408  -8843961.67408  23241840.54508  23241842.91808
   -460028.81708   -358463.51908  24076420.80008  24076424.19508
 -11067186.01408  -8623762.64208  23463158.58808  23463160.96308
 -10778011.33708  -8398445.23208  23117076.54408  23117078.52908
  -5053852.33108  -3938062.98808  24470117.83408  24470120.37608
 -26833965.77009 -20909568.76009  20115557.64409  20115558.57709
 93 07 24 04 48 00.0000000  0  7 01 14 12 21 31 07 15
 -19746129.29608 -15386574.79808  21473360.34308  21473361.45708
 -11545036.94808  -8996119.32908  23204681.84308  23204684.24708
   -451973.30408   -352186.49208  24077953.67508  24077957.08408
 -10864127.05808  -8465534.98508  23501799.31308  23501801.84108
 -10567085.24308  -8234087.38608  23157214.56708  23157216.60908
  -5242545.49808  -4085096.54208  24434210.78608  24434213.42408
 -26869791.64009 -20937485.02009  20108740.23209  20108741.14509
 93 07 24 04 49 00.0000000  0  7 01 14 12 21 31 07 15
 -19691099.76008 -15343694.65208  21483832.07708  21483833.19608
 -11739541.18308  -9147680.90908  23167668.75808  23167671.09508
   -441160.80808   -343761.17608  24080011.26808  24080014.64808
 -10660469.21208  -8306840.66908  23540554.25208  23540556.71808
 -10355258.05908  -8069027.38008  23197524.04408  23197526.12508
  -5429987.39708  -4231155.05708  24398541.54508  24398544.28008
 -26903528.71609 -20963773.64909  20102320.27809  20102321.21109
 93 07 24 04 50 00.0000000  0  7 01 14 12 21 31 07 15
 -19633714.39408 -15298978.79708  21494752.15508  21494753.26208
 -11933283.77908  -9298648.99908  23130800.75408  23130802.94108
   -427602.70408   -333196.40108  24082591.24408  24082594.72808
 -10456153.24608  -8147633.53308  23579434.44408  23579436.86108
 -10142438.47208  -7903194.07508  23238022.28808  23238024.37008
  -5616161.76908  -4376225.86808  24363113.65808  24363116.15208
 -26935180.18409 -20988437.12709  20096297.19109  20096298.12209
 93 07 24 04 51 00.0000000  0  7 01 14 12 21 31 07 15
 -19574042.38408 -15252481.13808  21506107.39408  21506108.48108
 -12126267.75208  -9449025.98608  23094077.16208  23094079.31608
   -411306.58908   -320498.10908  24085692.24708  24085695.72908
 -10251181.11908  -7987915.08908  23618439.33108  23618441.77808
  -9928683.93308  -7736632.23808  23278698.54108  23278700.80308
  -5801100.54508  -4520333.95208  24327921.10408  24327923.65108
 -26964745.34109 -21011474.90209  20090671.12609  20090672.05809
 93 07 24 04 52 00.0000000  0  7 01 14 12 21 31 07 15
 -19512160.73208 -15204261.68308  21517883.15308  21517884.20108
 -12318464.43108  -9598789.49208  23057503.21008  23057505.32708
   -392293.61908   -305682.80108  24089310.33708  24089313.72508
 -10045635.93808  -7827750.11608  23657553.36308  23657555.86208
  -9714116.48908  -7569436.94708  23319529.48308  23319531.68208
  -5984826.51508  -4663496.92008  24292958.96208  24292961.59308
 -26992235.50909 -21032895.80309  20085439.90609  20085440.82209
 93 07 24 04 53 00.0000000  0  7 01 14 12 21 31 07 15
 -19448022.04208 -15154283.49708  21530088.32508  21530089.37808
 -12509814.52108  -9747893.32908  23021090.35208  23021092.47508
   -370560.18808   -288747.65408  24093446.07908  24093449.51708
  -9839532.03308  -7667149.77908  23696773.74408  23696776.29408
  -9498704.11008  -7401583.27708  23360521.15208  23360523.42208
  -6167281.83908  -4805669.78908  24258238.85008  24258241.27908
 -27017637.55909 -21052689.60409  20080606.05309  20080606.95009
 93 07 24 04 54 00.0000000  0  7 01 14 12 21 31 07 15
 -19381558.43808 -15102493.69408  21542735.97008  21542737.05408
 -12700355.42208  -9896366.64708  22984831.52008  22984833.65908
   -346099.15408   -269687.11008  24098100.84708  24098104.21108
  -9632909.83408  -7506145.57808  23736092.85408  23736095.29908
  -9282365.52208  -7233007.89208  23401689.17408  23401691.44508
  -6348389.37608  -4946792.42308  24223775.14708  24223777.57708
 -27040935.40209 -21070843.76509  20076172.62809  20076173.55009
 93 07 24 04 55 00.0000000  0  7 01 14 12 21 31 07 15
 -19312834.93108 -15048942.92708  21555813.58008  21555814.71108
 -12890143.75308 -10044253.57108  22948715.91408  22948718.07708
   -318931.72608   -248517.68308  24103270.67008  24103274.01308
  -9425786.00608  -7344750.49208  23775507.24208  23775509.70508
  -9065205.97908  -7063792.81908  23443013.39308  23443015.61708
  -6528100.74708  -5086827.12208  24189577.16208  24189579.33808
 -27062139.24009 -21087366.23509  20072137.66809  20072138.57609
 93 07 24 04 56 00.0000000  0  7 01 14 12 21 31 07 15
 -19241926.18608 -14993689.38008  21569307.07708  21569308.21608
 -13079237.01908 -10191598.88708  22912732.56608  22912734.74408
   -289077.89808   -225254.94508  24108951.64608  24108954.92808
  -9218183.27208  -7182982.22308  23815012.74208  23815015.25408
  -8847414.68108  -6894085.46008  23484457.73308  23484460.10008
  -6706410.59008  -5225769.75808  24155645.90308  24155648.11008
 -27081259.33009 -21102265.01009  20068499.25509  20068500.15409
 93 07 24 04 57 00.0000000  0  7 01 14 12 21 31 07 15
 -19168772.01708 -14936686.15108  21583227.85708  21583229.01408
 -13267510.27308 -10338305.23908  22876905.26308  22876907.43108
   -256490.28608   -199861.99408  24115152.86908  24115156.14708
  -9010058.03708  -7020806.80408  23854617.77708  23854620.33308
  -8628937.93408  -6723843.99208  23526032.62408  23526035.00508
  -6883298.09408  -5363604.06508  24121985.17208  24121987.16808
 -27098238.15509 -21115495.26909  20065268.29609  20065269.18509
 93 07 24 04 58 00.0000000  0  7 01 14 12 21 31 07 15
 -19093419.53408 -14877969.95208  21597566.95208  21597568.13608
 -13454931.45608 -10484347.62908  22841240.10308  22841242.26708
   -221181.13308   -172348.37808  24121871.98608  24121875.25908
  -8801418.96708  -6858231.00408  23894320.52308  23894322.99908
  -8409727.88608  -6553031.12808  23567747.20808  23567749.41508
  -7058822.65708  -5500376.36708  24088583.85208  24088586.12708
 -27113076.93009 -21127057.94709  20062444.58309  20062445.47009
 93 07 24 04 59 00.0000000  0  7 01 14 12 21 31 07 15
 -19015938.96208 -14817595.50008  21612311.08208  21612312.22408
 -13641518.59208 -10629740.11408  22805733.64408  22805735.87108
   -183160.62608   -142722.01908  24129106.99008  24129110.34608
  -8592301.27508  -6695282.24808  23934114.43508  23934116.84908
  -8189770.16108  -6381635.66308  23609603.74308  23609606.03008
  -7232952.27208  -5636061.66108  24055448.04308  24055450.13408
 -27125774.76509 -21136952.36409  20060028.27309  20060029.17409
 93 07 24 05 00 00.0000000  0  7 01 14 12 21 31 07 15
 -18936348.25508 -14755576.78608  21627456.70508  21627457.86108
 -13827288.09008 -10774495.45108  22770382.83608  22770384.96508
   -142415.72408   -110972.75808  24136860.52208  24136863.86308
  -8382683.06008  -6531943.44508  23974003.53008  23974005.87908
  -7969084.60108  -6209673.00408  23651598.94108  23651601.28608
  -7405587.15808  -5770582.30508  24022596.56208  24022598.68408
 -27136307.21009 -21145159.46609  20058024.01509  20058024.90809
 93 07 24 05 01 00.0000000  0  7 01 14 12 21 31 07 15
 -18854537.29608 -14691828.00508  21643024.84408  21643025.98908
 -14012251.65108 -10918622.80008  22735185.34808  22735187.47308
    -98962.47608    -77113.09308  24145129.37908  24145132.72408
  -8172555.18608  -6368207.49608  24013989.57208  24013991.97208
  -7747694.69408  -6037161.55408  23693728.21108  23693730.66108
  -7576739.98408  -5903948.05108  23990027.27108  23990029.38508
 -27144678.39109 -21151682.46909  20056431.01609  20056431.90909
 93 07 24 05 02 00.0000000  0  7 01 14 12 21 31 07 15
 -18770427.17908 -14626287.67008  21659030.47408  21659031.66308
 -14196333.61008 -11062063.17208  22700155.61008  22700157.68508
    -52805.37308    -41146.53608  24153912.90108  24153916.22008
  -7961917.57308  -6204074.35508  24054072.62708  24054075.12308
  -7525593.94508  -5864096.19608  23735992.76908  23735995.34608
  -7746448.55008  -6036188.43208  23957732.60708  23957734.80108
 -27150881.57409 -21156516.13209  20055250.61009  20055251.50109
 93 07 24 05 03 00.0000000  0  7 01 14 12 21 31 07 15
 -18684058.63508 -14558987.52208  21675465.86308  21675467.03808
 -14379487.42108 -11204780.31708  22665302.51908  22665304.56408
     -3946.80608     -3074.95308  24163210.34308  24163213.74008
  -7750793.64508  -6039562.29408  24094248.24308  24094250.82108
  -7302793.52608  -5690485.69008  23778390.33908  23778392.98608
  -7914661.22908  -6167263.18208  23925722.83408  23925725.13308
 -27154907.07609 -21159652.88409  20054484.57909  20054485.45809
 93 07 24 05 04 00.0000000  0  7 01 14 12 21 31 07 15
 -18595620.56008 -14490074.75008  21692295.05608  21692296.22008
 -14561759.74308 -11346810.60008  22630617.15208  22630619.15108
     47533.55208     37039.59908  24173006.76708  24173010.10208
  -7539349.07008  -5874800.38008  24134484.83308  24134487.47808
  -7079427.73608  -5516434.59408  23820895.54208  23820898.28508
  -8081301.15408  -6297112.42308  23894012.45908  23894014.58208
 -27156821.17309 -21161144.38509  20054120.34809  20054121.21409
 93 07 24 05 05 00.0000000  0  7 01 14 12 21 31 07 15
 -18505236.43308 -14419645.57608  21709494.57608  21709495.76308
 -14743227.04508 -11488213.59708  22596085.04908  22596087.04508
    101617.81208     79183.17608  24183298.66608  24183301.97808
  -7327618.34808  -5709815.48808  24174775.88508  24174778.59908
  -6855656.72008  -5342067.76608  23863477.89008  23863480.62908
  -8246286.39608  -6425672.26908  23862616.51508  23862618.83808
 -27156630.62409 -21160995.90209  20054156.60909  20054157.45609
 93 07 24 05 06 00.0000000  0  7 01 14 12 21 31 07 15
 -18412821.74608 -14347634.14608  21727080.49908  21727081.70708
 -14923798.98008 -11628918.93508  22561723.30308  22561725.25208
    158373.40008    123408.30908  24194098.87408  24194102.16908
  -7115430.83808  -5544474.66308  24215153.86508  24215156.59308
  -6631498.38108  -5167399.11408  23906133.80408  23906136.75108
  -8409597.07208  -6552927.28408  23831539.43408  23831541.82708
 -27154255.17709 -21159144.91509  20054608.65209  20054609.49109
 93 07 24 05 07 00.0000000  0  7 01 14 12 21 31 07 15
 -18318318.96408 -14273995.63308  21745063.83608  21745065.00008
 -15103441.66708 -11768900.15908  22527538.40108  22527540.32408
    217798.81708    169713.81608  24205407.14308  24205410.47508
  -6902748.35508  -5378748.14508  24255626.01108  24255628.82208
  -6406794.04508  -4992305.02408  23948893.77008  23948896.70008
  -8571358.85208  -6678975.33108  23800757.27708  23800759.49308
 -27149682.66309 -21155581.92409  20055478.77009  20055479.61709
 93 07 24 05 08 00.0000000  0  7 14 01 12 21 31 07 15
 -15282118.51708 -11908128.79808  22493537.29808  22493539.17608
 -18221756.93308 -14198752.50808  21763439.00608  21763440.20608
    279871.85008    218082.38408  24217219.29508  24217222.62908
  -6689706.34508  -5212741.46708  24296166.67908  24296169.33508
  -6181367.85708  -4816648.45508  23991791.22808  23991794.09608
  -8731598.30308  -6803837.13708  23770264.53508  23770266.95208
 -27142922.27809 -21150314.09609  20056765.24009  20056766.08409
 93 07 24 05 09 00.0000000  0  7 14 01 12 21 31 07 15
 -15459802.85008 -12046584.04808  22459725.01008  22459726.90708
 -18123084.48008 -14121864.90008  21782215.79808  21782217.03408
    344600.23308    268520.06108  24229536.72208  24229539.99508
  -6476381.19308  -5046514.16008  24336761.17908  24336763.94008
  -5955294.22808  -4640487.39108  24034811.67908  24034814.61008
  -8890173.58908  -6927402.21208  23740088.68708  23740090.81408
 -27133953.30309 -21143325.28609  20058471.96609  20058472.83209
 93 07 24 05 10 00.0000000  0  6 14 01 21 31 07 15
 -15636511.16008 -12184278.72808  22426098.43508  22426100.28408
 -18022257.51108 -14043298.45308  21801402.51608  21801403.77908
  -6262725.51908  -4880029.29108  24377418.50808  24377421.35408
  -5728807.42208  -4464004.33908  24077910.88908  24077913.76308
  -9047011.53708  -7049613.50708  23710243.43108  23710245.59908
 -27122798.87409 -21134633.52609  20060594.60809  20060595.45509
 93 07 24 05 11 00.0000000  0  7 14 01 29 21 31 07 15
 -15812269.24508 -12321232.98108  22392652.71408  22392654.53808
 -17919322.89208 -13963089.68208  21820990.27108  21820991.60408
        -0.47517        -0.67218  25291163.82517  25291168.28718
  -6048641.34108  -4713210.53308  24418157.44408  24418160.33208
  -5501999.42808  -4287271.03808  24121071.08208  24121074.10108
  -9202174.40808  -7170519.56708  23680716.91108  23680718.90508
 -27109480.57409 -21124255.63109  20063128.99809  20063129.84009
 93 07 24 05 12 00.0000000  0  7 14 01 29 21 31 07 15
 -15987088.31808 -12457455.52308  22359385.65508  22359387.50308
 -17814348.99808 -13881291.86608  21840966.19608  21840967.46008
   -229458.61507   -178798.86708  25247499.08607  25247503.55508
  -5834149.05808  -4546073.75208  24458974.03908  24458976.84108
  -5274781.76208  -4110218.49208  24164309.54608  24164312.23908
  -9355754.20408  -7290192.02708  23651491.59708  23651493.55408
 -27093990.15009 -21112185.18409  20066076.72309  20066077.58709
 93 07 24 05 13 00.0000000  0  7 14 01 29 21 31 07 15
 -16160984.90208 -12592959.26308  22326294.17208  22326295.97308
 -17707370.17408 -13797931.76908  21861323.56408  21861324.85708
   -458792.45307   -357500.21707  25203858.01407  25203862.35507
  -5619362.60408  -4378707.75008  24499846.59008  24499849.42108
  -5047075.61508  -3932785.31608  24207640.53808  24207643.63808
  -9507687.35908  -7408581.40308  23622579.53308  23622581.50608
 -27076318.04609 -21098414.71609  20069439.59609  20069440.45409
 93 07 24 05 14 00.0000000  0  7 14 01 29 21 31 07 15
 -16333955.67908 -12727741.60808  22293378.92008  22293380.63608
 -17598408.74908 -13713026.79008  21882058.25808  21882059.55208
   -687994.15407   -536098.62307  25160242.21407  25160246.33407
  -5404323.56008  -4211144.88608  24540767.21108  24540770.00608
  -4818932.77408  -3755011.88708  24251054.98008  24251058.08108
  -9657833.41508  -7525578.25008  23594007.60608  23594009.58608
 -27056442.07809 -21082926.95909  20073221.89409  20073222.75609
 93 07 24 05 15 00.0000000  0  7 14 01 29 21 31 07 15
 -16507591.77408 -12863042.38208  22260337.03008  22260338.70608
 -17489156.04608 -13627894.83908  21902848.37708  21902849.65608
   -918641.54708   -715823.62607  25116351.41908  25116355.23507
  -5190574.62208  -4044587.31507  24581442.23608  24581445.11007
  -4592023.75008  -3578199.86508  24294234.22208  24294237.46508
  -9807678.82808  -7642340.83108  23565492.97308  23565494.84208
 -27035945.51009 -21066955.61009  20077122.23809  20077123.13209
 93 07 24 05 16 00.0000000  0  7 14 01 29 21 31 07 15
 -16681081.42008 -12998229.04008  22227322.99308  22227324.64608
 -17378898.75408 -13541980.09208  21923829.68708  21923830.97408
  -1150038.41408   -896132.68607  25072317.80208  25072321.75207
  -4977340.45908  -3878430.83607  24622019.38408  24622022.16807
  -4365622.96808  -3401783.87008  24337317.14408  24337320.44008
  -9956503.72208  -7758308.22308  23537172.39608  23537174.30108
 -27014074.71909 -21049913.43709  20081284.10709  20081285.01709
 93 07 24 05 17 00.0000000  0  7 14 01 29 21 31 07 15
 -16851325.35908 -13130886.60008  22194926.55108  22194928.21508
 -17264573.19808 -13452895.27208  21945585.11108  21945586.40208
  -1379106.11408  -1074626.75507  25028727.57808  25028731.58207
  -4761608.89208  -3710328.34607  24663071.77008  24663074.53707
  -4136725.31908  -3223422.27608  24380875.20008  24380878.53008
 -10101331.67808  -7871161.12608  23509612.59408  23509614.31708
 -26987825.89309 -21029459.80109  20086279.07709  20086279.98709
 93 07 24 05 18 00.0000000  0  7 14 01 29 21 31 07 15
 -17019629.55708 -13262032.66508  22162899.29008  22162900.87308
 -17147515.30608 -13361681.35908  21967860.50708  21967861.82908
  -1607100.97508  -1252284.84108  24985341.28308  24985345.25108
  -4544776.77608  -3541368.26107  24704333.60208  24704336.43407
  -3906772.57608  -3044238.55708  24424633.90208  24424637.14108
 -10243563.16008  -7981990.79408  23482546.69308  23482548.60608
 -26958585.17209 -21006674.82009  20091843.41209  20091844.30009
 93 07 24 05 19 00.0000000  0  7 14 01 29 21 31 07 15
 -17186676.42508 -13392198.98008  22131111.31708  22131112.89808
 -17028344.57408 -13268821.08408  21990537.96108  21990539.31808
  -1834654.34208  -1429598.92208  24942039.21608  24942043.13208
  -4327470.71607  -3372038.84507  24745685.49007  24745688.25007
  -3676422.96408  -2864745.56308  24468468.02708  24468471.41308
 -10383819.57608  -8091281.47308  23455856.69508  23455858.49008
 -26926966.73009 -20982037.07909  20097860.18509  20097861.10809
 93 07 24 05 20 00.0000000  0  7 14 01 07 29 21 31 15
 -17352840.82908 -13521677.66608  22099491.21908  22099492.79608
 -16907323.66308 -13174519.11308  22013567.51808  22013568.86908
 -10522316.32508  -8199200.97608  23429501.64608  23429503.53408
  -2062103.35308  -1606831.72408  24898756.83008  24898760.69608
  -4109985.95707  -3202570.22707  24787071.50307  24787074.44507
  -3445888.73108  -2685108.70708  24512337.35708  24512340.90608
 -26893214.52809 -20955736.66109  20104283.01909  20104283.91409
 93 07 24 05 21 00.0000000  0  7 14 01 29 21 31 07 15
 -17518176.78608 -13650510.82208  22068028.75108  22068030.35308
 -16784529.74108 -13078835.57708  22036934.44708  22036935.81408
  -2289572.46208  -1784080.18708  24855470.80508  24855474.61308
  -3892504.88007  -3033104.47407  24828456.89307  24828459.72107
  -3215241.66308  -2505383.90108  24556228.32308  24556231.72808
 -10659101.51108  -8305786.79708  23403472.23508  23403474.21308
 -26857418.90909 -20927843.97909  20111094.73909  20111095.58909
 93 07 24 05 22 00.0000000  0  7 14 01 07 29 21 31 15
 -17682584.99608 -13778621.05208  22036742.85708  22036744.44908
 -16659937.02308 -12981750.38508  22060643.69608  22060645.02708
 -10794109.68608  -8410987.91908  23377780.98408  23377782.83508
  -2516942.68908  -1961251.62008  24812203.52408  24812207.42408
  -3675027.96707  -2863641.96807  24869841.23407  24869844.19707
  -2984492.72908  -2325579.69608  24600138.41708  24600141.92408
 -26819544.84609 -20898331.72509  20118301.91409  20118302.77709
 93 07 24 05 23 00.0000000  0  7 14 01 07 29 21 31 15
 -17845983.28608 -13905944.32808  22005649.13108  22005650.75708
 -16533548.77508 -12883266.07608  22084694.58708  22084695.92208
 -10927300.85808  -8514773.21308  23352435.65808  23352437.47108
  -2744178.69608  -2138318.43208  24768961.79808  24768965.63608
  -3457464.33207  -2694111.88007  24911242.28607  24911245.17507
  -2753668.59408  -2145716.95308  24644062.85108  24644066.60408
 -26779570.05009 -20867182.55709  20125908.87209  20125909.76509
 93 07 24 05 24 00.0000000  0  7 14 01 07 29 21 31 15
 -18008348.57908 -14032462.67108  21974752.00508  21974753.56108
 -16405429.37608 -12783432.81608  22109074.93208  22109076.26608
 -11058571.32908  -8617061.86608  23327455.60608  23327457.49908
  -2971280.40208  -2315280.59008  24725745.66208  24725749.41008
  -3239722.30807  -2524442.79607  24952677.28007  24952680.13607
  -2522793.52108  -1965814.53008  24687997.26008  24688000.91008
 -26737475.20309 -20834381.38109  20133919.25309  20133920.16209
 93 07 24 05 25 00.0000000  0  7 14 01 07 29 21 31 15
 -18169645.61208 -14158148.61508  21944058.13408  21944059.66908
 -16275613.84008 -12682277.88808  22133778.02808  22133779.37408
 -11187835.96608  -8717787.51708  23302857.32908  23302859.20308
  -3198126.40108  -2492043.51108  24682578.19008  24682581.79108
  -3021737.08007  -2354584.20108  24994158.54907  24994161.40208
  -2291781.95808  -1785805.74408  24731957.29808  24731961.09008
 -26693224.50109 -20799900.31809  20142339.88909  20142340.80609
 93 07 24 05 26 00.0000000  0  7 14 01 07 29 21 31 15
 -18329987.31008 -14283090.14508  21913546.04108  21913547.54508
 -16144112.08508 -12579809.02408  22158802.07908  22158803.38808
 -11315231.69308  -8817056.87508  23278614.74508  23278616.58508
  -3424683.99308  -2668581.68008  24639465.45508  24639469.17108
  -2803588.36207  -2184598.21508  25035670.74807  25035673.68108
  -2060629.20008  -1605686.95108  24775944.27608  24775948.24008
 -26646871.86309 -20763781.39609  20151160.52409  20151161.43609
 93 07 24 05 27 00.0000000  0  7 14 01 07 29 21 31 15
 -18489391.74608 -14407301.34808  21883212.40008  21883213.90308
 -16010879.09908 -12475991.15108  22184155.46908  22184156.82308
 -11440833.61208  -8914928.44208  23254713.45208  23254715.27408
  -3650917.41408  -2844867.21508  24596414.50908  24596418.17908
  -2585358.05907  -2014548.61308  25077198.64707  25077201.48308
  -1829362.67508  -1425479.50408  24819953.03508  24819956.98308
 -26598395.22109 -20726007.39509  20160385.32509  20160386.22909
 93 07 24 05 28 00.0000000  0  7 14 01 07 29 21 31 15
 -18647736.17208 -14530686.56908  21853080.37508  21853081.84608
 -15875996.72308 -12370888.04008  22209822.78408  22209824.15208
 -11564583.92608  -9011357.19208  23231164.46208  23231166.26708
  -3876871.39308  -3020934.99408  24553416.86708  24553420.28808
  -2367048.76508  -1844437.45708  25118741.50308  25118744.40808
  -1598066.04708  -1245248.57108  24863967.58308  24863971.47608
 -26547757.73009 -20686549.62409  20170021.34009  20170022.22909
 93 07 24 05 29 00.0000000  0  7 14 01 07 29 21 31 15
 -18804905.62708 -14653156.22208  21823172.02508  21823173.52908
 -15739549.32908 -12264565.43408  22235787.91608  22235789.26108
 -11686287.07508  -9106190.75008  23208005.03308  23208006.92108
  -4102542.13608  -3196782.05708  24510472.72608  24510476.18308
  -2148586.84908  -1674207.30108  25160313.38408  25160316.20308
  -1366794.13208  -1065036.88108  24907977.34108  24907981.17708
 -26494914.72109 -20645373.26409  20180077.04109  20180077.93109
 93 07 24 05 30 00.0000000  0  7 14 01 07 29 21 31 15
 -18960819.02908 -14774647.13908  21793502.64408  21793504.16108
 -15601426.00508 -12156936.91408  22262071.95308  22262073.27408
 -11805764.67308  -9199290.10308  23185269.10108  23185271.01608
  -4327849.21308  -3372345.75108  24467598.08508  24467601.51808
  -1929917.03208  -1503815.18408  25201924.78308  25201927.51208
  -1135486.43108   -884797.28808  24951993.91508  24951997.75808
 -26439841.70509 -20602459.23209  20190557.09309  20190557.99609
 93 07 24 05 31 00.0000000  0  7 14 01 29 21 31 07 15
 -19115540.72708 -14895209.45108  21764060.10208  21764061.57708
 -15461435.08308 -12047853.11708  22288711.34308  22288712.68108
  -4552734.59708  -3547580.87608  24424803.68608  24424806.99808
  -1711125.98708  -1333328.58808  25243559.39408  25243562.25008
   -904125.98408   -704516.57807  24996020.54108  24996024.54107
 -11923060.85808  -9290689.64608  23162948.44308  23162950.22908
 -26382564.01309 -20557827.28009  20201456.66809  20201457.57709
 93 07 24 05 32 00.0000000  0  8 14 25 01 29 21 31 07 15
 -19269199.24308 -15014943.31208  21734819.79308  21734821.29108
        -0.75518        -0.37518  23721070.61018  23721072.16218
 -15319601.50908 -11937333.48508  22315701.42208  22315702.80308
  -4777184.69708  -3722476.80108  24382092.14008  24382095.30408
  -1492264.29408  -1162786.88608  25285207.13708  25285210.00108
   -672745.82808   -524220.50107  25040050.90208  25040054.97007
 -12038371.57808  -9380542.08008  23141005.31608  23141007.14408
 -26323127.05309 -20511512.78109  20212767.16909  20212768.07209
 93 07 24 05 33 00.0000000  0  8 14 25 01 29 21 31 07 15
 -19421866.38108 -15133904.66408  21705768.18308  21705769.65008
   -168925.01508   -131629.53008  23688925.30008  23688926.80408
 -15176143.82408 -11825548.31608  22343000.51508  22343001.96708
  -5001238.46408  -3897063.93908  24339455.98408  24339459.00908
  -1273311.36208   -992174.15808  25326872.54508  25326875.28908
   -441436.54908   -343979.67407  25084067.67308  25084071.81107
 -12151791.40208  -9468921.09908  23119422.28308  23119424.10008
 -26261563.30009 -20463541.06009  20224482.39309  20224483.30009
 93 07 24 05 34 00.0000000  0  7 14 01 07 29 21 31 15
 -19573403.56108 -15251985.52308  21676931.54608  21676932.98108
 -15031189.44808 -11712596.89408  22370584.43108  22370585.86708
 -12263173.03908  -9555711.92408  23098226.98608  23098228.81408
  -5224908.19808  -4071351.81408  24296892.89208  24296895.89108
  -1054176.73208   -821419.83707  25368572.40508  25368575.21107
   -210225.91108   -163815.71207  25128065.66208  25128069.68607
 -26197877.06909 -20413915.43509  20236601.46009  20236602.40009
 93 07 24 05 35 00.0000000  0  8 14 01 07 29 13 21 31 15
 -19723615.18108 -15369033.47608  21648347.17708  21648348.61908
 -14884696.65108 -11598446.70508  22398461.09408  22398462.63108
 -12372308.38408  -9640752.40208  23077459.21008  23077460.95508
  -5448086.09508  -4245256.46108  24254423.49208  24254426.24008
        -0.29517        -0.03217  25259741.31517  25259745.29417
   -834821.71607   -650493.84607  25410314.22507  25410317.11607
     20916.62108     16295.22807  25172050.76908  25172054.68307
 -26132020.93209 -20362598.97809  20249133.48109  20249134.40909
 93 07 24 05 36 00.0000000  0  8 14 01 29 07 13 21 31 15
 -19872572.71608 -15485104.21208  21620001.46208  21620002.86508
 -14736591.99508 -11483040.52108  22426644.44808  22426646.02808
  -5670755.37308  -4418764.82508  24212050.82708  24212053.47908
 -12479250.87908  -9724084.18308  23057108.82208  23057110.53708
   -237994.32708   -185449.89607  25214452.58808  25214456.49507
   -615410.80307   -479524.22107  25452066.82707  25452069.15507
    251997.32107    196358.04607  25216024.11507  25216028.11707
 -26063989.25309 -20309587.30009  20262079.49409  20262080.43009
 93 07 24 05 37 00.0000000  0  7 14 01 13 29 31 07 15
 -20020471.53308 -15600349.97608  21591857.20708  21591858.54308
 -14586894.89808 -11366393.47208  22455130.92808  22455132.46108
   -475542.73208   -370552.50707  25169248.55408  25169252.44707
  -5893056.91008  -4591986.62108  24169748.12908  24169750.80608
    482990.68507    376352.81807  25259980.63507  25259984.64107
 -12584153.44408  -9805826.41508  23037146.47008  23037148.22708
 -25993821.98309 -20254911.52909  20275431.90809  20275432.83009
 93 07 24 05 38 00.0000000  0  8 14 01 13 29 25 31 07 15
 -20167281.11508 -15714746.98308  21563920.23708  21563921.56708
 -14435599.62508 -11248501.08808  22483921.52208  22483922.98508
   -712583.48808   -555259.49107  25124141.16708  25124144.98407
  -6114982.41808  -4764915.39408  24127516.88108  24127519.57608
        -0.72218        -0.58818  23531712.74418  23531714.04118
    713873.90407    556261.71607  25303915.91407  25303920.44607
 -12686922.22108  -9885905.95808  23017590.14108  23017591.93108
 -25921485.10009 -20198545.14809  20289197.18309  20289198.10109
 93 07 24 05 39 00.0000000  0  8 14 13 01 29 25 31 07 15
 -20312832.28408 -15828163.40808  21536222.75508  21536224.07108
   -949055.53108   -739523.29607  25079141.99908  25079145.82007
 -14282721.40508 -11129375.23308  22513013.27808  22513014.75008
  -6336360.70408  -4937417.76908  24085389.88708  24085392.44108
   -161237.07608   -125639.19908  23501030.25908  23501031.60708
    944629.38007    736071.02707  25347827.33207  25347831.82307
 -12787407.26208  -9964205.98208  22998468.49908  22998470.20408
 -25846945.76309 -20140462.57709  20303381.51609  20303382.50709
 93 07 24 05 40 00.0000000  0  8 14 13 01 29 25 31 07 15
 -20457063.73208 -15940551.49008  21508776.32208  21508777.63608
  -1184945.72708   -923333.68108  25034253.45408  25034257.21208
 -14128305.41508 -11009051.12408  22542397.68808  22542399.11608
  -6557100.69908  -5109422.77508  24043384.31508  24043386.95708
   -321068.99808   -250183.44908  23470615.13508  23470616.35508
   1175220.78107    915752.48108  25391707.81307  25391712.02908
 -12885627.82608 -10040741.46908  22979777.68708  22979779.50308
 -25770218.01609 -20080674.74709  20317982.36109  20317983.32709
 93 07 24 05 41 00.0000000  0  8 14 13 01 29 25 31 07 15
 -20600052.60408 -16051971.34108  21481566.43108  21481567.74708
  -1420254.98808  -1106691.36408  24989475.46808  24989479.13408
 -13972385.53808 -10887555.15008  22572068.34708  22572069.77608
  -6777278.21308  -5280989.48208  24001485.75108  24001488.36708
   -479513.26808   -373646.40208  23440464.07408  23440465.41608
   1405652.12007   1095309.27708  25435557.45907  25435561.80308
 -12981664.20608 -10115574.98708  22961502.49208  22961504.32708
 -25691332.20709 -20019205.31909  20332993.84109  20332994.85509
 93 07 24 05 42 00.0000000  0  8 14 13 01 29 25 31 07 15
 -20741866.00009 -16162475.22508  21454580.16809  21454581.49008
  -1654950.59807  -1289570.81807  24944814.22207  24944817.86407
 -13814957.92208 -10764884.31808  22602025.84708  22602027.31908
  -6996904.43108  -5452126.59908  23959692.19008  23959694.69508
   -636525.98108   -495993.87708  23410585.53008  23410586.78108
   1635943.78108   1274757.25008  25479380.65608  25479384.80408
 -13075508.38908 -10188700.30008  22943644.55708  22943646.32008
 -25610283.42309 -19956050.44309  20348416.93709  20348417.94009
 93 07 24 05 43 00.0000000  0  8 14 13 01 29 25 31 07 15
 -20882479.70009 -16272044.28908  21427822.24609  21427823.56508
  -1889032.40606  -1471971.86707  24900269.45606  24900273.27407
 -13656063.56108 -10641070.57508  22632262.44008  22632264.03608
  -7215934.49108  -5622799.16208  23918012.00408  23918014.46108
   -792085.91508   -617209.32608  23380983.30608  23380984.54208
   1866066.53608   1454073.68308  25523171.50308  25523175.78208
 -13167125.41608 -10260090.17308  22926210.49008  22926212.14408
 -25527100.93209 -19891232.94309  20364246.06509  20364247.05909
 93 07 24 05 44 00.0000000  0  8 14 13 01 29 25 31 07 15
 -21021821.67709 -16380622.40208  21401306.24509  21401307.51208
  -2122497.50507  -1653892.45406  24855842.67507  24855846.28106
 -13495815.35908 -10516201.89008  22662756.65708  22662758.27808
  -7434302.92108  -5792956.15408  23876457.74608  23876460.10608
   -946153.54408   -737261.94208  23351665.26208  23351666.40808
   2095965.92408   1633216.03108  25566920.07808  25566924.20008
 -13256486.68808 -10329722.31708  22909205.60008  22909207.34708
 -25441812.30609 -19824774.30109  20380475.96009  20380476.97209
 93 07 24 05 45 00.0000000  0  7 14 01 29 25 31 07 15
 -21159807.98809 -16488144.16408  21375048.40509  21375049.64408
 -13334195.43008 -10390264.32908  22693511.96008  22693513.59408
  -7651991.57608  -5962583.44008  23835032.74308  23835035.12008
  -1098724.20908   -856148.11808  23322631.99508  23322633.09108
   2325569.47308   1812127.92308  25610612.11208  25610616.28208
 -13343568.09608 -10397577.94208  22892634.48808  22892636.20208
 -25354418.35609 -19756675.14109  20397106.48709  20397107.54309
 93 07 24 05 46 00.0000000  0  7 14 01 29 25 31 07 15
 -21296498.01909 -16594655.83808  21349037.02109  21349038.27408
 -13171068.03308 -10263152.11708  22724554.13208  22724555.70508
  -7869092.43408  -6131752.73608  23793719.70808  23793722.01608
  -1249815.62608   -973881.64808  23293880.24008  23293881.40208
   2554817.47408   1990762.77608  25654236.51908  25654240.64808
 -13428345.52108 -10463638.26308  22876501.91108  22876503.53108
 -25264897.62209 -19686918.75209  20414141.74409  20414142.79109
 93 07 24 05 47 00.0000000  0  8 14 13 01 29 25 31 07 15
 -21431980.72009 -16700226.73608  21323255.40809  21323256.64808
        -0.85218        -0.06017  24723326.14418  24723329.68717
 -13006420.38508 -10134855.29508  22755885.50608  22755887.16008
  -8085697.68208  -6300535.86808  23752500.95308  23752503.14508
  -1399443.93708  -1090475.06608  23265406.84308  23265408.06108
   2783685.79108   2169101.73208  25697788.73008  25697792.85408
 -13510884.48908 -10527954.33708  22860795.30708  22860796.92008
 -25173292.10809 -19615537.85409  20431573.72209  20431574.75709
 93 07 24 05 48 00.0000000  0  8 14 13 01 29 25 31 07 15
 -21566213.63809 -16804823.77808  21297711.80709  21297712.98908
   -230685.85608   -179754.43508  24679428.11708  24679431.66008
 -12840358.80308 -10005456.70908  22787486.06208  22787487.57308
  -8301703.59408  -6468851.99608  23711396.13308  23711398.51308
  -1547476.65208  -1205825.14308  23237236.96908  23237238.14208
   3012247.88308   2347202.16407  25741282.41808  25741286.62407
 -13591147.93208 -10590497.27708  22845521.67608  22845523.31808
 -25079568.85109 -19542506.76609  20449408.67409  20449409.70909
 93 07 24 05 49 00.0000000  0  8 14 13 01 29 25 31 07 15
 -21699165.43809 -16908422.55608  21272411.97209  21272413.12308
   -460590.45808   -358900.71808  24635678.57508  24635682.16608
 -12673071.21408  -9875102.79108  22819319.87908  22819321.40908
  -8517006.20708  -6636620.09208  23670425.28708  23670427.65108
  -1693933.99508  -1319947.67308  23209367.05208  23209368.11808
   3240516.37708   2525073.81107  25784720.46308  25784724.58607
 -13669092.36708 -10651233.19908  22830689.31208  22830691.04708
 -24983730.67109 -19467827.69009  20467646.11109  20467647.13809
 93 07 24 05 50 00.0000000  0  8 14 13 01 29 25 31 07 15
 -21830765.46409 -17010968.01108  21247369.29609  21247370.46108
   -689686.75708   -537417.18207  24592082.87108  24592086.37607
 -12504574.55208  -9743806.73508  22851383.78808  22851385.28508
  -8731546.43208  -6803794.11208  23629599.38808  23629601.68908
  -1838858.65508  -1432875.91208  23181788.80108  23181789.92608
   3468486.28608   2702712.84907  25828101.72808  25828105.79407
 -13744658.18208 -10710115.64808  22816309.56308  22816311.28608
 -24885780.08609 -19391502.58709  20486285.50409  20486286.54009
 93 07 24 05 51 00.0000000  0  7 14 13 01 29 25 07 15
 -21961000.99709 -17112450.21708  21222586.26409  21222587.45208
   -917971.38908   -715301.24507  24548641.77408  24548645.16607
 -12334739.48208  -9611467.75808  22883702.33808  22883703.90108
  -8945347.32408  -6970392.03708  23588914.31208  23588916.52008
  -1982203.73408  -1544573.29208  23154511.01908  23154512.16508
 -13817880.79508 -10767172.22508  22802375.62908  22802377.29208
 -24785747.42909 -19313555.08409  20505321.11409  20505322.13609
 93 07 24 05 52 00.0000000  0  7 14 13 01 29 25 07 15
 -22089847.67309 -17212850.20108  21198067.50509  21198068.65208
  -1145389.89508   -892510.40307  24505365.50908  24505368.83907
 -12163453.70808  -9477998.36908  22916296.93408  22916298.48308
  -9158337.76508  -7136358.44208  23548383.48908  23548385.65608
  -2123802.64608  -1654910.03608  23127565.65608  23127566.76008
 -13888739.88008 -10822387.08208  22788891.64908  22788893.39408
 -24683610.04909 -19233967.54109  20524757.21609  20524758.26009
 93 07 24 05 53 00.0000000  0  8 14 13 01 29 25 12 07 15
 -22217458.77609 -17312287.40008  21173783.89909  21173785.05008
  -1371989.35108  -1069081.29308  24462245.01908  24462248.28708
 -11990813.18308  -9343473.33708  22949149.32408  22949150.96608
  -9370540.02008  -7301710.68308  23508002.60008  23508004.74408
  -2263682.88708  -1763907.57308  23100947.22808  23100948.33908
        -0.12118         0.41317  25223337.99518  25223341.97717
 -13957280.15408 -10875795.06908  22775848.93208  22775850.63608
 -24579448.39209 -19152802.65109  20544578.54809  20544579.61509
 93 07 24 05 54 00.0000000  0  8 14 13 01 29 25 12 07 15
 -22343852.37609 -17410775.89208  21149731.95409  21149733.15708
  -1597705.10408  -1244963.54708  24419292.53808  24419295.92308
 -11816915.75408  -9207968.89608  22982240.98608  22982242.59608
  -9581952.27608  -7466447.34408  23467772.00608  23467774.19108
  -2401894.52408  -1871604.88708  23074646.40708  23074647.49908
    166246.52208    129543.15007  25254973.77008  25254977.74207
 -14023447.61008 -10927354.09708  22763257.53308  22763259.21308
 -24473230.14609 -19070035.21809  20564791.24709  20564792.30109
 93 07 24 05 55 00.0000000  0  8 14 13 01 29 25 12 07 15
 -22468940.27909 -17508246.95308  21125928.49909  21125929.68508
  -1822531.60208  -1420152.88207  24376509.31508  24376512.58307
 -11641878.82308  -9071576.53308  23015549.46208  23015551.07408
  -9792675.52408  -7630647.11508  23427672.58508  23427674.80708
  -2538492.27108  -1978044.62408  23048652.71808  23048653.76108
    334248.15708    260453.38407  25286943.56808  25286947.54807
 -14087345.72108 -10977144.81108  22751098.19908  22751099.80208
 -24364983.97809 -18985687.57409  20585389.81309  20585390.89209
 93 07 24 05 56 00.0000000  0  8 14 13 01 29 25 12 07 15
 -22592580.70709 -17604590.11908  21102400.52609  21102401.69608
  -2046446.61108  -1594631.97108  24333899.55208  24333902.88908
 -11465696.48308  -8934291.64108  23049075.89208  23049077.54108
 -10002746.32808  -7794338.48108  23387697.33308  23387699.52908
  -2673460.12308  -2083214.32008  23022969.17408  23022970.16808
    503976.40607    392709.02607  25319241.84507  25319245.89807
 -14148998.65808 -11025186.03408  22739366.01008  22739367.64508
 -24254721.68309 -18899768.92409  20606372.04109  20606373.11809
 93 07 24 05 57 00.0000000  0  8 14 13 01 29 25 12 07 15
 -22714703.40109 -17699750.63608  21079161.29009  21079162.50008
  -2269358.47408  -1768329.33908  24291480.70408  24291484.10408
 -11288254.33508  -8796025.08608  23082842.08708  23082843.72008
 -10212031.60408  -7957417.72708  23347871.52608  23347873.59208
  -2806628.45808  -2186981.80108  22997627.99508  22997628.98008
    675473.18107    526342.78407  25351876.66807  25351880.75007
 -14208239.43508 -11071347.65608  22728092.87608  22728094.42808
 -24142386.49209 -18812235.03109  20627748.69809  20627749.82909
 93 07 24 05 58 00.0000000  0  8 14 13 01 29 25 12 07 15
 -22835448.60109 -17793837.78709  21056184.18609  21056185.41509
  -2491270.84508  -1941247.86908  24249251.98908  24249255.39208
 -11109581.32708  -8656799.42008  23116842.36508  23116844.16208
 -10420554.10608  -8119902.61408  23308190.80808  23308192.94908
  -2937971.85208  -2289327.24508  22972634.15208  22972635.17808
    848685.68808    661313.46907  25384837.96908  25384842.10407
 -14265007.83508 -11115582.75208  22717290.25008  22717291.78608
 -24028015.51209 -18723114.82109  20649512.80209  20649513.93609
 93 07 24 05 59 00.0000000  0  8 14 13 01 29 25 12 07 15
 -22954872.92309 -17886895.69209  21033458.53909  21033459.77509
  -2712162.22608  -2113370.85208  24207217.66808  24207220.83008
 -10929769.06108  -8516686.03008  23151059.53308  23151061.35408
 -10628281.62208  -8281768.05108  23268661.47808  23268663.53808
  -3067505.46908  -2390262.46908  22947984.62308  22947985.67108
   1023585.72607    797599.08907  25418120.50807  25418124.49807
 -14319353.40208 -11157929.93008  22706948.57008  22706950.05908
 -23911621.87409 -18632418.52009  20671661.81909  20671662.91709
 93 07 24 06 00 00.0000000  0  8 14 13 01 29 25 12 07 15
 -23072966.59109 -17978916.72309  21010985.99309  21010987.21009
  -2932010.15508  -2284680.81108  24165381.93808  24165385.05008
 -10748856.80408  -8375715.50308  23185486.11008  23185487.87208
 -10835089.79908  -8442917.12808  23229307.09108  23229309.02208
  -3195262.60408  -2489813.41508  22923673.20208  22923674.25808
   1200144.62707    935177.35607  25451718.50407  25451722.52707
 -14371314.96708 -11198419.43908  22697060.56308  22697062.11408
 -23793219.98809 -18540157.34309  20694192.99709  20694194.10509
 93 07 24 06 01 00.0000000  0  8 13 01 14 29 25 12 07 15
  -3150768.13408  -2455141.43408  24123753.59508  24123756.80108
 -10566790.13608  -8233845.42608  23220132.26708  23220134.03708
 -23189657.49009 -18069844.69409  20988780.46409  20988781.65209
 -11040885.94808  -8603277.60608  23190145.22908  23190147.15608
  -3321151.59708  -2587908.67808  22899717.33708  22899718.37408
   1378357.81607   1074044.64907  25485631.60207  25485635.67407
 -14420772.76508 -11236957.96308  22687649.01508  22687650.54408
 -23672798.22709 -18446322.23009  20717108.50209  20717109.59909
 93 07 24 06 02 00.0000000  0  8 13 01 29 14 25 12 07 15
  -3368440.29808  -2624755.97608  24082331.84508  24082334.80808
 -10383543.82708  -8091056.15508  23255002.99708  23255004.77708
 -11245728.84708  -8762895.29908  23151164.76408  23151166.71108
 -23304875.96909 -18159625.31909  20966855.12109  20966856.30309
  -3445141.85108  -2684524.40508  22876122.67608  22876123.61908
   1558170.30107   1214158.18307  25519848.75307  25519852.93507
 -14467669.99208 -11273501.23908  22678724.77608  22678726.30308
 -23550396.77109 -18350944.49509  20740400.72409  20740401.86009
 93 07 24 06 03 00.0000000  0  8 13 01 29 14 25 12 07 15
  -3585030.11808  -2793527.19407  24041116.09408  24041119.01007
 -10199234.98608  -7947438.94008  23290075.73708  23290077.54608
 -11449726.76108  -8921854.56208  23112345.22208  23112347.12008
 -23418622.04609 -18248258.62009  20945210.00309  20945211.19809
  -3567318.85608  -2779727.21208  22852873.14508  22852874.13108
   1739528.02707   1355475.80706  25554360.16307  25554364.09806
 -14512042.90008 -11308077.51208  22670280.94308  22670282.41608
 -23426055.01008 -18254054.84109  20764062.16808  20764063.33409
 93 07 24 06 04 00.0000000  0  8 13 01 29 14 25 12 07 15
  -3800508.89608  -2961432.61108  24000111.87708  24000114.99508
 -10013970.28008  -7803076.89608  23325330.52908  23325332.36108
 -11652928.15908  -9080193.17608  23073677.24408  23073678.96208
 -23530993.40609 -18335820.70109  20923826.45909  20923827.68909
  -3687703.50808  -2873533.37108  22829964.60208  22829965.56308
   1922408.62807   1497980.08006  25589161.12107  25589165.27606
 -14554005.14808 -11340775.35108  22662295.77208  22662297.26908
 -23299780.06808 -18155658.82109  20788091.52808  20788092.70709
 93 07 24 06 05 00.0000000  0  8 13 01 29 14 25 12 07 15
  -4014806.29408  -3128417.48808  23959332.35808  23959335.32208
  -9827694.87208  -7657927.29508  23360777.62508  23360779.45408
 -11855263.07608  -9237856.59808  23035174.05608  23035175.75208
 -23642036.00009 -18422347.37509  20902695.74309  20902696.93809
  -3806176.67608  -2965850.06408  22807419.88008  22807420.95708
   2106831.51307   1641686.16406  25624255.80607  25624259.83306
 -14593662.13308 -11371676.88108  22654749.30708  22654750.74408
 -23171538.56408 -18055730.41009  20812495.08808  20812496.29309
 93 07 24 06 06 00.0000000  0  7 13 01 29 14 25 07 15
  -4227869.46608  -3294440.65308  23918787.61708  23918790.51608
  -9640336.34008  -7511933.71808  23396430.73408  23396432.66508
 -12056601.55508  -9394743.56808  22996860.58708  22996862.20308
 -23751717.48309 -18507813.44609  20881824.01709  20881825.20809
  -3922618.91308  -3056584.22308  22785261.55308  22785262.65808
 -14630989.15608 -11400762.86108  22647646.18308  22647647.65608
 -23041314.48108 -17954257.12309  20837275.95508  20837277.12209
 93 07 24 06 07 00.0000000  0  7 13 01 29 25 07 14 15
  -4439657.61508  -3459470.27708  23878485.64608  23878488.55008
  -9451863.86908  -7365072.12608  23432295.94408  23432297.85808
 -12256910.78108  -9550828.53008  22958742.81708  22958744.47008
  -4037029.99908  -3145735.66208  22763489.86308  22763490.91408
 -14665817.72908 -11427901.99808  22641018.56908  22641020.03208
 -23859835.04609 -18592060.87609  20861249.92609  20861251.10509
 -22909105.16508 -17851236.89809  20862434.60008  20862435.75609
 93 07 24 06 08 00.0000000  0  7 13 01 29 25 07 14 15
  -4650203.95308  -3623532.24907  23838419.80308  23838422.61407
  -9262378.47008  -7217421.24008  23468353.88708  23468355.81008
 -12456272.07908  -9706174.84708  22920805.57508  22920807.14308
  -4149517.17908  -3233387.94408  22742084.25808  22742085.23308
 -14698063.94408 -11453028.91508  22634882.30608  22634883.80008
 -23966356.72709 -18675064.75509  20840979.47209  20840980.62509
 -22774980.53508 -17746724.22609  20887957.70408  20887958.86109
 93 07 24 06 09 00.0000000  0  7 13 01 29 25 07 14 15
  -4859507.40208  -3786625.79908  23798590.70408  23798593.54908
  -9071912.46508  -7069006.24508  23504598.37008  23504600.36008
 -12654671.23308  -9860771.42608  22883051.25608  22883052.87008
  -4260124.13708  -3319575.14008  22721036.45508  22721037.33508
 -14727739.94908 -11476153.07908  22629235.06608  22629236.55008
 -24071443.16809 -18756950.26509  20820982.20609  20820983.34309
 -22638977.43208 -17640747.82008  20913838.25308  20913839.41408
 93 07 24 06 10 00.0000000  0  7 13 01 29 25 07 14 15
  -5067542.47708  -3948730.95908  23759002.82008  23759005.74408
  -8880465.81008  -6919827.10608  23541029.50608  23541031.52008
 -12852052.51608 -10014574.86908  22845490.73608  22845492.34508
  -4368782.51708  -3404243.94408  22700359.32608  22700360.27408
 -14754909.15108 -11497323.89808  22624064.94508  22624066.40308
 -24175209.20609 -18837806.89309  20801236.13409  20801237.24709
 -22501108.17608 -17533317.26608  20940073.95808  20940075.08708
 93 07 24 06 11 00.0000000  0  7 13 01 29 25 07 14 15
  -5274307.65608  -4109846.65108  23719656.83108  23719659.58408
  -8688064.98208  -6769904.44808  23577642.25408  23577644.25808
 -13048465.83708 -10167624.05208  22808114.39108  22808115.93208
  -4475462.51608  -3487371.17208  22680058.75408  22680059.65808
 -14779737.69308 -11516670.82608  22619340.17808  22619341.64908
 -24277617.66209 -18917605.66109  20781748.42109  20781749.49709
 -22361409.80308 -17424461.41808  20966657.66108  20966658.81408
 93 07 24 06 12 00.0000000  0  7 15 13 01 29 25 07 14
 -22219842.30408 -17314149.11208  20993597.11508  20993598.24308
  -5479724.15308  -4269911.39408  23680567.23008  23680570.20908
  -8494775.50608  -6619289.34408  23614424.15808  23614426.13008
 -13243867.69408 -10319885.08008  22770930.50908  22770932.01608
  -4580096.65608  -3568904.23908  22660147.60308  22660148.35608
 -14802235.11108 -11534201.29808  22615059.17608  22615060.62108
 -24378519.71509 -18996230.61509  20762547.39209  20762548.46409
 93 07 24 06 13 00.0000000  0  7 15 13 01 29 25 07 14
 -22076407.06508 -17202381.42708  21020891.95408  21020893.07908
  -5683756.49508  -4428897.58708  23641741.11008  23641744.01908
  -8300730.58308  -6468085.56708  23651349.69708  23651351.61408
 -13438223.84208 -10471331.27308  22733945.64908  22733947.12908
  -4682696.37208  -3648852.02708  22640623.46208  22640624.21508
 -14822304.41708 -11549839.74008  22611240.15008  22611241.58708
 -24477913.97209 -19073680.67309  20743633.21409  20743634.32009
 93 07 24 06 14 00.0000000  0  7 15 13 01 29 25 07 14
 -21931086.45608 -17089144.65008  21048545.56608  21048546.79608
  -5886349.06208  -4586761.86408  23603188.87408  23603192.07008
  -8105889.81908  -6316261.63808  23688426.73908  23688428.56308
 -13631449.94608 -10621896.92408  22697175.81408  22697177.22908
  -4783224.71408  -3727185.75908  22621493.53608  22621494.26808
 -14839792.82308 -11563467.09208  22607912.26008  22607913.75808
 -24575752.85609 -19149918.75509  20725015.13109  20725016.21409
 93 07 24 06 15 00.0000000  0  7 15 13 01 29 25 07 14
 -21783901.81308 -16974455.35908  21076553.90908  21076555.12708
  -6087482.04108  -4743488.78808  23564914.69608  23564917.55108
  -7910096.36308  -6163695.35808  23725685.03008  23725687.00408
 -13823488.94508 -10771537.53708  22660631.85008  22660633.27708
  -4881621.22308  -3803858.32408  22602769.27808  22602769.94508
 -14854700.39708 -11575083.39908  22605075.29908  22605076.86708
 -24671983.96209 -19224904.01809  20706702.90709  20706704.02809
 93 07 24 06 16 00.0000000  0  7 15 13 01 29 25 07 14
 -21634922.59108 -16858367.72208  21104903.75708  21104904.97708
  -6287185.79508  -4899102.01508  23526912.08008  23526915.11008
  -7713396.21008  -6010422.55908  23763115.88208  23763117.81108
 -14014429.85608 -10920322.51708  22624296.87608  22624298.22908
  -4977899.52608  -3878880.33808  22584448.08008  22584448.78708
 -14867146.18708 -11584781.43108  22602707.02208  22602708.55908
 -24766713.12809 -19298718.94009  20688676.58209  20688677.70709
 93 07 24 06 17 00.0000000  0  7 15 13 01 29 25 07 14
 -21484132.96908 -16740869.37108  21133598.07808  21133599.32708
  -6485404.14108  -5053557.75408  23489192.39908  23489195.37608
  -7515890.83408  -5856522.31708  23800699.90508  23800701.93708
 -14204329.86808 -11068296.39308  22588159.99608  22588161.35408
  -5072049.36008  -3952243.79108  22566531.91008  22566532.64108
 -14877111.66408 -11592546.73908  22600810.67008  22600812.29808
 -24860027.29409 -19371431.27009  20670919.45409  20670920.57309
 93 07 24 06 18 00.0000000  0  7 15 13 01 29 25 07 14
 -21331547.73108 -16621971.81308  21162634.14308  21162635.38308
  -6682114.18308  -5206838.18408  23451759.69608  23451762.44608
  -7317624.85108  -5702029.39108  23838428.64308  23838430.74608
 -14393185.91108 -11215456.78008  22552221.80908  22552223.08608
  -5164097.40508  -4023969.49508  22549015.67508  22549016.43208
 -14884600.29308 -11598382.02808  22599385.55508  22599387.21608
 -24951886.50109 -19443009.86609  20653439.24809  20653440.33409
 93 07 24 06 19 00.0000000  0  7 15 13 01 29 25 07 14
 -21177151.59408 -16501663.16108  21192014.80108  21192016.02208
  -6877259.90008  -5358899.66908  23414624.53808  23414627.40008
  -7118488.82608  -5546858.51908  23876323.11808  23876325.12808
 -14580925.27108 -11361747.03508  22516496.09108  22516497.30708
  -5253960.74708  -4093992.83308  22531915.23508  22531916.01208
 -14889648.52708 -11602315.71008  22598424.96808  22598426.58408
 -25042145.65509 -19513341.66109  20636263.49909  20636264.59509
 93 07 24 06 20 00.0000000  0  7 15 13 01 29 25 07 14
 -21020972.90008 -16379965.49808  21221734.64008  21221735.88208
  -7070830.81508  -5509734.03008  23377789.24208  23377791.76808
  -6918484.13608  -5391010.78108  23914382.78008  23914384.86508
 -14767488.91208 -11507121.15508  22480994.14708  22480995.29208
  -5341610.22608  -4162291.07808  22515236.03508  22515236.78408
 -14892249.25908 -11604342.24708  22597930.04608  22597931.61408
 -25130794.69109 -19582418.81509  20619394.18009  20619395.21209
 93 07 24 06 21 00.0000000  0  7 15 13 01 29 25 07 14
 -20863039.93708 -16256900.87208  21251788.24108  21251789.54808
  -7262815.89008  -5659332.67708  23341255.48508  23341258.35408
  -6717692.16108  -5234549.58008  23952592.01108  23952594.36608
 -14952906.37208 -11651602.16208  22445710.26108  22445711.38308
  -5427130.01508  -4228929.83408  22498962.15808  22498962.85208
 -14892307.53808 -11604387.64708  22597918.91108  22597920.55308
 -25217829.90009 -19650238.43409  20602831.92109  20602832.94609
 93 07 24 06 22 00.0000000  0  7 15 13 01 29 25 07 14
 -20703380.29108 -16132490.80108  21282170.51408  21282171.83308
  -7453201.39008  -5807684.91308  23305026.30008  23305028.83508
  -6516146.85108  -5077501.35908  23990944.92308  23990947.20208
 -15137161.33608 -11795177.31808  22410647.63408  22410648.68008
  -5510610.04108  -4293979.16008  22483076.37508  22483077.09508
 -14889803.05808 -11602436.09308  22598395.50508  22598397.15608
 -25303287.95809 -19716829.10009  20586569.72709  20586570.78009
 93 07 24 06 23 00.0000000  0  7 15 13 01 29 25 07 14
 -20542032.80508 -16006765.52808  21312873.94708  21312875.23708
  -7641986.48308  -5954790.05908  23269101.54808  23269104.27208
  -6313915.56208  -4919918.60408  24029428.39708  24029430.53108
 -15320230.45608 -11937828.45008  22375810.66308  22375811.64008
  -5591950.29108  -4357361.12708  22467597.79808  22467598.54408
 -14884771.33808 -11598515.26708  22599353.08808  22599354.61408
 -25387229.26209 -19782237.88509  20570596.22809  20570597.24709
 93 07 24 06 24 00.0000000  0  7 15 13 01 29 25 07 14
 -20378982.53408 -15879713.42208  21343901.39508  21343902.70708
  -7829115.37308  -6100604.71408  23233492.06508  23233494.53008
  -6111053.66908  -4761844.46208  24068031.83508  24068033.94008
 -15502076.02008 -12079526.17608  22341206.47908  22341207.47008
  -5670954.64308  -4418922.92608  22452563.79808  22452564.48808
 -14877220.87608 -11592631.78608  22600789.93108  22600791.42908
 -25469581.44409 -19846408.39609  20554925.11409  20554926.13809
 93 07 24 06 25 00.0000000  0  7 15 13 01 29 25 07 14
 -20214259.65608 -15751357.97708  21375247.10908  21375248.54508
  -8014578.29508  -6245121.18108  23198199.54108  23198202.26108
  -5907636.07108  -4603337.27508  24106740.95308  24106743.00908
 -15682681.63608 -12220257.70608  22306838.27608  22306839.26308
  -5747618.71308  -4478661.12408  22437975.05708  22437975.77208
 -14867250.99508 -11584863.05108  22602687.06008  22602688.54108
 -25550316.67509 -19909318.94509  20539561.68409  20539562.72109
 93 07 24 06 26 00.0000000  0  7 15 13 01 29 25 07 14
 -20047871.70708 -15621705.08508  21406909.72108  21406911.13808
  -8198341.80908  -6388313.45708  23163230.41608  23163233.05408
  -5703605.31408  -4444352.30908  24145566.70108  24145568.80608
 -15862055.12908 -12360029.14608  22272704.53708  22272705.53308
  -5822048.80508  -4536658.56808  22423811.48608  22423812.14108
 -14854930.19308 -11575262.44008  22605031.58108  22605033.07808
 -25629549.58509 -19971058.84409  20524484.02109  20524485.03309
 93 07 24 06 27 00.0000000  0  7 15 13 01 29 25 07 14
 -19879802.24808 -15490741.90808  21438892.30508  21438893.72708
  -8380349.11408  -6530137.26008  23128595.63408  23128598.14908
  -5498841.82008  -4284796.37508  24184531.98508  24184534.01308
 -16040182.98008 -12498829.95308  22238807.80608  22238808.82708
  -5894290.51808  -4592950.78208  22410064.32508  22410064.91708
 -14840183.22808 -11563771.31808  22607837.88708  22607839.44508
 -25707303.19409 -20031646.05509  20509688.08909  20509689.11209
 93 07 24 06 28 00.0000000  0  7 13 01 29 25 14 07 15
  -8560561.30108  -6670562.27408  23094302.31408  23094305.02908
  -5293341.67308  -4124666.44508  24223637.41508  24223639.48508
 -16217010.85508 -12636617.78008  22205158.52008  22205159.46808
  -5964323.02608  -4647521.53408  22396737.56608  22396738.12408
 -25783489.08409 -20091011.66809  20495190.37409  20495191.40009
 -14822918.62308 -11550318.40208  22611123.23008  22611124.74108
 -19710052.49708 -15358469.41908  21471194.67208  21471196.09208
 93 07 24 06 29 00.0000000  0  7 13 01 14 29 25 07 15
  -8738970.04308  -6809581.99708  23060352.13608  23060354.81408
  -5087167.32308  -3964011.14408  24262871.14408  24262873.11308
 -25858001.81409 -20149073.52009  20481011.12709  20481012.11509
 -16392537.61408 -12773391.75108  22171756.81108  22171757.72908
  -6032138.23408  -4700364.52508  22383832.72308  22383833.24108
 -14803147.45808 -11534912.32608  22614885.68008  22614887.19908
 -19538655.15108 -15224913.05308  21503810.56208  21503811.89708
 93 07 24 06 30 00.0000000  0  8 13 01 14 29 25 20 07 15
  -8915567.86108  -6947190.61308  23026746.61508  23026749.25108
  -4880400.66008  -3802894.31308  24302217.51808  24302219.57308
 -25930832.70009 -20205824.84209  20467151.76009  20467152.77809
 -16566801.61208 -12909181.76008  22138595.39108  22138596.23908
  -6097703.46708  -4751454.28808  22371356.07108  22371356.58208
        -0.00218         0.47218  25222765.79418  25222768.33418
 -14780896.76008 -11517574.14508  22619119.88808  22619121.32808
 -19365643.84508 -15090099.08208  21536733.49808  21536734.88808
 93 07 24 06 31 00.0000000  0  8 13 01 14 29 25 20 07 15
  -9090335.88108  -7083373.44108  22993489.46508  22993491.92508
  -4673065.60308  -3641334.57908  24341672.04708  24341674.13908
 -26002030.15409 -20261303.36709  20453603.40109  20453604.39109
 -16739846.15208 -13044021.54708  22105666.02808  22105666.82108
  -6160970.93708  -4800753.59908  22359316.67708  22359317.18708
   -109660.83608    -85449.53008  25201897.98808  25201900.56508
 -14756190.43908 -11498322.50108  22623821.44008  22623822.94508
 -19191040.52308 -14954044.57708  21569959.47008  21569960.81108
 93 07 24 06 32 00.0000000  0  8 13 01 14 29 25 20 07 15
  -9263237.49808  -7218101.92808  22960587.33608  22960589.91008
  -4465188.75208  -3479352.64608  24381229.75708  24381231.82708
 -26071652.82209 -20315554.79409  20440354.65509  20440355.64209
 -16911640.50708 -13177887.18308  22072974.55408  22072975.33708
  -6221834.81808  -4848179.97908  22347734.59508  22347735.16808
   -217454.18108   -169444.38008  25181385.64308  25181388.18908
 -14729012.83108 -11477145.18008  22628993.14308  22628994.69708
 -19014850.19108 -14816753.45008  21603487.38808  21603488.71808
 93 07 24 06 33 00.0000000  0  8 13 01 14 29 25 20 07 15
  -9434233.34508  -7351345.39808  22928047.87308  22928050.41908
  -4256800.60808  -3316972.29108  24420884.61908  24420886.83408
 -26139727.72709 -20368600.16409  20427400.37709  20427401.38009
 -17082088.78008 -13310703.92508  22040539.28008  22040540.01908
  -6280290.97908  -4893730.20908  22336610.73808  22336611.35208
   -323347.03408   -251958.33808  25161234.88808  25161237.48708
 -14699360.24408 -11454039.30708  22634635.88808  22634637.35908
 -18837073.40008 -14678226.13508  21637317.24408  21637318.58008
 93 07 24 06 34 00.0000000  0  8 13 01 14 29 25 20 07 15
  -9603323.77208  -7483104.13508  22895871.08008  22895873.51908
  -4047956.45408  -3154236.59808  24460626.44608  24460628.58608
 -26206202.23009 -20420398.44609  20414750.71709  20414751.72509
 -17251197.63108 -13442476.95908  22008358.85108  22008359.60208
  -6336421.30208  -4937468.10508  22325929.48708  22325930.11508
   -427347.34708   -332997.60108  25141444.38108  25141446.92908
 -14667257.29308 -11429024.06008  22640744.92508  22640746.45408
 -18657751.33708 -14538494.69408  21671441.07808  21671442.55608
 93 07 24 06 35 00.0000000  0  8 13 14 01 29 25 20 07 15
  -9770462.25408  -7613341.88208  22864065.56108  22864068.09508
 -26270980.56009 -20470875.04109  20402423.64809  20402424.66809
  -3838623.53908  -2991120.05708  24500461.12608  24500463.29608
 -17418914.07908 -13573165.01008  21976443.39908  21976444.12108
  -6390205.52008  -4979377.86508  22315694.71608  22315695.28308
   -529415.07308   -412530.91308  25122021.58108  25122024.16008
 -14632734.37808 -11402123.12708  22647314.39408  22647315.94108
 -18476878.38608 -14397554.76108  21705860.10708  21705861.55108
 93 07 24 06 36 00.0000000  0  7 13 01 14 29 25 07 15
  -9935636.37308  -7742048.94908  22832633.86808  22832636.49508
  -3628757.75808  -2827588.31208  24540397.36208  24540399.53608
 -26334066.07509 -20520032.56409  20390418.84509  20390419.85809
 -17585186.76608 -13702728.05208  21944802.72008  21944803.43008
  -6441643.55108  -5019459.39808  22305906.24508  22305906.80808
 -14595871.68008 -11373398.99308  22654329.08108  22654330.59808
 -18294482.44708 -14255428.09508  21740568.93808  21740570.40308
 93 07 24 06 37 00.0000000  0  7 13 14 01 29 25 07 15
 -10098810.46608  -7869197.54608  22801582.87108  22801585.50608
 -26395462.56709 -20567873.95309  20378735.60509  20378736.60809
  -3418346.83708  -2663631.79408  24580437.23808  24580439.45608
 -17750011.47608 -13831162.79508  21913437.51308  21913438.24708
  -6490744.47508  -5057719.82808  22296562.77508  22296563.28808
 -14556567.34908 -11342772.28708  22661808.53708  22661810.10608
 -18110569.22208 -14112119.13108  21775566.43008  21775567.96308
 93 07 24 06 38 00.0000000  0  8 13 14 01 29 25 18 07 15
 -10259987.12108  -7994789.70308  22770911.96908  22770914.55408
 -26455160.04009 -20614391.45509  20367375.50509  20367376.51009
  -3207487.66508  -2499325.99708  24620562.45308  24620564.67708
 -17913541.74808 -13958588.87008  21882318.63408  21882319.33608
  -6537546.79208  -5094189.13508  22287656.45108  22287656.97608
         0.38517         0.08217  25228424.46217  25228428.46117
 -14514733.84208 -11310174.79308  22669769.19608  22669770.83908
 -17925182.61008 -13967662.06608  21810844.32908  21810845.89108
 93 07 24 06 39 00.0000000  0  8 13 14 01 29 25 18 07 15
 -10419128.20708  -8118795.68908  22740628.37008  22740630.84608
 -26513165.98709 -20659590.93009  20356337.36709  20356338.37809
  -2996257.31808  -2334730.99008  24660758.29908  24660760.59408
 -18075817.73408 -14085037.59508  21851438.43408  21851439.14808
  -6581977.47108  -5128810.42608  22279201.61208  22279202.19008
   -234353.60807   -182613.32307  25183828.34207  25183832.33307
 -14470389.72708 -11275620.98008  22678207.64408  22678209.31008
 -17738326.18008 -13822059.70608  21846401.98308  21846403.48408
 93 07 24 06 40 00.0000000  0  8 13 01 14 29 25 18 07 15
 -10576217.88808  -8241203.17708  22710735.23908  22710737.70408
  -2784642.08908  -2169836.07408  24701027.36708  24701029.65508
 -26569615.66509 -20703577.75709  20345595.37109  20345596.39609
 -18236755.29808 -14210443.37808  21820812.96708  21820813.63508
  -6624014.82308  -5161566.78608  22271202.22608  22271202.74008
   -468519.95308   -365080.50607  25139267.83908  25139271.88907
 -14423744.05208 -11239273.73708  22687083.94008  22687085.60408
 -17550024.56308 -13675331.22208  21882234.63308  21882236.15108
 93 07 24 06 41 00.0000000  0  8 13 01 14 29 25 18 07 15
 -10731238.46308  -8361998.39108  22681235.73708  22681238.15808
  -2572564.50208  -2004580.89008  24741384.47908  24741386.83408
 -26624557.83009 -20746389.83409  20335140.24709  20335141.25409
 -18396213.74208 -14334696.60608  21790468.99508  21790469.61108
  -6663651.33808  -5192452.35908  22263659.54108  22263660.02708
   -702582.20708   -547466.52007  25094727.07408  25094731.13307
 -14374907.11908 -11201219.01908  22696377.41808  22696379.11408
 -17360299.44108 -13527493.48808  21918338.14008  21918339.68508
 93 07 24 06 42 00.0000000  0  8 13 14 01 29 25 18 07 15
 -10884107.98708  -8481117.45908  22652145.54608  22652147.88508
 -26677807.10809 -20787882.74609  20325007.18909  20325008.21409
  -2359942.67408  -1838901.62508  24781845.20108  24781847.52008
 -18554086.82708 -14457714.50508  21760426.65408  21760427.23008
  -6700842.81808  -5221432.71008  22256582.20008  22256582.71708
   -936517.19608   -729753.35607  25050210.77708  25050214.65307
 -14323688.15108 -11161308.15608  22706124.00208  22706125.71408
 -17169110.04608 -13378514.76008  21954720.33108  21954721.74608
 93 07 24 06 43 00.0000000  0  8 13 14 01 29 25 18 07 15
 -11034840.86108  -8598571.60908  22623461.95708  22623464.44308
 -26729292.63809 -20828001.31409  20315209.76709  20315210.78909
  -2146987.42908  -1672962.55008  24822369.28508  24822371.60308
 -18710419.53508 -14579532.11408  21730677.48908  21730677.97908
  -6735646.82008  -5248552.68708  22249959.17908  22249959.73608
  -1170276.73308   -911903.43807  25005727.56708  25005731.49907
 -14269990.27208 -11119465.67608  22716342.47408  22716344.12208
 -16976511.31208 -13228437.86608  21991370.75008  21991372.15608
 93 07 24 06 44 00.0000000  0  8 13 01 14 29 25 18 07 15
 -11183425.14908  -8714351.53608  22595187.35008  22595189.77208
  -1933758.81908  -1506810.44008  24862945.36608  24862947.69008
 -26779036.72809 -20866762.92709  20305743.78109  20305744.80009
 -18865285.31308 -14700206.68208  21701207.40508  21701207.94508
  -6768132.16108  -5273865.92208  22243777.48308  22243777.99708
  -1403762.32408  -1093840.04207  24961296.66408  24961300.45307
 -14213881.34608 -11075744.44608  22727019.53408  22727021.19908
 -16782531.36208 -13077284.68608  22028283.91108  22028285.37308
 93 07 24 06 45 00.0000000  0  8 13 01 14 29 25 18 07 15
 -11329835.51808  -8828437.50108  22567326.34108  22567328.73008
  -1720188.09908  -1340391.75208  24903586.62008  24903588.83308
 -26827101.77509 -20904216.16709  20296597.31009  20296598.29709
 -19018774.61208 -14819808.67708  21671999.36008  21671999.84608
  -6798277.62808  -5297355.88208  22238040.97808  22238041.50408
  -1636959.65608  -1275552.04908  24916920.56908  24916924.20608
 -14155475.58408 -11030233.47508  22738133.82608  22738135.48208
 -16587185.77008 -12925067.38508  22065456.96008  22065458.39808
 93 07 24 06 46 00.0000000  0  8 13 01 14 29 25 18 07 15
 -11474009.88308  -8940781.13408  22539890.81808  22539893.24108
  -1506180.92408  -1173632.96408  24944310.84108  24944313.08308
 -26873441.02409 -20940324.66909  20287779.24709  20287780.22209
 -19170860.31408 -14938316.95008  21643058.32008  21643058.81008
  -6825886.77308  -5318869.49708  22232787.11908  22232787.66508
  -1869880.34808  -1457048.51008  24872597.09308  24872600.73708
 -14094762.25808 -10982924.40608  22749687.24808  22749688.97308
 -16390453.06708 -12771769.22408  22102894.01408  22102895.47608
 93 07 24 06 47 00.0000000  0  8 13 01 14 29 25 18 07 15
 -11615950.81508  -9051384.43308  22512880.38208  22512882.72908
  -1291795.33008  -1006579.27908  24985107.00808  24985109.37508
 -26918062.29109 -20975094.46409  20279288.08609  20279289.04909
 -19321499.24408 -15055697.87508  21614392.65608  21614393.15208
  -6850951.13108  -5338400.15808  22228017.51608  22228018.13308
  -2102513.94208  -1638321.24908  24828328.20808  24828332.05808
 -14031669.90808 -10933761.54908  22761693.36708  22761695.09708
 -16192376.59308 -12617423.97108  22140586.73608  22140588.26608
 93 07 24 06 48 00.0000000  0  8 13 01 14 29 25 18 07 15
 -11755618.24508  -9160216.16608  22486302.51708  22486304.86508
  -1077125.90608   -839304.40107  25025957.28708  25025959.56307
 -26960888.53409 -21008465.57009  20271138.54009  20271139.49209
 -19470596.12608 -15171877.20408  21586020.40008  21586020.89008
  -6873566.09408  -5356022.18108  22223713.97308  22223714.57708
  -2334825.75608  -1819343.27508  24784120.66908  24784124.25908
 -13966193.85008 -10882741.26408  22774153.00208  22774154.70108
 -15992954.57708 -12462030.25708  22178535.54008  22178537.03508
 93 07 24 06 49 00.0000000  0  8 13 01 14 29 25 18 07 15
 -11893032.79008  -9267292.39908  22460153.34708  22460155.74508
   -862173.82608   -671809.22707  25066861.19108  25066863.39307
 -27001943.43409 -21040456.38709  20263326.06909  20263327.00609
 -19618184.69008 -15286881.21708  21557935.22308  21557935.72208
  -6893831.87908  -5371813.68108  22219857.56608  22219858.12208
  -2566828.62508  -2000124.56108  24739971.74808  24739975.44708
 -13898449.83708 -10829953.74508  22787044.18508  22787045.95308
 -15792247.54108 -12305635.22008  22216728.83108  22216730.34208
 93 07 24 06 50 00.0000000  0  8 13 01 14 29 25 18 07 15
 -12028162.44708  -9372588.20008  22434439.05408  22434441.37908
   -646912.78108   -504073.28507  25107824.03708  25107826.29907
 -27041337.81309 -21071153.30909  20255829.54009  20255830.48209
 -19764241.68408 -15400691.80008  21530141.43708  21530141.92908
  -6911699.44808  -5385736.44308  22216457.40508  22216457.97808
  -2798460.99108  -2180617.13108  24695893.56608  24695897.18208
 -13828445.70008 -10775405.09508  22800365.51608  22800367.31908
 -15590264.51508 -12148245.91208  22255164.89408  22255166.52108
 93 07 24 06 51 00.0000000  0  8 29 13 14 01 25 18 07 15
 -19908759.60308 -15513303.08608  21502640.56608  21502641.01908
 -12160996.45908  -9476095.18108  22409161.52208  22409163.74708
 -27079160.66409 -21100625.64609  20248632.14209  20248633.05809
   -431407.64808   -336147.16307  25148833.34908  25148835.40507
  -6927091.78108  -5397730.45408  22213528.50308  22213529.01308
  -3029743.53208  -2360837.11108  24651881.68108  24651885.39108
 -13756135.94608 -10719059.86908  22814125.80308  22814127.58008
 -15387033.32508 -11989884.03008  22293838.59708  22293840.18008
 93 07 24 06 52 00.0000000  0  8 29 13 14 01 25 18 07 15
 -20051749.48208 -15624723.69408  21475430.42908  21475430.88508
 -12291512.34108  -9577795.82008  22384325.14908  22384327.35308
 -27115343.02409 -21128819.66509  20241746.79509  20241747.73009
   -215708.19707   -168069.61607  25189879.46407  25189881.53207
  -6939982.76108  -5407775.35808  22211075.31008  22211075.81408
  -3260769.16008  -2540856.89508  24607919.01708  24607922.43108
 -13681532.72808 -10660927.53508  22828322.26408  22828324.05608
 -15182570.39908 -11830562.35608  22332746.67608  22332748.29208
 93 07 24 06 53 00.0000000  0  8 29 13 14 01 25 18 07 15
 -20193195.49908 -15734941.31208  21448514.11408  21448514.57208
 -12419674.38008  -9677662.30008  22359936.71808  22359939.06408
 -27149763.42809 -21155640.70609  20235196.81609  20235197.73709
       197.36707       168.53607  25230964.86807  25230967.15407
  -6950409.73208  -5415900.27408  22209091.14808  22209091.72608
  -3491577.47108  -2720707.31608  24563997.38108  24564000.93608
 -13604712.67708 -10601067.81708  22842940.72608  22842942.55708
 -14976880.28508 -11670284.42208  22371888.24908  22371889.94208
 93 07 24 06 54 00.0000000  0  8 29 13 14 01 25 18 07 15
 -20333047.89208 -15843917.13508  21421901.04308  21421901.44308
 -12545430.57308  -9775654.08408  22336006.02208  22336008.37008
 -27182401.08809 -21181072.61109  20228986.03409  20228986.95309
    216354.39807    168602.64407  25272098.16307  25272100.34107
  -6958403.00108  -5422128.77508  22207570.03608  22207570.68008
  -3722014.11908  -2900268.14208  24520146.65408  24520149.93908
 -13525650.02108 -10539460.61108  22857985.96808  22857987.79208
 -14769949.63608 -11509039.83008  22411265.92708  22411267.61408
 93 07 24 06 55 00.0000000  0  8 29 13 14 01 25 18 07 15
 -20471259.82308 -15951614.68808  21395600.16108  21395600.51108
 -12668786.97908  -9871775.92008  22312532.06508  22312534.33008
 -27213303.94409 -21205152.67609  20223105.30309  20223106.19309
    432671.70607    337161.65807  25313261.86507  25313264.14807
  -6963984.43308  -5426477.92708  22206507.86408  22206508.56608
  -3952037.57208  -3079507.00408  24476374.41808  24476377.94208
 -13444359.88808 -10476117.70608  22873454.99808  22873456.75308
 -14561822.61608 -11346863.04608  22450871.24308  22450872.93208
 93 07 24 06 56 00.0000000  0  8 29 13 14 01 25 18 07 15
 -20607807.68608 -16058015.57508  21369615.87608  21369616.22908
 -12789714.20408  -9966004.88208  22289520.29208  22289522.62308
 -27242391.36509 -21227818.23309  20217570.19309  20217571.10809
    649117.32707    505820.66608  25354449.94907  25354452.25008
  -6967054.38508  -5428870.08508  22205923.67708  22205924.29508
  -4181642.34508  -3258419.60508  24432682.01508  24432685.30308
 -13360897.64308 -10411082.26208  22889337.38708  22889339.12208
 -14352508.48608 -11183761.21408  22490702.43808  22490704.22208
 93 07 24 06 57 00.0000000  0  8 29 13 14 01 25 18 07 15
 -20742793.74408 -16163199.46308  21343928.82108  21343929.18408
 -12908208.72208 -10058338.22608  22266971.55508  22266973.85408
 -27269648.85109 -21249057.86909  20212383.32009  20212384.20109
    865718.91507    674601.24808  25395667.84007  25395670.05908
  -6967608.82508  -5429302.08408  22205818.17108  22205818.80408
  -4410837.24908  -3437012.83808  24389067.50508  24389070.76708
 -13275329.01308 -10344405.48708  22905620.47408  22905622.37108
 -14142042.27108 -11019761.67608  22530752.93108  22530754.74008
 93 07 24 06 58 00.0000000  0  8 29 13 14 01 25 18 07 15
 -20876260.33408 -16267199.34108  21318530.92208  21318531.28108
 -13024224.97208 -10148740.45708  22244894.36508  22244896.69308
 -27295160.64709 -21268937.15009  20207528.59409  20207529.45209
   1082518.70808    843536.29808  25436923.41608  25436925.41608
  -6965699.35908  -5427814.16808  22206181.43608  22206182.08508
  -4639543.66508  -3615225.42308  24345546.08208  24345549.19008
 -13187558.88308 -10276013.26408  22922322.76208  22922324.64408
 -13930417.02508 -10854858.98508  22571023.93608  22571025.73108
 93 07 24 06 59 00.0000000  0  8 29 13 14 01 25 18 07 15
 -21008202.63308 -16370011.45008  21293423.07208  21293423.42408
 -13137787.41608 -10237230.62908  22223284.15708  22223286.42608
 -27319086.47309 -21287580.60609  20202975.57709  20202976.44809
   1299495.54608   1012609.29708  25478212.60008  25478214.68508
  -6961433.30208  -5424489.95708  22206993.25908  22206993.85808
  -4867825.87908  -3793107.51108  24302105.24208  24302108.35108
 -13097577.15708 -10205897.70108  22939445.79908  22939447.71208
 -13717694.65008 -10689101.39408  22611503.80208  22611505.58108
 93 07 24 07 00 00.0000000  0  8 29 13 14 01 25 18 07 15
 -21138543.99408 -16471576.07508  21268619.88808  21268620.18808
 -13248850.61208 -10323773.33608  22202149.54208  22202151.71008
 -27341387.51909 -21304957.89909  20198731.72209  20198732.55309
   1516633.59908   1181807.96008  25519532.57408  25519534.51208
  -6954736.36308  -5419271.55608  22208267.66108  22208268.24108
  -5095732.56108  -3970696.97008  24258735.85108  24258738.91808
 -13005409.29108 -10134078.65408  22956984.90108  22956986.69208
 -13503865.98208 -10522481.73508  22652194.05608  22652195.84508
 93 07 24 07 01 00.0000000  0  8 29 13 25 14 01 18 07 15
 -21267210.83308 -16571835.90308  21244135.38408  21244135.67208
 -13357336.04608 -10408307.39108  22181505.35608  22181507.57008
  -6945478.56208  -5412057.67008  22210029.34408  22210029.98908
 -27361848.36909 -21320901.39609  20194838.10909  20194838.94209
   1733965.36508   1351157.57408  25560889.26408  25560891.13408
  -5323151.93308  -4147906.71208  24215459.28908  24215462.21208
 -12911095.86608 -10060587.75408  22974932.18408  22974933.99508
 -13288889.12808 -10354967.38008  22693102.84008  22693104.67108
 93 07 24 07 02 00.0000000  0  8 29 13 25 14 01 18 07 15
 -21394214.80409 -16670799.98808  21219967.31409  21219967.60208
 -13463261.73808 -10490846.83808  22161348.31908  22161350.55908
  -6933700.69208  -5402880.09208  22212270.58008  22212271.22408
 -27380375.62609 -21335338.25609  20191312.55209  20191313.36809
   1951407.91008   1520593.57508  25602266.95708  25602268.79308
  -5549995.83708  -4324668.01808  24172292.02708  24172295.11008
 -12814690.39708  -9985466.69708  22993277.50908  22993279.32108
 -13072820.89408 -10186602.59408  22734219.35508  22734221.08908
 93 07 24 07 03 00.0000000  0  8 29 13 25 14 01 18 07 15
 -21519525.50309 -16768444.63108  21196121.40509  21196121.65008
 -13566638.52408 -10571400.11708  22141676.35808  22141678.58908
  -6919443.19608  -5391770.34108  22214983.72408  22214984.28208
 -27397000.65609 -21348292.90209  20188148.94309  20188149.81009
   2168921.05708   1690084.55708  25643658.17808  25643659.97708
  -5776278.65908  -4500992.15108  24129231.86508  24129234.75808
 -12716181.04908  -9908706.25108  23012023.31608  23012025.19408
 -12855709.20208 -10017424.73108  22775534.44108  22775536.17208
 93 07 24 07 04 00.0000000  0  8 29 13 25 18 14 01 07 15
 -21643133.73509 -16864762.68608  21172599.57709  21172599.81108
 -13667514.97108 -10650005.08208  22122480.15308  22122482.32408
  -6902742.86308  -5378757.08408  22218161.63108  22218162.19308
  -6002155.40808  -4676999.85208  24086248.92908  24086251.78808
 -27411891.43209 -21359896.09109  20185315.32709  20185316.18809
   2386454.38608   1859591.33008  25685053.05908  25685054.83008
 -12615575.01308  -9830312.00808  23031167.99208  23031169.96608
 -12637637.40008  -9847498.75108  22817032.23108  22817034.00408
 93 07 24 07 05 00.0000000  0  8 29 13 25 18 14 01 07 15
 -21765017.10909 -16959736.68908  21149405.90309  21149406.12608
 -13765832.73708 -10726616.27008  22103770.88508  22103773.01508
  -6883580.26808  -5363825.18408  22221808.12408  22221808.75108
  -6227582.68108  -4852657.30608  24043351.35508  24043354.24808
 -27425115.96209 -21370200.84109  20182798.65309  20182799.46709
   2604030.71708   2029131.62007  25726456.26508  25726458.01107
 -12512853.32808  -9750269.20708  23050715.22008  23050717.24708
 -12418583.67008  -9676807.64808  22858716.83708  22858718.70008
 93 07 24 07 06 00.0000000  0  8 29 13 25 18 14 01 07 15
 -21885241.08309 -17053417.65409  21126527.99009  21126528.21109
 -13861569.94708 -10801216.64008  22085552.62208  22085554.70808
  -6862057.03208  -5347053.83308  22225903.75808  22225904.47008
  -6452451.50708  -5027879.57308  24000560.01108  24000562.81608
 -27436657.48709 -21379194.18309  20180602.42009  20180603.20409
   2821644.04808   2198700.71807  25767866.59408  25767868.17607
 -12408117.91408  -9668657.25108  23070645.87808  23070647.87508
 -12198561.68208  -9505362.05208  22900585.68208  22900587.58108
 93 07 24 07 07 00.0000000  0  8 29 13 25 18 14 01 07 15
 -22003853.10309 -17145842.55509  21103956.84109  21103957.04309
 -13954677.73708 -10873768.12308  22067834.72908  22067836.90708
  -6838217.64008  -5328477.68608  22230440.27408  22230440.96308
  -6676708.30108  -5202624.88308  23957885.20508  23957888.00708
 -27446416.01309 -21386798.20909  20178745.45009  20178746.21509
   3039283.46708   2368290.06607  25809281.90608  25809283.52007
 -12301442.65808  -9585533.71008  23090945.54008  23090947.53508
 -11977558.56508  -9333151.95808  22942641.25908  22942643.21808
 93 07 24 07 08 00.0000000  0  8 29 13 25 18 07 14 01 15
 -22120848.92809 -17237008.12409  21081693.26209  21081693.44809
 -14045132.90208 -10944252.61608  22050621.65208  22050623.87808
  -6811937.65608  -5307999.78408  22235441.23408  22235441.84708
  -6900417.18008  -5376943.23608  23915314.65108  23915317.36008
 -12192844.03608  -9500911.43208  23111611.15608  23111613.10108
 -27454385.89809 -21393008.51709  20177228.85809  20177229.63909
   3256924.48908   2537880.54207  25850697.40608  25850699.17307
 -11755585.18808  -9160185.78308  22984881.45908  22984883.45808
 93 07 24 07 09 00.0000000  0  7 29 13 25 18 14 07 15
 -22236142.76109 -17326847.45309  21059753.57009  21059753.71509
 -14132864.85608 -11012615.13108  22033926.80908  22033928.97108
  -6783069.56408  -5285505.17108  22240934.70608  22240935.28008
  -7123553.62808  -5550815.53408  23872852.86408  23872855.58408
 -27460545.43709 -21397808.18009  20176056.65809  20176057.45009
 -12082198.58608  -9414694.21608  23132666.33508  23132668.27308
 -11532606.81708  -8986436.50608  23027312.88808  23027314.92608
 93 07 24 07 10 00.0000000  0  7 29 13 25 14 18 07 15
 -22349664.46409 -17415305.88109  21038151.04509  21038151.20209
 -14217906.63508 -11078881.41608  22017743.83408  22017745.99508
  -6751710.75708  -5261069.72908  22246902.08108  22246902.64108
 -27464925.95109 -21401221.54109  20175223.09009  20175223.85509
  -7346139.05408  -5724258.46608  23830495.95508  23830498.76008
 -11969473.16508  -9326856.24708  23154117.42408  23154119.30008
 -11308690.50808  -8811956.34908  23069922.83208  23069924.83908
 93 07 24 07 11 00.0000000  0  8 29 13 20 14 25 18 07 15
 -22461367.48009 -17502347.17209  21016894.65509  21016894.80609
 -14300252.32808 -11143046.85608  22002073.89408  22002076.07208
        -0.64618        -0.76917  24690077.48818  24690079.82817
 -27467481.35609 -21403212.78709  20174736.87009  20174737.62409
  -6717897.94208  -5234722.08008  22253336.49408  22253337.04608
  -7568176.47408  -5897274.35608  23788243.62008  23788246.17208
 -11854658.00208  -9237389.90008  23175965.89608  23175967.80608
 -11083863.67808  -8636766.69108  23112706.03608  23112708.01608
 93 07 24 07 12 00.0000000  0  8 29 13 20 14 25 18 07 15
 -22571282.28809 -17587995.05709  20995978.55509  20995978.71209
 -14379912.36908 -11205119.58208  21986915.07408  21986917.24108
    -21289.77208    -16589.63407  24686026.24408  24686028.63807
 -27468213.44209 -21403783.17809  20174597.48409  20174598.24609
  -6681668.91408  -5206491.67608  22260230.43208  22260231.04908
  -7789617.75908  -6069825.73808  23746104.47408  23746107.06908
 -11737859.21208  -9146377.87908  23198191.95308  23198193.89708
 -10858169.84808  -8460901.45708  23155654.08808  23155656.22108
 93 07 24 07 13 00.0000000  0  8 13 20 14 29 25 18 07 15
 -14456892.68508 -11265104.21208  21972266.23108  21972268.32208
    -40256.48508    -31368.83507  24682416.99508  24682419.40807
 -27467127.75609 -21402937.28109  20174804.09409  20174804.90609
 -22679589.20709 -17672390.02009  20975368.37209  20975368.51009
  -6643061.96108  -5176408.33008  22267577.22308  22267577.88808
  -8010333.95808  -6241812.11108  23704103.35708  23704105.86408
 -11619231.98908  -9053941.11208  23220766.00708  23220767.97808
 -10631649.23608  -8284391.95908  23198759.54108  23198761.78108
 93 07 24 07 14 00.0000000  0  8 13 20 14 29 25 18 07 15
 -14531151.98408 -11322968.57208  21958135.09908  21958137.28208
    -56868.86508    -44313.50607  24679255.67408  24679258.07507
 -27464229.14709 -21400678.54509  20175355.60909  20175356.41609
 -22786375.17809 -17755599.81109  20955047.67009  20955047.81509
  -6602062.72808  -5144460.87908  22275379.18408  22275379.80908
  -8230229.85808  -6413159.33908  23662258.46608  23662260.84308
 -11498799.59108  -8960097.74008  23243683.52808  23243685.54608
 -10404292.61508  -8107231.04808  23242024.19108  23242026.43408
 93 07 24 07 15 00.0000000  0  8 13 20 14 29 25 18 07 15
 -14602643.45008 -11378676.17808  21944530.66608  21944532.89108
    -71089.98908    -55394.82707  24676549.51208  24676551.85307
 -27459540.31609 -21397024.94109  20176247.90809  20176248.69609
 -22891490.10309 -17837507.48509  20935044.92709  20935045.07309
  -6558579.08408  -5110577.53508  22283653.85208  22283654.51208
  -8449412.91608  -6583951.05108  23620549.14508  23620551.42708
 -11376497.95008  -8864797.81608  23266956.90508  23266958.89608
 -10176085.35908  -7929407.31108  23285450.70208  23285452.79108
 93 07 24 07 16 00.0000000  0  8 13 20 25 14 29 18 07 15
 -14671386.85008 -11432242.44008  21931449.28908  21931451.46808
    -82949.69308    -64636.07607  24674292.54008  24674294.88907
  -6512607.27508  -5074755.35208  22292401.96608  22292402.59308
 -27453110.19909 -21392014.41509  20177471.49909  20177472.26709
 -22994727.59309 -17917952.23509  20915399.40209  20915399.56809
  -8668116.05108  -6754368.83508  23578931.13108  23578933.37808
 -11252300.49108  -8768020.63008  23290590.92808  23290593.01008
  -9947080.07208  -7750961.73008  23329029.10408  23329031.09208
 93 07 24 07 17 00.0000000  0  8 13 20 25 14 29 18 07 15
 -14737372.30008 -11483659.64808  21918892.58908  21918894.82508
    -92446.55808    -72036.16607  24672485.33208  24672487.63307
  -6464204.69908  -5037039.07108  22301612.75408  22301613.35108
 -27444896.22509 -21385613.86109  20179034.56309  20179035.36409
 -23096014.32509 -17996876.92009  20896125.15009  20896125.32709
  -8886295.15208  -6924378.31408  23537412.85408  23537414.98108
 -11126200.16808  -8669760.70108  23314587.01408  23314589.02908
  -9717297.08008  -7571910.12808  23372755.37408  23372757.46308
 93 07 24 07 18 00.0000000  0  8 13 20 25 14 29 18 07 15
 -14800568.83508 -11532903.67808  21906866.67808  21906868.92608
    -99559.25007    -77578.46507  24671131.82407  24671134.11607
  -6413431.98908  -4997475.93708  22311274.45608  22311275.03108
 -27434888.58109 -21377815.70509  20180938.96909  20180939.77809
 -23195481.46909 -18074383.75609  20877197.13109  20877197.31009
  -9103737.79608  -7093813.96208  23496034.85008  23496036.90108
 -10998255.19608  -8570063.39008  23338934.23908  23338936.28808
  -9486737.29208  -7392253.23108  23416629.52208  23416631.57308
 93 07 24 07 19 00.0000000  0  8 13 20 25 14 29 18 07 15
 -14860996.38708 -11579990.05608  21895367.67008  21895369.88008
   -104316.07407    -81285.06607  24670226.51607  24670228.87207
  -6360321.62808  -4956091.26008  22321381.03408  22321381.58308
 -27423157.17709 -21368674.34409  20183171.30009  20183172.09009
 -23293307.14009 -18150611.52009  20858581.53409  20858581.66309
  -9320356.21508  -7262607.39708  23454813.58408  23454815.62208
 -10868605.19708  -8469037.46508  23363605.83308  23363607.95208
  -9255450.29408  -7212029.67208  23460642.12908  23460644.11508
 93 07 24 07 20 00.0000000  0  8 13 20 25 14 29 18 07 15
 -14918604.57808 -11624879.53808  21884405.21808  21884407.34508
   -106676.73707    -83124.53907  24669777.38607  24669779.70907
  -6304835.42408  -4912855.28908  22331939.76908  22331940.27108
 -27409650.67809 -21358149.79409  20185741.53309  20185742.31209
 -23389405.97309 -18225493.69709  20840294.56909  20840294.68509
  -9536159.39908  -7430765.55508  23413747.45808  23413749.39808
 -10737260.20408  -8366690.76308  23388599.89108  23388602.11408
  -9023417.05508  -7031224.62008  23504796.55108  23504798.68908
 93 07 24 07 21 00.0000000  0  8 13 20 25 14 29 18 07 15
 -14973380.17708 -11667561.81308  21873981.73308  21873983.89008
   -106636.69507    -83093.30107  24669784.94807  24669787.20807
  -6246981.64108  -4867774.44708  22342949.00308  22342949.53408
 -27394310.16209 -21346196.15609  20188660.68909  20188661.49709
 -23483722.79409 -18298987.30009  20822346.56109  20822346.68809
  -9751216.79508  -7598342.53808  23372823.24108  23372825.08108
 -10604126.68708  -8262950.41708  23413934.46308  23413936.66908
  -8790652.99708  -6849850.10808  23549090.26008  23549092.44408
 93 07 24 07 22 00.0000000  0  8 13 20 25 14 29 18 07 15
 -15025323.00908 -11708036.74508  21864097.35108  21864099.43808
   -104205.03107    -81198.42307  24670247.70407  24670249.93907
  -6186760.44608  -4820848.87808  22354408.76208  22354409.27408
 -27377122.91209 -21332803.51409  20191931.35109  20191932.17309
 -23576306.95009 -18371130.76109  20804728.40309  20804728.52909
  -9965547.85208  -7765353.53308  23332037.17108  23332039.07408
 -10469120.42608  -8157750.78108  23439625.29608  23439627.56508
  -8557188.04408  -6667929.41808  23593517.27108  23593519.32908
 93 07 24 07 23 00.0000000  0  8 13 20 25 14 29 18 07 15
 -15074449.10308 -11746316.81408  21854748.97108  21854751.08008
    -99407.69407    -77460.19208  24671160.49207  24671162.79108
  -6124193.29408  -4772095.28408  22366314.87108  22366315.42108
 -27358110.18609 -21317988.45609  20195549.50009  20195550.35209
 -23667191.96309 -18441950.25809  20787433.58109  20787433.69409
 -10179147.79608  -7931794.87708  23291390.25208  23291392.23308
 -10332347.26408  -8051174.34308  23465652.46508  23465654.65508
  -8323066.95108  -6485497.44508  23638068.93108  23638071.07708
 93 07 24 07 24 00.0000000  0  8 13 20 25 14 29 18 07 15
 -15120725.22708 -11782376.12608  21845942.91108  21845944.97308
    -92220.46507    -71859.75708  24672528.16607  24672530.50708
  -6059226.92708  -4721472.16708  22378677.61708  22378678.17308
 -27337260.28009 -21301741.85409  20199517.10409  20199517.95409
 -23756235.72509 -18511335.01509  20770489.15009  20770489.21909
 -10391948.50508  -8097613.44208  23250895.51608  23250897.45208
 -10193933.57808  -7943319.57708  23491991.81608  23491993.93408
  -8088284.74308  -6302550.33408  23682746.44908  23682748.73808
 93 07 24 07 25 00.0000000  0  8 13 20 25 14 29 18 07 15
 -15164128.05408 -11816196.50408  21837683.58308  21837685.70208
    -82628.07707    -64385.16008  24674353.53707  24674355.82608
  -5991838.77308  -4668961.93208  22391501.13908  22391501.71808
 -27314583.51309 -21284071.67109  20203832.31609  20203833.14709
 -23843334.71109 -18579204.36109  20753914.77909  20753914.80709
 -10603853.34008  -8262733.93008  23210571.31408  23210573.15508
 -10053889.51808  -7834194.39208  23518641.35308  23518643.51608
  -7852845.20308  -6119091.02108  23727549.17308  23727551.46608
 93 07 24 07 26 00.0000000  0  8 13 20 25 14 29 18 07 15
 -15204708.60308 -11847817.69708  21829961.33508  21829963.50308
    -70690.67708    -55083.33108  24676625.12708  24676627.48408
  -5922171.97108  -4614676.12908  22404758.27708  22404758.90308
 -27290157.35609 -21265038.24109  20208480.47009  20208481.28309
 -23928610.45609 -18645653.00209  20737687.36709  20737687.41409
 -10814950.18908  -8427224.83008  23170400.72208  23170402.62108
  -9912223.94708  -7723805.71708  23545599.46408  23545601.66608
  -7616827.41408  -5935181.14308  23772461.89808  23772464.30408
 93 07 24 07 27 00.0000000  0  8 13 20 25 14 29 18 07 15
 -15242459.16308 -11877233.69308  21822777.64508  21822779.77308
    -56408.03008    -43953.99708  24679343.08708  24679345.31708
  -5850300.25508  -4558672.21508  22418435.09008  22418435.69708
 -27263975.61209 -21244636.83409  20213462.62609  20213463.44809
 -24012153.43909 -18710751.41709  20721789.62009  20721789.69109
 -11025321.74008  -8591150.58208  23130368.28408  23130370.10608
  -9768955.66908  -7612168.16708  23572862.53308  23572864.71408
  -7380249.23608  -5750834.63208  23817481.27908  23817483.73708
 93 07 24 07 28 00.0000000  0  8 13 20 25 14 29 18 07 15
 -15277306.09308 -11904387.11008  21816146.49608  21816148.56808
    -39717.10008    -30948.05708  24682519.22808  24682521.57708
  -5776163.05308  -4500902.99508  22432542.90808  22432543.56008
 -27235943.37409 -21222793.45909  20218796.93209  20218797.73209
 -24093865.57109 -18774423.10309  20706240.20809  20706240.24509
 -11234915.57708  -8754470.28708  23090483.73308  23090485.54908
  -9624086.93108  -7499283.51908  23600430.14808  23600432.53708
  -7143064.94808  -5566015.84208  23862616.14408  23862618.47508
 93 07 24 07 29 00.0000000  0  8 13 20 25 14 29 18 07 15
 -15309233.74008 -11929265.76008  21810070.81308  21810072.94508
    -20610.29507    -16059.57908  24686155.08307  24686157.43208
  -5699688.47308  -4441312.45008  22447095.56008  22447096.19508
 -27206001.64109 -21199462.17409  20224494.64009  20224495.40009
 -24173742.65109 -18836664.83609  20691040.06009  20691040.06409
 -11443598.13508  -8917079.94308  23050772.69208  23050774.49408
  -9477615.47708  -7385149.98408  23628302.80808  23628305.18808
  -6905284.46308  -5380732.47608  23907864.24708  23907866.81308
 93 07 24 07 30 00.0000000  0  8 13 20 25 14 29 18 07 15
 -15338281.75008 -11951900.53508  21804543.16008  21804545.29508
       864.59407       674.12008  24690241.61707  24690243.94808
  -5620835.45608  -4379868.58708  22462100.82508  22462101.49608
 -27174212.64009 -21174691.46609  20230543.84409  20230544.57809
 -24251813.81409 -18897499.35609  20676183.47209  20676183.44109
 -11651342.94708  -9078958.90308  23011240.05008  23011241.80408
  -9329580.11408  -7269797.81408  23656473.05608  23656475.43408
  -6666971.62208  -5195034.27808  23953213.79408  23953216.29608
 93 07 24 07 31 00.0000000  0  8 13 20 25 14 29 18 07 15
 -15364444.64908 -11972287.17008  21799564.48308  21799566.56608
     24706.14707     19251.97207  24694778.48207  24694780.86007
  -5539631.31808  -4316592.66608  22477553.41108  22477554.09308
 -27140671.59709 -21148555.53809  20236926.38709  20236927.14509
 -24328032.13509 -18956890.30409  20661679.58709  20661679.59609
 -11858243.85808  -9240180.27908  22971867.94808  22971869.70608
  -9180012.50808  -7153251.69508  23684934.80908  23684937.23708
  -6428145.48008  -5008936.08108  23998661.04008  23998663.52608
 93 07 24 07 32 00.0000000  0  8 13 20 25 14 29 18 07 15
 -15387732.78108 -11990433.73508  21795132.87208  21795134.94608
     50894.02007     39658.06707  24699761.94007  24699764.22207
  -5456200.07808  -4251581.34008  22493429.90908  22493430.61808
 -27105478.20109 -21121132.06909  20243623.47809  20243624.21409
 -24402409.67109 -19014846.92309  20647526.11509  20647526.14209
 -12064412.11908  -9400830.76508  22932635.45208  22932637.13508
  -9028988.09608  -7035570.40208  23713673.82108  23713676.26908
  -6188841.68208  -4822465.71408  24044199.09408  24044201.61508
 93 07 24 07 33 00.0000000  0  8 13 20 25 14 29 18 07 15
 -15408119.68408 -12006319.60408  21791253.33808  21791255.45608
     79446.92907     61907.13207  24705195.28007  24705197.64807
  -5370579.89408  -4184864.33608  22509722.87808  22509723.54308
 -27068539.36409 -21092348.53309  20250652.67309  20250653.44109
 -24474983.87209 -19071398.31109  20633715.69509  20633715.76209
 -12269697.51308  -9560793.28608  22893570.88508  22893572.47408
  -8876508.59908  -6916755.27908  23742689.79308  23742692.29408
  -5949058.25608  -4635621.59708  24089828.40408  24089831.04108
 93 07 24 07 34 00.0000000  0  8 13 20 25 14 29 18 07 15
 -15425550.65108 -12019902.15508  21787936.35708  21787938.40808
    110411.34607     86035.23907  24711087.61807  24711089.94207
  -5282678.66908  -4116369.89008  22526449.96508  22526450.56608
 -27029651.07809 -21062046.00109  20258052.92909  20258053.70709
 -24545709.02109 -19126508.82709  20620257.25309  20620257.32109
 -12473834.52808  -9719860.99408  22854724.79908  22854726.42408
  -8722530.90108  -6796772.73508  23771990.65808  23771993.24408
  -5708762.62208  -4448378.34008  24135555.21808  24135557.81008
 93 07 24 07 35 00.0000000  0  8 13 20 25 14 29 18 07 15
 -15440059.04908 -12031207.38208  21785175.48808  21785177.49908
    143746.85507    112010.94107  24717431.22607  24717433.54907
  -5192479.25708  -4046084.65008  22543614.36108  22543614.98808
 -26988847.76509 -21030251.22409  20265817.49909  20265818.26709
 -24614562.17309 -19180160.60609  20607154.82809  20607154.88609
 -12676907.41908  -9878099.46108  22816081.21408  22816082.73908
  -8567050.80508  -6675619.49808  23801577.60408  23801580.20408
  -5468010.05908  -4260778.99008  24181369.00308  24181371.57408
 93 07 24 07 36 00.0000000  0  8 13 20 25 14 29 18 07 15
 -15451697.50808 -12040276.29508  21782960.73608  21782962.78408
    179393.22807    139787.31907  24724214.41407  24724216.76907
  -5100083.36908  -3974087.85408  22561196.69708  22561197.31708
 -26946294.35909 -20997092.72409  20273915.11709  20273915.86309
 -24681568.72309 -19232373.47309  20594403.88809  20594403.96409
 -12879143.85008 -10035686.16008  22777596.90008  22777598.32608
  -8410102.19008  -6553321.95608  23831444.09208  23831446.56008
  -5226875.38108  -4072881.84308  24227255.33608  24227257.97808
 93 07 24 07 37 00.0000000  0  8 13 20 25 14 29 18 07 15
 -15460433.50908 -12047083.55908  21781298.34108  21781300.41308
    217374.82507    169383.32607  24731442.19607  24731444.47507
  -5005493.98608  -3900381.84708  22579196.50108  22579197.11008
 -26902025.30909 -20962597.36209  20282339.25309  20282339.96409
 -24746749.54409 -19283163.69609  20582000.37109  20582000.40409
 -13080579.73808 -10192649.06908  22739264.86408  22739266.25408
  -8251683.80108  -6429879.13208  23861590.16608  23861592.65708
  -4985348.05908  -3884678.79108  24273216.58008  24273219.19408
 93 07 24 07 38 00.0000000  0  8 13 20 25 14 29 18 07 15
 -15466279.82608 -12051639.12308  21780185.77108  21780187.88308
    257672.31907    200784.03207  24739110.49707  24739112.88707
  -4908721.13408  -3824974.44508  22597611.71708  22597612.42408
 -26856044.37309 -20926768.10909  20291089.21609  20291089.92209
 -24810206.97709 -19332611.04509  20569924.83909  20569924.83409
 -13281136.33508 -10348926.79908  22701100.07708  22701101.44008
  -8091935.54808  -6305400.06008  23891989.32808  23891991.81108
  -4743461.41508  -3696195.73908  24319246.15208  24319248.78008
 93 07 24 07 39 00.0000000  0  8 13 20 25 14 29 18 07 15
 -15469162.41708 -12053885.29808  21779637.23108  21779639.33408
    300352.10007    234041.05507  24747232.23507  24747234.44207
  -4809766.25808  -3747866.74608  22616442.21408  22616442.89808
 -26808191.62709 -20889480.23409  20300195.29309  20300196.00109
 -24871862.87309 -19380654.58809  20558192.11709  20558192.11209
 -13480676.02508 -10504412.15308  22663128.76608  22663130.14808
  -7930888.24908  -6179908.75008  23922635.69608  23922638.09908
  -4501161.85908  -3507390.97808  24365354.23108  24365356.97408
 93 07 24 07 40 00.0000000  0  8 13 20 25 14 29 18 07 15
 -15469088.13808 -12053827.42108  21779651.38208  21779653.44308
    345398.88307    269142.47307  24755804.27707  24755806.55807
  -4708671.68208  -3669091.75608  22635679.91108  22635680.58508
 -26758436.53709 -20850710.08909  20309663.36309  20309664.09009
 -24931610.45509 -19427210.92809  20546822.38209  20546822.32709
 -13679168.56508 -10659081.53308  22625356.78108  22625358.14508
  -7768527.38608  -6053393.89508  23953532.10808  23953534.41608
  -4258476.70207  -3318285.72808  24411535.56307  24411538.45208
 93 07 24 07 41 00.0000000  0  8 13 20 25 18 14 29 07 15
 -15466075.78808 -12051480.14808  21780224.64408  21780226.66508
    392787.51807    306068.63407  24764822.03307  24764824.30707
  -4605445.75808  -3588655.99608  22655323.12508  22655323.82008
 -13876553.91508 -10812888.19208  22587795.48008  22587796.84408
 -26706824.43609 -20810492.88909  20319484.82909  20319485.57809
 -24989459.69209 -19472287.97509  20535813.77809  20535813.71009
  -7604854.11908  -5925856.38508  23984678.18508  23984680.50008
  -4015443.91807  -3128909.62008  24457783.25207  24457786.13108
 93 07 24 07 42 00.0000000  0  8 13 20 25 18 14 29 07 15
 -15460142.04108 -12046856.46608  21781353.77708  21781355.85508
    442494.14006    344801.10607  24774280.81006  24774283.16007
  -4500072.16208  -3506546.74608  22675375.14008  22675375.79008
 -14072850.27408 -10965846.28908  22550441.45008  22550442.89508
 -26653436.52709 -20768891.94109  20329644.21509  20329645.00509
 -25045478.66209 -19515939.09809  20525153.73109  20525153.66809
  -7439917.48708  -5797334.43408  24016064.63708  24016066.96608
  -3772099.76007  -2939290.88408  24504090.08407  24504093.09008
 93 07 24 07 43 00.0000000  0  7 13 25 18 07 14 29 15
 -15451329.08208 -12039989.24108  21783030.79908  21783032.90308
  -4392567.94008  -3422777.26208  22695832.57808  22695833.24108
 -14268131.02008 -11118012.99008  22513280.68808  22513282.15508
  -7273795.72008  -5667888.98408  24047676.64808  24047678.95208
 -26598377.31509 -20725988.66409  20340121.62409  20340122.44209
 -25099749.95409 -19558228.57709  20514826.36609  20514826.34609
  -3528503.55907  -2749475.73608  24550444.97107  24550447.92908
 93 07 24 07 44 00.0000000  0  8 13 25 24 18 14 29 07 15
 -15439577.93708 -12030832.51908  21785267.01108  21785269.03308
  -4282861.63808  -3337291.85208  22716708.98408  22716709.61408
        -0.38218        -0.75718  25496021.78818  25496025.23218
 -14462345.37608 -11269348.73708  22476322.90808  22476324.29608
 -26541581.05709 -20681731.82309  20350929.51009  20350930.34209
 -25152145.55409 -19599056.36309  20504855.85709  20504855.80809
  -7106438.66208  -5537480.96808  24079523.57808  24079525.99208
  -3284613.50808  -2559431.58708  24596855.73508  24596858.71808
 93 07 24 07 45 00.0000000  0  8 13 25 24 14 29 18 07 15
 -15424911.50808 -12019404.13608  21788057.90408  21788059.96908
  -4171047.35108  -3250163.86608  22737986.47508  22737987.10408
   -216295.12008   -168541.97408  25454862.17708  25454865.64208
 -26482992.50909 -20636078.38409  20362078.58109  20362079.41509
 -25202578.89709 -19638354.87209  20495258.53009  20495258.44109
 -14655522.68808 -11419876.40708  22439562.44908  22439563.75308
  -6937886.95408  -5406142.05508  24111598.01508  24111600.57208
  -3040470.37408  -2369190.22408  24643314.72108  24643317.57508
 93 07 24 07 46 00.0000000  0  8 13 25 24 14 29 18 07 15
 -15407331.61208 -12005705.50808  21791403.20508  21791405.31308
  -4057209.01608  -3161458.70308  22759649.12208  22759649.85908
   -432156.71608   -336745.67608  25413784.92208  25413788.36708
 -26422588.42209 -20589010.21009  20373573.02009  20373573.86409
 -25251006.72509 -19676090.73809  20486042.93509  20486042.83009
 -14847682.00008 -11569610.83708  22402995.69708  22402996.97708
  -6768178.59808  -5273901.86708  24143892.57808  24143895.11208
  -2796091.70108  -2178765.32708  24689818.59108  24689821.32408
 93 07 24 07 47 00.0000000  0  8 13 24 25 14 29 18 07 15
 -15386851.97008 -11989747.32408  21795300.35708  21795302.46408
   -647590.15008   -504615.70908  25372789.27008  25372792.60108
  -3941360.57708  -3071187.22108  22781694.38908  22781695.12008
 -26360385.84209 -20540540.69209  20385409.80509  20385410.60809
 -25297555.68809 -19712362.66709  20477184.97409  20477184.88109
 -15038816.35608 -11718546.58208  22366623.88908  22366625.12808
  -6597375.73008  -5140808.80808  24176395.37508  24176397.92108
  -2551506.23108  -1988179.25308  24736361.51508  24736364.32508
 93 07 24 07 48 00.0000000  0  8 13 25 24 14 29 18 07 15
 -15363453.71308 -11971514.88108  21799752.91908  21799754.92608
  -3823481.63208  -2979333.50308  22804126.12308  22804126.90908
   -862520.28208   -672093.54908  25331889.23208  25331892.53808
 -26296371.40209 -20490659.35309  20397591.39409  20397592.21609
 -25342340.83509 -19747260.21609  20468662.72909  20468662.62909
 -15228854.32008 -11866628.00108  22330460.77708  22330461.96208
  -6425422.32708  -5006819.24308  24209117.08908  24209119.76408
  -2306712.71908  -1797431.07308  24782944.26608  24782946.90808
 93 07 24 07 49 00.0000000  0  8 13 25 24 14 29 18 07 15
 -15337138.07708 -11951009.15608  21804760.61708  21804762.59408
  -3703571.65808  -2885897.18608  22826944.23608  22826945.06108
  -1076820.15907   -839080.27108  25291109.17407  25291112.49208
 -26230513.39009 -20439341.40809  20410123.67309  20410124.51009
 -25385342.44609 -19780768.12909  20460479.90509  20460479.83209
 -15417775.24908 -12013839.01808  22294510.30408  22294511.41808
  -6252254.38908  -4871883.29108  24242069.89708  24242072.73608
  -2061725.97808  -1606532.31107  24829563.73408  24829566.31507
 93 07 24 07 50 00.0000000  0  8 13 25 24 14 29 18 07 15
 -15307914.32208 -11928237.36308  21810321.64208  21810323.67408
  -3581664.41508  -2790904.53008  22850142.38208  22850143.21408
  -1290406.45807  -1005510.96208  25250464.74207  25250468.17408
 -26162849.67709 -20386616.41109  20422999.66509  20423000.50709
 -25426497.34809 -19812837.06009  20452648.49209  20452648.46309
 -15605529.94308 -12160141.28908  22258781.57108  22258782.66308
  -6077947.13708  -4736059.56708  24275239.52308  24275242.27808
  -1816569.34208  -1415501.17807  24876215.54908  24876218.21507
 93 07 24 07 51 00.0000000  0  8 13 25 24 14 29 18 07 15
 -15275812.84008 -11903223.19508  21816430.36108  21816432.33308
  -3457779.66208  -2694370.96208  22873717.00108  22873717.76808
  -1503292.56507  -1171396.08707  25209953.58807  25209957.23107
 -26093471.42509 -20332555.43009  20436201.89109  20436202.70509
 -25465811.47209 -19843471.37809  20445167.22009  20445167.16909
 -15792131.72508 -12305545.18408  22223272.32008  22223273.45108
  -5902665.99208  -4599476.97108  24308594.52008  24308597.40508
  -1571287.36708  -1224372.34207  24922891.16208  24922893.62107
 93 07 24 07 52 00.0000000  0  8 13 25 24 14 29 18 07 15
 -15240831.22708 -11875964.77708  21823087.18708  21823089.12608
  -3331832.14308  -2596230.02708  22897684.01108  22897684.73508
  -1715548.77607  -1336790.40807  25169562.44207  25169566.11607
 -26022414.29509 -20277186.22809  20449723.58909  20449724.41509
 -25503278.13009 -19872666.09609  20438037.49909  20438037.43409
 -15977573.74908 -12450045.36608  22187983.89108  22187985.09108
  -5726448.16508  -4462164.49908  24342127.69908  24342130.55208
  -1325889.43008  -1033153.12807  24969588.81208  24969591.33407
 93 07 24 07 53 00.0000000  0  8 13 25 18 24 14 29 07 15
 -15202973.79908 -11846465.46308  21830291.18808  21830293.12108
  -3203858.18708  -2496510.04908  22922036.58008  22922037.33108
 -16161850.80208 -12593637.78508  22152917.04208  22152918.19108
  -1927267.97407  -1501766.29207  25129273.82807  25129277.29307
 -25949651.40809 -20220487.87209  20463569.89709  20463570.71409
 -25538892.37309 -19900417.49109  20431260.32409  20431260.29909
  -5549215.73408  -4324061.42208  24375853.83608  24375856.81108
  -1080393.09407   -841857.26507  25016305.15007  25016307.86507
 93 07 24 07 54 00.0000000  0  8 13 25 18 24 14 29 07 15
 -15162190.57308 -11814686.31608  21838051.95208  21838053.90708
  -3073926.42408  -2395264.51408  22946761.76608  22946762.49008
 -16344949.71408 -12736312.18808  22118074.44108  22118075.53108
  -2138352.28908  -1666247.48907  25089105.71208  25089108.79507
 -25875094.05909 -20162391.22609  20477757.71809  20477758.53809
 -25572550.92209 -19926644.97809  20424855.41509  20424855.36509
  -5370879.42708  -4185098.17208  24409790.36708  24409793.33308
   -834760.40507   -650455.21207  25063047.52507  25063050.48207
 93 07 24 07 55 00.0000000  0  8 13 25 18 24 14 29 07 15
 -15118560.80308 -11780689.09308  21846354.46708  21846356.37008
  -2942169.27608  -2292596.60908  22971834.28208  22971834.94108
 -16526928.34708 -12878113.63608  22083444.98308  22083446.01308
  -2348730.43208  -1830178.45507  25049072.04408  25049074.67407
 -25798828.31409 -20102963.37809  20492270.55509  20492271.39109
 -25604356.09309 -19951428.21009  20418803.04509  20418803.01109
  -5191590.66808  -4045392.75108  24443907.96108  24443910.84208
   -589081.53007   -459017.21607  25109798.71107  25109801.68107
 93 07 24 07 56 00.0000000  0  8 13 25 18 14 24 29 07 15
 -15072051.93508 -11744448.42108  21855204.74208  21855206.71508
  -2808488.56408  -2188429.82008  22997272.89808  22997273.60408
 -16707689.39908 -13018966.32108  22049047.25308  22049048.24108
 -25720813.98709 -20042173.00409  20507116.24109  20507117.06509
  -2558306.32308  -1993484.28607  25009191.02508  25009193.80207
 -25634313.31309 -19974771.46309  20413102.31909  20413102.29509
  -5011411.05908  -3904993.15708  24478195.09808  24478198.07708
   -343333.90207   -267525.67708  25156563.02807  25156565.87408
 93 07 24 07 57 00.0000000  0  8 13 25 18 14 24 29 07 15
 -15022666.54708 -11705966.30908  21864602.43708  21864604.47208
  -2672863.37108  -2082747.85308  23023081.49308  23023082.21108
 -16887165.83908 -13158818.01608  22014893.97608  22014894.95608
 -25641044.33709 -19980014.83709  20522295.90609  20522296.72509
  -2767149.25908  -2156218.91007  24969449.54708  24969452.51407
 -25662375.75609 -19996638.24909  20407762.19109  20407762.14309
  -4830399.73608  -3763945.48308  24512640.41608  24512643.37608
    -97531.72007    -75991.61508  25203337.61507  25203340.55808
 93 07 24 07 58 00.0000000  0  8 13 25 18 14 24 29 07 15
 -14970425.38908 -11665258.92508  21874543.66608  21874545.67508
  -2535427.43808  -1975654.93408  23049234.72108  23049235.46308
 -17065350.51208 -13297663.15708  21980986.53108  21980987.52808
 -25559542.94509 -19916507.25309  20537805.11209  20537805.91809
  -2975385.00508  -2318480.40108  24929823.49608  24929826.48008
 -25688562.37809 -20017043.33909  20402779.00509  20402778.93409
  -4648552.39508  -3622246.37708  24547244.86408  24547247.92908
    148296.26607    115562.55208  25250117.29907  25250120.21608
 93 07 24 07 59 00.0000000  0  8 13 25 18 14 24 29 07 15
 -14915318.18508 -11622318.26508  21885030.24508  21885032.26408
  -2396206.81308  -1867171.33408  23075727.53008  23075728.27908
 -17242248.61608 -13435505.79708  21947323.92708  21947324.90908
 -25476243.55109 -19851598.63709  20553656.52809  20553657.30209
  -3182940.69208  -2480212.00008  24890326.83308  24890329.76608
 -25712891.08809 -20036000.71209  20398149.35209  20398149.25909
  -4465774.06608  -3479821.83508  24582026.52408  24582029.56808
    394150.43107    307137.14508  25296901.84807  25296904.79108
 93 07 24 08 00 00.0000000  0  8 13 25 18 14 24 29 07 15
 -14857349.76908 -11577148.08308  21896061.31508  21896063.28708
  -2255156.72808  -1757262.19108  23102568.49408  23102569.18208
 -17417902.69108 -13572379.03508  21913898.00108  21913898.95108
 -25391049.45309 -19785213.62909  20569868.36609  20569869.15809
  -3389658.85808  -2641290.99508  24850989.39008  24850992.43508
 -25735357.81909 -20053507.17309  20393874.00709  20393873.90809
  -4282056.27108  -3336665.24908  24616986.91108  24616990.06408
    640018.24108    498722.40508  25343689.05708  25343691.90908
 93 07 24 08 01 00.0000000  0  8 13 25 18 14 24 29 07 15
 -14796590.90008 -11529803.52308  21907623.32008  21907625.31808
  -2112203.08808  -1645869.75908  23129771.69008  23129772.42408
 -17592370.73908 -13708328.09008  21880697.64708  21880698.57208
 -25304070.80009 -19717438.07709  20586419.87809  20586420.69009
  -3595498.14608  -2801685.11908  24811819.45508  24811822.63308
 -25755944.50109 -20069548.66409  20389956.40009  20389956.30909
  -4097578.61108  -3192916.55308  24652091.94708  24652095.08608
    885820.62108    690256.70908  25390463.70908  25390466.52908
 93 07 24 08 02 00.0000000  0  8 13 25 18 14 24 29 07 15
 -14733070.82208 -11480307.36408  21919710.84508  21919712.78308
  -1967318.71208  -1532972.84608  23157342.25208  23157342.92608
 -17765673.51208 -13843369.17508  21847719.29608  21847720.26608
 -25215445.91409 -19648379.72809  20603284.69009  20603285.47609
  -3800480.02108  -2961411.07608  24772812.59808  24772815.83008
 -25774681.44009 -20084148.79609  20386390.81409  20386390.71709
  -3912479.71308  -3048683.76908  24687315.25508  24687318.29908
   1131521.36008    881711.79608  25437218.94608  25437221.86308
 93 07 24 08 03 00.0000000  0  8 13 25 18 14 24 29 07 15
 -14666777.03808 -11428649.88008  21932326.12508  21932328.06708
  -1820602.34408  -1418648.39408  23185261.44308  23185262.12808
 -17937769.33608 -13977469.76308  21814970.58208  21814971.54708
 -25125177.29509 -19578040.54709  20620462.20609  20620462.98609
  -4004656.88408  -3120509.71408  24733958.95808  24733962.04508
 -25791621.61909 -20097348.86809  20383167.17309  20383167.02009
  -3726686.19508  -2903909.71108  24722670.66808  24722673.71808
   1377126.88708   1073092.71308  25483956.10408  25483959.06108
 93 07 24 08 04 00.0000000  0  8 13 25 18 14 24 29 07 15
 -14597724.07508 -11374842.39908  21945466.47608  21945468.45508
  -1672219.26408  -1303025.19808  23213497.78908  23213498.41408
 -18108608.23508 -14110590.92908  21782460.95408  21782461.86508
 -25033244.33509 -19506404.46109  20637956.44809  20637957.21309
  -4208087.46508  -3279026.87508  24695247.34708  24695250.04208
 -25806831.77209 -20109200.88609  20380272.75309  20380272.56109
  -3540079.56508  -2758502.06708  24758180.82408  24758183.93408
   1622618.17108   1264384.64508  25530671.43108  25530674.44908
 93 07 24 08 05 00.0000000  0  8 13 25 18 14 24 29 07 15
 -14525892.74608 -11318869.94708  21959135.53008  21959137.46708
  -1522218.11208  -1186141.18308  23242042.13208  23242042.73008
 -18278124.34808 -14242681.33408  21750203.05008  21750203.95508
 -24939646.37109 -19433470.96409  20655767.54709  20655768.29209
  -4410704.06708  -3436909.81008  24656690.52408  24656693.32508
 -25820241.92309 -20119650.33609  20377720.83709  20377720.64809
  -3352681.59008  -2612477.80008  24793841.62908  24793844.83308
   1868007.78408   1455597.36908  25577367.68508  25577370.52908
 93 07 24 08 06 00.0000000  0  8 13 25 18 14 24 29 07 15
 -14451257.55108 -11260712.66608  21973338.15708  21973340.05608
  -1370542.99108  -1067952.77308  23270904.84008  23270905.46208
 -18446271.77708 -14373705.24108  21718205.61908  21718206.49108
 -24844330.32009 -19359198.69909  20673905.55509  20673906.29909
  -4612370.36608  -3594052.23008  24618314.49608  24618317.54708
 -25831729.43909 -20128601.66809  20375534.88909  20375534.66809
  -3164627.85508  -2465942.53407  24829627.10308  24829630.22607
   2113318.30007   1646748.45907  25624048.69807  25624051.47807
 93 07 24 08 07 00.0000000  0  8 13 25 18 14 24 29 07 15
 -14373808.16808 -11200362.50508  21988076.31008  21988078.22408
  -1217104.39408   -948390.24408  23300103.28408  23300103.93308
 -18613015.04708 -14503634.98408  21686475.38708  21686476.21708
 -24747163.04609 -19283483.92309  20692395.89309  20692396.61509
  -4812998.25208  -3750385.48208  24580136.21708  24580139.07208
 -25841304.11109 -20136062.46009  20373712.91009  20373712.70209
  -2975960.50608  -2318929.11707  24865529.57508  24865532.56507
   2358555.10907   1837842.12907  25670715.66407  25670718.60607
 93 07 24 08 08 00.0000000  0  8 13 25 18 14 24 29 07 15
 -14293615.53408 -11137874.76808  22003336.49408  22003338.43408
  -1061898.40508   -827450.52708  23329638.01008  23329638.70108
 -18778359.50208 -14632474.74808  21655011.31508  21655012.13208
 -24648198.55409 -19206368.70109  20711228.22409  20711228.93709
  -5012640.46208  -3905950.70308  24542145.41608  24542148.14208
 -25849065.23309 -20142110.09409  20372236.03809  20372235.82709
  -2786700.20808  -2171453.62707  24901544.51908  24901547.56707
   2603646.07707   2028822.18807  25717354.80207  25717357.62607
 93 07 24 08 09 00.0000000  0  7 13 18 25 24 14 29 07
 -14210734.38708 -11073292.08408  22019108.31208  22019110.17908
 -18942352.15208 -14760261.16908  21623804.49008  21623805.28608
   -905036.07908   -705220.15708  23359487.93108  23359488.58908
  -5211402.81008  -4060830.33308  24504322.19308  24504325.04008
 -24547628.52009 -19128002.43409  20730366.09809  20730366.81309
 -25855011.68709 -20146743.70409  20371104.47109  20371104.26209
  -2596829.70408  -2023502.66307  24937675.71808  24937678.82307
 93 07 24 08 10 00.0000000  0  8 13 18 25 24 14 29 07 22
 -14125145.67608 -11006599.61708  22035395.29508  22035397.22908
 -19105000.77408 -14887000.28108  21592853.37208  21592854.12608
   -746542.89108   -581718.98308  23389648.18008  23389648.97508
  -5409225.23108  -4214977.56608  24466677.78408  24466680.62708
 -24445477.77109 -19048404.45909  20749804.70609  20749805.45209
 -25859012.66309 -20149861.38309  20370343.10809  20370342.93109
  -2406326.71508  -1875058.85807  24973927.33508  24973930.39607
        -0.27018        -0.87017  24744201.89118  24744203.35517
 93 07 24 08 11 00.0000000  0  8 13 18 25 24 14 29 07 22
 -14036844.61608 -10937793.62708  22052198.38108  22052200.44508
 -19266302.10708 -15012689.55308  21562158.65608  21562159.44108
   -586393.03908   -456926.94008  23420123.84908  23420124.51008
  -5605992.62608  -4368302.74108  24429234.19708  24429236.66308
 -24341682.82309 -18967525.27109  20769556.18509  20769556.91009
 -25861077.11609 -20151470.07709  20369950.29309  20369950.12609
  -2215234.06607  -1726155.56907  25010291.26407  25010294.29307
   -161885.65208   -126145.31207  24713396.15408  24713397.50307
 93 07 24 08 12 00.0000000  0  8 13 18 25 24 14 29 07 22
 -13945870.16808 -10866904.48608  22069510.26308  22069512.29108
 -19426210.50208 -15137293.42108  21531729.07008  21531729.82808
   -424588.04708   -330845.17708  23450914.25008  23450915.01708
  -5801694.39708  -4520797.58308  24391993.14108  24391995.98308
 -24236256.96009 -18885375.24009  20789618.06709  20789618.81009
 -25861418.69409 -20151736.26909  20369885.32309  20369885.15209
  -2023649.12807  -1576868.69807  25046748.67907  25046751.92307
   -322677.17808   -251437.28408  24682798.53108  24682799.75908
 93 07 24 08 13 00.0000000  0  8 13 18 25 24 14 29 07 22
 -13852225.65508 -10793934.77508  22087330.29308  22087332.26408
 -19584693.11708 -15260786.29408  21501570.81808  21501571.57908
   -261142.71908   -203485.20008  23482016.95208  23482017.70108
  -5996351.79808  -4672478.56708  24354951.19508  24354953.91208
 -24129147.53909 -18801913.33709  20810000.23009  20810000.97209
 -25860056.69809 -20150674.95909  20370144.46509  20370144.28709
  -1831555.49007  -1427185.48607  25083302.99007  25083306.42007
   -482264.04908   -375790.61308  24652430.09508  24652431.31308
 93 07 24 08 14 00.0000000  0  8 13 18 25 24 14 29 07 22
 -13755940.63308 -10718907.53008  22105652.77708  22105654.68608
 -19741833.57808 -15383233.33008  21471667.88808  21471668.64408
    -96160.62008    -74927.73308  23513411.99708  23513412.72808
  -6189960.79008  -4823342.59608  24318108.50608  24318111.01708
 -24020296.70309 -18717094.48809  20830713.87309  20830714.57509
 -25856876.14909 -20148196.60009  20370749.72109  20370749.53409
  -1638989.50507  -1277134.21507  25119947.10707  25119950.57307
   -640670.68108   -499224.26008  24622286.17808  24622287.52908
 93 07 24 08 15 00.0000000  0  8 13 18 25 24 14 29 07 22
 -13657040.00808 -10641842.15008  22124473.00608  22124474.91108
 -19897655.72508 -15504653.11108  21442015.85808  21442016.62008
     70298.35108     54780.53408  23545088.13808  23545088.87208
  -6382420.23108  -4973310.82708  24281484.50808  24281487.06108
 -23909752.37609 -18630956.03509  20851749.78809  20851750.50009
 -25851806.27909 -20144246.04709  20371714.45709  20371714.29409
  -1446021.09107  -1126769.37807  25156667.79907  25156671.36307
   -797996.14308   -621815.47108  24592348.15408  24592349.35908
 93 07 24 08 16 00.0000000  0  8 13 18 24 25 14 29 07 22
 -13555509.04408 -10562727.15408  22143793.74608  22143795.62808
 -20052003.64508 -15624924.15708  21412644.41708  21412645.16108
  -6573685.30708  -5122348.39608  24245087.92508  24245090.40308
    238238.36808    185642.86808  23577045.99208  23577046.77208
 -23797634.64809 -18543591.55308  20873085.01809  20873085.73508
 -25844934.59009 -20138891.43509  20373022.06009  20373021.88609
  -1252652.85607   -976092.98808  25193464.64807  25193468.19308
   -954204.99908   -743536.57808  24562622.54808  24562623.78208
 93 07 24 08 17 00.0000000  0  8 18 13 24 14 29 25 07 22
 -20204789.97008 -15743978.39208  21383570.09508  21383570.79708
 -13451365.00508 -10481575.99608  22163611.71208  22163613.61608
  -6763835.07108  -5270516.90808  24208903.49508  24208905.80308
 -23683929.23609 -18454989.92708  20894722.47409  20894723.17808
 -25836361.58109 -20132211.17909  20374653.44309  20374653.27409
    407729.52608    317713.86108  23609299.01108  23609299.84308
  -1058845.25407   -825074.26708  25230345.15607  25230348.75008
  -1109144.39908   -864268.44008  24533138.40708  24533139.64208
 93 07 24 08 18 00.0000000  0  8 18 13 24 25 14 29 07 22
 -20356051.57708 -15861844.52608  21354785.94408  21354786.62308
 -13344612.30108 -10398392.10208  22183926.08508  22183928.03408
  -6952884.35208  -5417827.91908  24172928.48808  24172930.90408
    578831.58908    451040.12408  23641858.67408  23641859.56708
 -23568450.39609 -18365006.40608  20916697.35009  20916698.03308
 -25825956.41009 -20124103.25909  20376633.51509  20376633.32309
   -864569.99607   -673691.13908  25267314.69007  25267318.30208
  -1262681.83808   -983907.93908  24503921.09608  24503922.42808
 93 07 24 08 19 00.0000000  0  8 18 13 24 14 29 25 07 22
 -20505981.98308 -15978673.37108  21326255.07108  21326255.73808
 -13235335.40208 -10313241.31108  22204720.79208  22204722.85608
  -7140849.02008  -5564293.74208  24137159.89208  24137162.28908
 -23451233.24009 -18273668.37508  20939003.04609  20939003.75808
 -25813705.93809 -20114557.42809  20378964.71209  20378964.50309
    751363.29908    585480.38008  23674690.35908  23674691.24808
   -669979.22207   -522062.15808  25304344.23807  25304347.94608
  -1414916.65108  -1102532.34708  24474951.91808  24474953.09808
 93 07 24 08 20 00.0000000  0  7 18 13 24 25 07 14 29
 -20654595.23009 -16094475.85608  21297974.91509  21297975.56308
 -13123573.34308 -10226154.02208  22225988.47208  22225990.44808
  -7327645.68808  -5709849.44608  24101613.61108  24101615.94408
    925194.08908    720932.92308  23707769.37708  23707770.19808
   -475209.82407   -370294.00108  25341407.69207  25341411.42208
 -23332467.60109 -18181123.72808  20961603.39509  20961604.10908
 -25799692.47709 -20103637.79509  20381631.34309  20381631.13709
 93 07 24 08 21 00.0000000  0  7 14 13 18 24 25 29 07
 -23212227.80509 -18087430.38308  20984484.28709  20984484.98408
 -13009264.72908 -10137082.42108  22247740.67008  22247742.71408
 -20801706.91309 -16209108.32508  21269980.47109  21269981.11608
  -7513154.30408  -5854401.47908  24066312.28608  24066314.63308
   1100447.61708    857494.09208  23741118.98808  23741119.88008
 -25783888.80609 -20091323.27709  20384638.68109  20384638.48909
   -280154.64607   -218303.27008  25378525.18007  25378528.81308
 93 07 24 08 22 00.0000000  0  7 14 13 18 24 25 07 29
 -23090455.61609 -17992542.93608  21007656.72109  21007657.44308
 -12892397.97808 -10046017.46808  22269979.66608  22269981.75408
 -20947197.75809 -16322477.78308  21242294.45709  21242295.09908
  -7697340.41708  -5997923.02908  24031262.77008  24031265.00408
   1277200.59508    995223.66608  23774754.08308  23774754.93708
    -84701.44707    -66002.26308  25415718.65907  25415722.40508
 -25766204.67909 -20077543.42909  20388003.85809  20388003.66309
 93 07 24 08 23 00.0000000  0  7 14 13 18 24 25 07 29
 -22967069.30909 -17896397.76208  21031136.34909  21031137.05408
 -12773044.23808  -9953014.59408  22292691.98108  22292694.06708
 -21091112.70109 -16434619.25908  21214908.33609  21214908.96508
  -7880269.48608  -6140465.00008  23996452.52108  23996454.84708
   1455380.39308   1134065.07008  23808660.53308  23808661.40308
    111124.92107     86589.48908  25452983.25607  25452986.97108
 -25746692.25509 -20062338.91709  20391716.92609  20391716.73109
 93 07 24 08 24 00.0000000  0  7 14 13 18 24 25 07 29
 -22842050.59609 -17798980.58608  21054926.61809  21054927.37508
 -12651255.55908  -9858114.38908  22315867.71508  22315869.67808
 -21233550.76109 -16545609.92508  21187803.30409  21187803.91308
  -8062005.93308  -6282077.71508  23961868.98508  23961871.25308
   1634889.88908   1273942.58008  23842820.05008  23842820.88008
    307185.33808    239363.70808  25490292.42108  25490296.20708
 -25725479.64109 -20045809.57609  20395753.54909  20395753.34309
 93 07 24 08 25 00.0000000  0  7 14 13 18 24 25 07 29
 -22715470.75709 -17700346.93708  21079014.03809  21079014.74808
 -12527060.75808  -9761339.28608  22339501.26608  22339503.23508
 -21374521.16209 -16655456.96208  21160977.45509  21160978.05108
  -8242508.01508  -6422728.57308  23927520.58008  23927522.91308
   1815659.91108   1414802.34108  23877219.43208  23877220.25808
    503358.97007    392226.15808  25527623.17907  25527627.12008
 -25702582.01409 -20027967.22609  20400110.72909  20400110.52809
 93 07 24 08 26 00.0000000  0  7 14 13 18 24 25 07 29
 -22587298.10709 -17600472.14808  21103404.41809  21103405.19608
 -12400401.77108  -9662644.05508  22363603.70908  22363605.76408
 -21513949.71509 -16764102.55908  21134445.02309  21134445.63808
  -8421594.36008  -6562276.21808  23893441.50808  23893443.58908
   1997779.78708   1556713.92408  23911875.61708  23911876.41908
    699688.27307    545209.86408  25564983.56407  25564987.34508
 -25677863.14009 -20008705.72109  20404814.54309  20404814.32609
 93 07 24 08 27 00.0000000  0  7 14 13 18 24 25 07 29
 -22457553.67309 -17499372.57108  21128093.91709  21128094.66408
 -12271338.65508  -9562075.44908  22388163.61908  22388165.72008
 -21651896.76609 -16871593.74408  21108194.57909  21108195.20908
  -8599243.33708  -6700703.86308  23859635.93608  23859638.09408
   2181256.21508   1699682.58008  23946790.12708  23946790.89408
    896164.55207    698308.14208  25602371.73407  25602375.56808
 -25651344.61409 -19988041.91009  20409860.90609  20409860.67309
 93 07 24 08 28 00.0000000  0  7 14 13 18 24 25 07 29
 -22326234.49708 -17397045.90708  21153083.18508  21153083.86608
 -12139910.45308  -9459663.93108  22413173.61508  22413175.75008
 -21788322.71209 -16977899.63808  21082233.55609  21082234.19208
  -8775544.13108  -6838080.96108  23826086.96908  23826089.09608
   2366086.74508   1843706.37708  23981962.11308  23981962.79508
   1092770.90407    851507.72507  25639784.90507  25639788.81207
 -25623073.63509 -19966012.59709  20415240.70009  20415240.48909
 93 07 24 08 29 00.0000000  0  6 14 13 18 24 25 29
 -22193388.50908 -17293529.54208  21178362.88608  21178363.56308
 -12006142.90008  -9355429.54008  22438628.81708  22438630.91808
 -21923158.08109 -17082966.09608  21056575.16309  21056575.75208
  -8950547.42908  -6974447.01308  23792784.75008  23792786.89908
   2552177.25408   1988711.96508  24017374.04408  24017374.61208
 -25593107.28809 -19942662.20009  20420943.10709  20420942.86109
 93 07 24 08 30 00.0000000  0  7 14 13 18 24 25 22 29
 -22059006.08708 -17188815.94308  21203934.95808  21203935.63908
 -11870035.03808  -9249371.53308  22464529.30608  22464531.50208
 -22056390.32709 -17186783.38308  21031221.97709  21031222.48708
  -9124166.65908  -7109734.57908  23759746.07308  23759748.14908
   2739463.55208   2134649.36808  24053013.36408  24053014.06208
        -0.09818        -0.65718  24173376.07218  24173376.87618
 -25561464.29409 -19918005.28809  20426964.55509  20426964.26309
 93 07 24 08 31 00.0000000  0  7 14 13 18 24 25 22 29
 -21923003.04008 -17082839.52608  21229815.49608  21229816.15508
 -11731588.88608  -9141491.48408  22490874.81908  22490876.97308
 -22188030.24409 -17289359.90608  21006171.70209  21006172.22208
  -9296348.31408  -7243901.99008  23726980.84708  23726982.81808
   2927946.71508   2281519.37108  24088880.59808  24088881.34308
   -135109.71208   -105280.80508  24147665.52808  24147666.20708
 -25528067.73309 -19891981.95909  20433319.65109  20433319.38109
 93 07 24 08 32 00.0000000  0  7 14 13 24 25 22 29 18
 -21785390.58808 -16975609.02308  21256002.31308  21256002.92608
 -11590843.53008  -9031819.86208  22517657.82508  22517660.03208
  -9467081.79808  -7376940.93908  23694491.22108  23694493.27508
   3117593.05208   2429295.73708  24124969.09008  24124969.81508
   -268731.41808   -209401.51708  24122238.04908  24122238.76308
 -25492838.88809 -19864530.89909  20440023.46309  20440023.22709
 -22318067.10809 -17390687.29008  20981426.48409  20981426.94808
 93 07 24 08 33 00.0000000  0  7 14 13 24 25 22 29 18
 -21646324.37208 -16867245.75108  21282465.71808  21282466.36908
 -11447861.18508  -8920405.09608  22544866.44508  22544868.70408
  -9636333.02908  -7508824.92108  23662283.81208  23662285.71108
   3308369.96908   2577953.10008  24161272.70508  24161273.50108
   -400847.65608   -312349.15308  24097097.08008  24097097.76208
 -25455822.40109 -19835686.89109  20447067.50209  20447067.24509
 -22446499.86209 -17490764.73108  20956986.46609  20956986.95308
 93 07 24 08 34 00.0000000  0  7 14 13 24 25 22 29 18
 -21505784.61908 -16757734.28508  21309209.52408  21309210.19308
 -11302621.90408  -8807231.71208  22572504.67008  22572506.80208
  -9804003.75008  -7639477.33908  23630377.03008  23630378.87208
   3500333.06208   2727534.79008  24197802.01508  24197802.82808
   -531261.29808   -413970.08108  24072280.16808  24072280.87108
 -25417100.02109 -19805513.58809  20454436.08309  20454435.82109
 -22573352.18309 -17589610.67108  20932847.31009  20932847.82708
 93 07 24 08 35 00.0000000  0  7 14 13 24 25 22 29 18
 -21363730.47708 -16647042.73308  21336241.52708  21336242.17708
 -11155202.90908  -8692359.84808  22600557.60308  22600559.80308
  -9970123.26108  -7768921.05508  23598765.34808  23598767.36608
   3693430.22808   2878000.13308  24234547.06808  24234547.86608
   -659941.45708   -514240.29408  24047793.04608  24047793.85408
 -25376815.19409 -19774122.80409  20462102.06009  20462101.74509
 -22698739.29509 -17687314.86908  20908986.82209  20908987.31808
 93 07 24 08 36 00.0000000  0  7 14 13 24 25 22 29 18
 -21220176.61708 -16535182.57208  21363558.92408  21363559.58208
 -11005614.50508  -8575797.53908  22629023.43908  22629025.58508
 -10134737.58108  -7897191.91708  23567440.22008  23567442.00508
   3887692.02608   3029373.00108  24271513.87208  24271514.66408
   -786963.90108   -613218.77408  24023621.43808  24023622.19808
 -25334930.35509 -19741485.25109  20470072.43909  20470072.15509
 -22822632.44309 -17783854.94408  20885410.74209  20885411.23808
 93 07 24 08 37 00.0000000  0  7 14 13 24 25 22 29 18
 -21075232.85408 -16422239.37808  21391140.78308  21391141.44908
 -10853867.43608  -8457553.16608  22657900.03408  22657902.24608
 -10297878.78908  -8024314.92308  23536395.65408  23536397.56408
   4083147.01508   3181675.59908  24308707.67608  24308708.49508
   -912392.56708   -710955.37408  23999753.12508  23999753.95508
 -25291368.78309 -19707541.16109  20478361.92909  20478361.65409
 -22944854.67209 -17879092.99908  20862152.54309  20862153.01908
 93 07 24 08 38 00.0000000  0  7 14 13 24 25 22 29 18
 -20928864.37608 -16308186.04408  21418993.85508  21418994.54708
 -10699966.42508  -8337630.35208  22687186.40208  22687188.67808
 -10459520.36408  -8150269.35108  23505636.11108  23505638.07108
   4279710.04908   3334841.63208  24346112.32208  24346113.12408
  -1036177.99808   -807411.48308  23976197.47708  23976198.21708
 -25246070.27909 -19672243.60109  20486981.88109  20486981.63809
 -23065271.77809 -17972924.45508  20839237.89009  20839238.37508
 93 07 24 08 39 00.0000000  0  7 14 13 24 25 22 29 18
 -20780903.18208 -16192891.59508  21447149.83308  21447150.58908
 -10543910.36008  -8216028.31608  22716882.92308  22716885.22808
 -10619574.32408  -8274986.63008  23475178.77908  23475180.68808
   4477230.27108   3488753.46808  24383699.24308  24383700.10108
  -1158222.31808   -902510.94008  23952973.14008  23952973.99908
 -25199008.01809 -19635571.68109  20495937.53909  20495937.30909
 -23183920.83209 -18065378.21109  20816659.69209  20816660.17209
 93 07 24 08 40 00.0000000  0  7 14 13 24 25 22 29 18
 -20631407.19908 -16076401.23808  21475598.06708  21475598.76208
 -10385754.42308  -8092790.00608  22746979.07808  22746981.42308
 -10777987.62608  -8398425.48908  23445033.78408  23445035.64408
   4675669.59108   3643381.51608  24421460.95208  24421461.77608
  -1278551.93008   -996274.24908  23930075.24008  23930076.01808
 -25150199.13509 -19597538.75009  20505225.49109  20505225.26209
 -23300980.62509 -18156593.55709  20794383.96309  20794384.41209
 93 07 24 08 41 00.0000000  0  7 14 13 24 25 22 29 18
 -20480487.85408 -15958801.77608  21504316.95608  21504317.65108
 -10225509.13708  -7967923.66008  22777472.88208  22777475.20308
 -10934737.99908  -8520568.56208  23415205.04808  23415206.87108
   4875141.84408   3798814.39608  24459419.30608  24459420.11308
  -1397110.82508  -1088657.77308  23907514.16508  23907515.04908
 -25099675.98409 -19558170.02409  20514839.73809  20514839.49709
 -23416429.03809 -18246553.29109  20772414.82109  20772415.27209
 93 07 24 08 42 00.0000000  0  7 14 13 24 25 22 29 18
 -20328215.95408 -15840148.35608  21533293.36108  21533293.98908
 -10063226.19908  -7841469.54408  22808354.45108  22808356.75608
 -11089848.29708  -8641433.63708  23385688.50408  23385690.33408
   5075628.56808   3955037.74908  24497570.73108  24497571.47008
  -1513918.01608  -1179676.32008  23885286.48208  23885287.36308
 -25047493.40309 -19517508.25609  20524769.76209  20524769.50709
 -23530198.74809 -18335204.94209  20750765.03409  20750765.47609
 93 07 24 08 43 00.0000000  0  7 14 13 24 25 22 29 18
 -20174574.97208 -15720428.10608  21562530.40208  21562531.00908
  -9898926.98108  -7713444.28108  22839619.58208  22839621.98808
 -11243286.28108  -8760995.61708  23356490.22508  23356492.01508
   5277084.53308   4112016.41708  24535906.55008  24535907.27508
  -1628918.31908  -1269286.88608  23863402.57808  23863403.43508
 -24993694.94509 -19475587.35109  20535007.22409  20535006.98109
 -23642256.01109 -18422522.26709  20729441.19609  20729441.64309
 93 07 24 08 44 00.0000000  0  7 14 13 24 25 22 29 18
 -20019559.50308 -15599636.82508  21592028.78108  21592029.50708
  -9732649.56508  -7583877.58208  22871261.17408  22871263.64208
 -11394979.35708  -8879197.92708  23327623.84408  23327625.59708
   5479502.41408   4269744.57208  24574425.47008  24574426.23608
  -1742088.11308  -1357471.07908  23841867.12908  23841867.88808
 -24938335.97409 -19432450.47609  20545541.67209  20545541.42109
 -23752635.65509 -18508532.30609  20708436.67709  20708437.09209
 93 07 24 08 45 00.0000000  0  7 14 13 24 25 22 29 18
 -19863146.77208 -15477756.77008  21621793.19208  21621793.82008
  -9564419.59308  -7452789.42008  22903274.31508  22903276.82708
 -11544918.10508  -8996033.22808  23299091.36408  23299093.15308
   5682922.79508   4428253.83708  24613135.16608  24613136.00308
  -1853402.27208  -1444209.30108  23820684.66108  23820685.40208
 -24881383.12209 -19388071.61709  20556379.42809  20556379.15109
 -23861334.66409 -18593232.74009  20687751.82209  20687752.17509
 93 07 24 08 46 00.0000000  0  7 14 13 24 25 22 29 18
 -19705296.91308 -15354756.86508  21651831.04308  21651831.69208
  -9394254.89308  -7320193.67808  22935655.73208  22935658.23408
 -11693116.27408  -9111512.26008  23270890.15308  23270891.93508
   5887324.87308   4587528.05407  24652031.75008  24652032.61107
  -1962763.41608  -1529425.72408  23799873.86208  23799874.61108
 -24822768.79009 -19342398.08009  20567533.32609  20567533.08609
 -23968361.39609 -18676630.06809  20667385.15509  20667385.49309
 93 07 24 08 47 00.0000000  0  7 14 13 24 25 22 29 18
 -19546025.07308 -15230648.95108  21682139.47908  21682140.17408
  -9222188.39308  -7186115.98808  22968399.02508  22968401.47208
 -11839570.25208  -9225632.18508  23243020.76908  23243022.52108
   6092616.42708   4747495.42507  24691097.51508  24691098.28407
  -2070199.02708  -1613141.74908  23779429.57008  23779430.22808
 -24762456.38309 -19295401.36409  20579010.37609  20579010.08909
 -24073764.68709 -18758762.43109  20647327.57309  20647327.85209
 93 07 24 08 48 00.0000000  0  7 14 13 24 25 22 29 18
 -19385418.81308 -15105501.22408  21712701.87508  21712702.54608
  -9048268.58108  -7050594.17208  23001494.94808  23001497.48208
 -11984267.10008  -9338382.93608  23215485.94908  23215487.66108
   6298657.73108   4908047.01907  24730305.84708  24730306.66007
  -2175778.00708  -1695411.03008  23759338.43008  23759339.16708
 -24700506.12609 -19247128.43009  20590799.12609  20590798.82809
 -24177531.98709 -18839620.03709  20627581.35409  20627581.66109
 93 07 24 08 49 00.0000000  0  7 14 13 24 25 22 29 18
 -19223509.38808 -14979338.03608  21743512.18208  21743512.82908
  -8872519.95508  -6913647.31408  23034938.88308  23034941.44208
 -12127247.02708  -9449795.82008  23188277.70008  23188279.49808
   6505455.50707   5069188.02407  24769658.28307  24769659.20007
  -2279586.65208  -1776300.78508  23739584.20708  23739584.94108
 -24636960.33709 -19197612.22609  20602891.45109  20602891.16709
 -24279579.85909 -18919137.81709  20608162.31209  20608162.61909
 93 07 24 08 50 00.0000000  0  7 14 13 24 25 29 18 22
 -19060235.72708 -14852111.80708  21774582.08808  21774582.75508
  -8694916.23208  -6775254.88808  23068735.74908  23068738.40808
 -12268500.11608  -9559863.12108  23161398.03708  23161399.82108
   6713009.78707   5230918.48207  24809154.60007  24809155.70107
 -24571770.96109 -19146815.32209  20615296.59309  20615296.32909
 -24379845.41709 -18997266.81709  20589082.25109  20589082.53209
  -2381553.81408  -1855755.62408  23720180.48708  23720181.17508
 93 07 24 08 51 00.0000000  0  7 14 13 24 25 22 29 18
 -18895594.77008 -14723820.14008  21805912.24408  21805912.92608
  -8515470.34708  -6635427.03908  23102883.25708  23102885.88208
 -12407952.15208  -9668527.00408  23134861.25908  23134862.92808
   6921318.98607   5393237.11708  24848794.70907  24848795.85308
  -2481517.66108  -1933649.47508  23701157.93108  23701158.52808
 -24504953.54309 -19094749.77909  20628011.47309  20628011.23109
 -24478400.25609 -19074062.77809  20570327.96009  20570328.22709
 93 07 24 08 52 00.0000000  0  7 14 13 24 25 29 18 22
 -18729532.03508 -14594420.59708  21837512.75308  21837513.57108
  -8334184.07208  -6494165.13308  23137380.98008  23137383.71408
 -12545459.79408  -9775675.75708  23108694.35208  23108696.06608
   7130502.84807   5556237.30908  24888601.16207  24888602.38508
 -24436516.14609 -19041421.93209  20641034.69709  20641034.42709
 -24575206.86109 -19149496.50409  20551906.27809  20551906.53109
  -2579317.51608  -2009857.12208  23682547.21408  23682547.81108
 93 07 24 08 53 00.0000000  0  7 14 13 24 25 22 29 18
 -18562033.93608 -14463902.60308  21869386.61408  21869387.37508
  -8151139.19908  -6351532.87308  23172213.36308  23172216.03908
 -12681052.59808  -9881332.41508  23082891.78808  23082893.50308
   7340596.72107   5719946.59008  24928580.85707  24928582.12308
  -2675020.23308  -2084430.59508  23664335.58408  23664336.16808
 -24366506.71309 -18986869.11509  20654357.05109  20654356.77409
 -24670203.88209 -19223520.06609  20533828.91309  20533829.14209
 93 07 24 08 54 00.0000000  0  7 14 13 24 25 29 18 22
 -18393215.15508 -14332355.50008  21901511.84008  21901512.46308
  -7966420.19908  -6207596.10108  23207364.32408  23207366.98208
 -12814797.59108  -9985549.25008  23057441.00108  23057442.59008
   7551518.12707   5884300.65808  24968718.03607  24968719.23408
 -24294999.35809 -18931149.09609  20667964.41109  20667964.14109
 -24763378.97409 -19296123.97809  20516098.21109  20516098.45809
  -2768793.07208  -2157500.29008  23646491.14108  23646491.77008
