     2              OBSERVATION DATA    GPS                 RINEX VERSION / TYPE
srx v1.3 (5/19/93)  STARR               93/12/15 18:23:59   PGM / RUN BY / DATE
swed                                                        MARKER NAME
0                   TURBOROGUE          93.05.25            REC # / TYPE / VERS
 -3415745.1372 -1208089.3723  5231988.8773                  APPROX POSITION XYZ
    60                                                      INTERVAL
     1     1     0                                          WAVELENGTH FACT L1/2
     4    L1    L2    P1    P2                              # / TYPES OF OBSERV
SNR is mapped to signal strength [0,1,4-9]                  COMMENT
 SNR:   >500  >100   >50   >10    >5    >0   bad   n/a      COMMENT
 sig:      9     8     7     6     5     4     1     0      COMMENT
  1993    07    09    00    00   00.000000                  TIME OF FIRST OBS
  1993    07    09    20    08   00.000000                  TIME OF LAST OBS
    24                                                      # OF SATELLITES
    01   463   463   463   463                              PRN / # OF OBS
    02   488   488   488   488                              PRN / # OF OBS
    03   195   195   195   195                              PRN / # OF OBS
    07   542   542   542   542                              PRN / # OF OBS
    09   310   310   310   310                              PRN / # OF OBS
    12   317   317   317   317                              PRN / # OF OBS
    13   483   483   483   483                              PRN / # OF OBS
    14   416   416   416   416                              PRN / # OF OBS
    15   375   375   375   375                              PRN / # OF OBS
    16   363   363   363   363                              PRN / # OF OBS
    17   272   272   272   272                              PRN / # OF OBS
    18   376   376   376   376                              PRN / # OF OBS
    19   394   394   394   394                              PRN / # OF OBS
    20   191   191   191   191                              PRN / # OF OBS
    21   458   458   458   458                              PRN / # OF OBS
    22   320   320   320   320                              PRN / # OF OBS
    23   504   504   504   504                              PRN / # OF OBS
    24   362   362   362   362                              PRN / # OF OBS
    25   310   310   310   310                              PRN / # OF OBS
    26   479   479   479   479                              PRN / # OF OBS
    27   370   370   370   370                              PRN / # OF OBS
    28   404   404   404   404                              PRN / # OF OBS
    29   379   379   379   379                              PRN / # OF OBS
    31   493   493   493   493                              PRN / # OF OBS
                                                            END OF HEADER
 93 07 09 00 00 00.0000000  0  8 22 23 25 20 17 28 03 16
 -22030285.38908 -17166444.93908  21007448.20808  21007448.96508
  -2582068.61907  -2011999.28107  24900066.70107  24900070.58307
  -5250147.00908  -4091026.46008  24230791.99208  24230795.08308
  -1458363.15707  -1136391.47708  24953061.07607  24953065.56008
 -26295021.17209 -20489610.01609  20359394.06509  20359395.02409
   -618857.11408   -482225.79208  24268350.93608  24268353.09608
    212840.07808    165849.43908  20480133.62908  20480135.08308
    283257.84108    220720.07108  23586629.16208  23586631.46208
 93 07 09 00 01 00.0000000  0  8 22 23 25 20 17 28 03 16
 -22091103.18008 -17213835.42008  20995874.94108  20995875.68408
  -2797132.15307  -2179581.11107  24859141.24007  24859145.36207
  -5035523.85508  -3923787.85208  24271633.62208  24271636.43308
  -1221055.47107   -951476.61908  24998219.27407  24998223.98008
 -26356952.60209 -20537868.25709  20347608.90609  20347609.81809
   -824513.75808   -642477.56308  24229215.61808  24229217.70408
    287209.59908    223799.69508  20494285.66008  20494287.11108
    381945.89408    297619.79008  23605408.80008  23605411.07008
 93 07 09 00 02 00.0000000  0  8 22 23 25 20 17 28 03 16
 -22149869.65308 -17259627.47108  20984692.13408  20984692.91908
  -3012042.58507  -2347043.57807  24818244.96307  24818249.33407
  -4820452.58508  -3756200.01408  24312560.37508  24312563.45908
   -983570.26107   -766423.41508  25043411.36907  25043416.02108
 -26416567.75709 -20584321.60809  20336264.54309  20336265.43609
  -1029780.65008   -802425.63008  24190154.33208  24190156.46808
    363260.38708    283060.02908  20508757.67708  20508759.12908
    482686.14308    376118.62908  23624579.27608  23624581.59808
 93 07 09 00 03 00.0000000  0  8 22 23 25 20 17 28 03 16
 -22205274.26209 -17302799.88608  20974148.88509  20974149.65108
  -3225584.29407  -2513439.49108  24777609.46107  24777613.64208
  -4603848.16008  -3587417.60808  24353778.99408  24353782.19408
   -744679.91107   -580275.29207  25088870.69907  25088875.51607
 -26472586.52509 -20627972.57709  20325604.49009  20325605.34809
  -1233526.98008   -961188.85308  24151382.59308  24151384.70508
    442225.89608    344591.57208  20523784.32108  20523785.80208
    586707.06308    457173.82708  23644373.71408  23644376.08908
 93 07 09 00 04 00.0000000  0  8 22 23 25 20 17 28 03 16
 -22257597.33609 -17343571.10308  20964192.12409  20964192.88008
  -3438023.01608  -2678975.93508  24737183.48108  24737187.60208
  -4386025.54608  -3417685.90408  24395229.57908  24395232.46908
   -504683.90707   -393265.61607  25134540.65307  25134545.36007
 -26525294.94709 -20669044.06009  20315574.41809  20315575.29509
  -1436105.26908  -1119041.90408  24112833.21408  24112835.20108
    523813.89108    408166.61108  20539310.01808  20539311.47008
    693839.03808    540653.23108  23664760.41408  23664762.68108
 93 07 09 00 05 00.0000000  0  8 22 23 25 20 17 28 03 16
 -22309657.53509 -17384137.48208  20954285.40009  20954286.15008
  -3652135.76608  -2845816.81608  24696438.99308  24696443.01008
  -4169662.30608  -3249091.34308  24436401.98208  24436405.40308
   -266369.09807   -207565.95707  25179890.59407  25179895.49107
 -26577462.41809 -20709694.01709  20305647.24509  20305648.15509
  -1640287.05208  -1278144.43008  24073978.55408  24073980.41108
    605245.94808    471620.14208  20554806.02708  20554807.48608
    801397.47908    624464.94108  23685228.09108  23685230.45508
 93 07 09 00 06 00.0000000  0  8 22 23 25 20 17 28 03 16
 -22360367.23509 -17423651.52408  20944635.67609  20944636.42308
  -3866886.98508  -3013155.20308  24655573.10508  24655577.02508
  -3953603.62108  -3080734.18508  24477517.02108  24477520.30008
    -28652.77507    -22332.65407  25225126.56407  25225131.59707
 -26628032.18209 -20749099.01209  20296024.10809  20296025.05109
  -1844899.67408  -1437582.69908  24035042.03908  24035044.02608
    687610.36408    535800.18308  20570479.48808  20570480.96408
    910388.54608    709392.97508  23705968.51608  23705970.87008
 93 07 09 00 07 00.0000000  0  8 22 23 25 20 17 28 03 16
 -22409191.45909 -17461696.36608  20935344.64909  20935345.37208
  -4081758.40907  -3180587.29008  24614684.18307  24614687.98908
  -3737394.77908  -2912259.96608  24518660.20208  24518663.54308
    208942.56007    162806.38007  25270339.64407  25270344.57007
 -26676553.75009 -20786908.00909  20286790.75309  20286791.65209
  -2049420.75808  -1596949.59608  23996122.73008  23996124.67708
    771391.81308    601084.40608  20586422.61108  20586424.08508
   1021161.80808    795709.74808  23727047.92408  23727050.44608
 93 07 09 00 08 00.0000000  0  8 22 23 25 20 17 28 03 16
 -22455871.95709 -17498070.77308  20926461.68509  20926462.40208
  -4296373.59808  -3347819.71807  24573844.18108  24573847.94107
  -3520881.37707  -2743548.45107  24559861.38607  24559864.78607
    446639.64907    348024.71107  25315572.05607  25315576.92807
 -26722749.08809 -20822904.36409  20278000.07709  20278000.95709
  -2253570.39008  -1756027.07708  23957274.28308  23957276.18708
    856819.87808    667651.70408  20602679.04108  20602680.50408
   1133918.36808    883571.92008  23748504.87408  23748507.42708
 93 07 09 00 09 00.0000000  0  8 22 23 25 20 17 28 03 16
 -22500271.86109 -17532668.09608  20918012.66709  20918013.39108
  -4510531.12408  -3514695.54608  24533091.41708  24533094.91408
  -3304049.99408  -2574589.13408  24601123.64808  24601126.82808
    684526.12607    533390.62007  25360840.46407  25360845.38907
 -26766443.81009 -20856952.18409  20269685.26709  20269686.12809
  -2457216.35908  -1914712.08208  23918521.60208  23918523.28108
    943988.66608    735575.40708  20619266.72408  20619268.23108
   1248765.87508    973063.40308  23770359.69608  23770362.10208
 93 07 09 00 10 00.0000000  0  8 22 23 25 20 17 28 03 16
 -22542392.02809 -17565489.00108  20909997.43409  20909998.18308
  -4724228.57908  -3681212.88508  24492426.01208  24492429.65508
  -3086968.09707  -2405434.62808  24642432.67507  24642436.36508
    922591.76407    718896.12907  25406143.00107  25406147.98807
 -26807643.92009 -20889056.15309  20261845.15509  20261845.94809
  -2660368.78908  -2073012.52208  23879862.68708  23879864.47808
   1032894.36208    804852.54508  20636184.97708  20636186.41508
   1365665.26508   1064153.76708  23792604.92708  23792607.47408
 93 07 09 00 11 00.0000000  0  8 22 23 25 20 17 28 03 16
 -22582286.75209 -17596575.79408  20902405.71309  20902406.45808
  -4937541.71108  -3847430.73908  24451833.68508  24451837.37208
  -2869580.15707  -2236041.68907  24683800.51407  24683803.78407
   1160807.31507    904518.47007  25451473.92907  25451478.94607
 -26846429.39509 -20919278.59109  20254464.55209  20254465.31109
  -2863075.94108  -2230965.99508  23841288.74208  23841290.38808
   1123514.22208    875465.39908  20653429.38308  20653430.80108
   1484638.84208   1156860.36008  23815245.00808  23815247.37308
 93 07 09 00 12 00.0000000  0  8 22 23 25 20 17 28 03 16
 -22619993.87809 -17625957.96608  20895230.31509  20895231.07708
  -5150464.43608  -4013344.38008  24411315.50608  24411319.35808
  -2651794.12708  -2066338.44807  24725244.30808  24725247.44707
   1399156.87707   1090245.25406  25496830.27307  25496835.42106
 -26882865.30809 -20947670.20109  20247530.97709  20247531.80509
  -3065328.60108  -2388565.32108  23802801.20108  23802802.86908
   1215838.39508    947406.29208  20670998.11208  20670999.54808
   1605804.86508   1251275.37408  23838302.12308  23838304.71108
 93 07 09 00 13 00.0000000  0  8 22 23 25 20 17 28 03 16
 -22655471.03709 -17653602.50208  20888479.24509  20888479.98508
  -5363020.93408  -4178972.63508  24370867.29308  24370871.01808
  -2433711.65908  -1896404.26607  24766743.81008  24766747.59407
   1637607.72107   1276050.94006  25542205.85107  25542211.34706
 -26916890.73909 -20974183.51209  20241056.17009  20241057.00109
  -3267089.02708  -2545781.10808  23764407.46608  23764409.06408
   1309841.12308   1020655.14608  20688886.25408  20688887.73408
   1729157.45508   1347394.19308  23861775.45508  23861777.90608
 93 07 09 00 14 00.0000000  0  7 23 22 25 17 28 03 16
  -5575257.99008  -4344351.98508  24330479.88508  24330483.34708
 -22688615.03809 -17679428.99308  20882172.13709  20882172.85208
  -2215474.37307  -1726349.50607  24808273.12007  24808276.90607
 -26948407.95309 -20998742.36609  20235058.57309  20235059.40609
  -3468337.17508  -2702597.70608  23726111.22408  23726112.88408
   1405495.48308   1095190.98908  20707088.70508  20707090.13008
   1854519.94008   1445079.17408  23885631.18208  23885633.72208
 93 07 09 00 15 00.0000000  0  7 23 22 25 17 28 03 16
  -5787049.13808  -4509383.90008  24290177.31408  24290180.63408
 -22719340.97509 -17703371.28108  20876325.22709  20876325.92408
  -1997122.05208  -1556205.04307  24849824.63708  24849827.86907
 -26977399.71609 -21021333.33609  20229541.63309  20229542.46709
  -3669120.22208  -2859051.90708  23687903.13008  23687904.89308
   1502807.03708   1171018.15308  20725606.48808  20725607.93308
   1981772.75408   1544237.14108  23909846.55308  23909849.10008
 93 07 09 00 16 00.0000000  0  7 23 22 25 17 28 03 16
  -5998357.56408  -4674039.67108  24249966.48708  24249969.89908
 -22747827.70009 -17725568.73108  20870904.37409  20870905.05908
  -1778742.42808  -1386039.24407  24891381.00908  24891384.46707
 -27004075.60809 -21042119.73509  20224465.37309  20224466.20509
  -3869625.85708  -3015289.94408  23649748.39208  23649749.86008
   1601651.03308   1248039.42408  20744415.90108  20744417.36608
   2110830.48708   1644801.52708  23934405.63008  23934408.24508
 93 07 09 00 17 00.0000000  0  7 23 22 25 17 28 03 16
  -6209123.01708  -4838272.33208  24209858.87808  24209862.38808
 -22774171.70009 -17746096.52508  20865891.31309  20865892.00508
  -1560295.03607  -1215820.74007  24932950.11107  24932953.98607
 -27028498.56009 -21061150.60109  20219817.88609  20219818.70009
  -4069794.31808  -3171265.23808  23611657.37908  23611659.00108
   1702035.51908   1326261.07408  20763518.46208  20763519.93408
   2241793.27608   1746850.38108  23959326.89608  23959329.64208
 93 07 09 00 18 00.0000000  0  7 23 22 25 17 28 03 16
  -6419400.29408  -5002124.59108  24169844.39608  24169847.83708
 -22798426.72309 -17764996.54108  20861275.75409  20861276.42708
  -1341768.76108  -1045540.77507  24974534.73108  24974538.49507
 -27050698.31109 -21078449.09909  20215593.33209  20215594.12609
  -4269483.90208  -3326867.40508  23573657.71208  23573659.20408
   1803962.65508   1405684.78808  20782914.56908  20782916.04408
   2374705.84008   1850418.54308  23984619.37408  23984622.17608
 93 07 09 00 19 00.0000000  0  7 23 22 25 17 28 03 16
  -6629234.26408  -5165631.44608  24129914.38308  24129917.59908
 -22820532.94809 -17782222.17008  20857068.99809  20857069.67008
  -1123144.61108   -875184.47107  25016137.82508  25016141.14707
 -27070599.80109 -21093956.74509  20211806.23809  20211807.02109
  -4468586.49108  -3482012.16708  23535769.54908  23535771.12508
   1907461.27408   1486333.03308  20802609.73308  20802611.18108
   2509602.45208   1955532.70008  24010289.47108  24010292.11308
 93 07 09 00 20 00.0000000  0  7 23 25 22 17 28 03 16
  -6838690.98808  -5328844.36208  24090055.96008  24090058.98808
   -904516.21207   -704824.83407  25057741.32307  25057745.16707
 -22840407.96009 -17797709.19408  20853286.96109  20853287.65008
 -27088130.50009 -21107617.02109  20208470.18009  20208471.00309
  -4667165.18008  -3636748.68608  23497981.19208  23497982.74208
   2012498.17008   1568179.93608  20822597.59608  20822599.07708
   2646377.81008   2062110.81908  24036317.07408  24036319.92608
 93 07 09 00 21 00.0000000  0  7 23 25 22 17 28 03 16
  -7047669.15608  -5491684.36208  24050288.57608  24050291.74708
   -685890.68207   -534467.51807  25099344.31207  25099348.55907
 -22857949.72809 -17811378.10508  20849948.88209  20849949.55708
 -27103221.18509 -21119375.98609  20205598.49109  20205599.34809
  -4865302.99308  -3791141.66408  23460276.83008  23460278.31308
   2119082.62508   1651232.72508  20842879.94108  20842881.46608
   2784948.50508   2170087.89408  24062686.10908  24062688.78908
 93 07 09 00 22 00.0000000  0  7 23 25 22 17 28 03 16
  -7256005.51608  -5654024.21908  24010643.22308  24010646.58508
   -467254.65007   -364102.02907  25140949.60807  25140953.99407
 -22873152.92509 -17823224.75608  20847055.78909  20847056.50008
 -27115896.80309 -21129253.07909  20203186.40809  20203187.23309
  -5062978.73108  -3945174.58708  23422660.44908  23422661.95808
   2227225.66208   1735499.99908  20863458.88108  20863460.43508
   2925276.16008   2279434.02008  24089389.63908  24089392.43108
 93 07 09 00 23 00.0000000  0  7 23 25 22 17 28 03 16
  -7463667.63908  -5815838.65808  23971126.38608  23971129.69508
   -248667.83607   -193774.84407  25182545.52007  25182549.77707
 -22886119.41909 -17833328.52408  20844588.28409  20844589.02508
 -27126278.66009 -21137342.82809  20201210.82809  20201211.62009
  -5260208.70208  -4098860.16708  23385128.54708  23385129.91108
   2336890.66408   1820953.21808  20884327.47708  20884329.02008
   3067369.68208   2390156.15908  24116429.34408  24116432.20608
 93 07 09 00 24 00.0000000  0  7 23 25 17 22 28 03 16
  -7670688.39508  -5977153.33208  23931731.59308  23931734.76408
    -30149.57507    -23501.04007  25224128.02407  25224132.42507
 -27134397.67609 -21143669.32709  20199665.81909  20199666.61309
 -22896898.96609 -17841728.17808  20842537.09709  20842537.80308
  -5456998.15808  -4252202.48708  23347680.61108  23347682.06208
   2448056.68708   1907576.06008  20905481.68708  20905483.21908
   3211318.65308   2502324.11108  24143821.86108  24143824.66608
 93 07 09 00 25 00.0000000  0  7 23 25 22 17 28 03 16
  -7877117.23508  -6138006.77408  23892449.35808  23892452.40308
    188293.88607    146714.47407  25265696.47607  25265700.86307
 -22905424.55209 -17848371.49508  20840914.71509  20840915.42608
 -27140163.13509 -21148161.88309  20198568.66009  20198569.47109
  -5653332.05008  -4405189.84008  23310319.54308  23310320.82408
   2560714.52608   1995361.36308  20926919.79708  20926921.30408
   3357109.16808   2615927.02808  24171565.12008  24171567.88408
 93 07 09 00 26 00.0000000  0  7 23 25 22 17 28 03 16
  -8082936.09208  -6298384.90808  23853283.07508  23853286.06108
    406615.78207    316835.25207  25307242.19407  25307246.44707
 -22911622.31209 -17853200.92308  20839735.31809  20839736.03008
 -27143552.04509 -21150802.58409  20197923.74409  20197924.57509
  -5849078.97908  -4557719.80508  23273070.02708  23273071.40308
   2674844.81508   2084294.03008  20948638.08808  20948639.60108
   3504609.91408   2730862.58708  24199633.57908  24199636.43108
 93 07 09 00 27 00.0000000  0  7 23 25 22 17 28 03 16
  -8288155.44108  -6458295.88608  23814230.95808  23814233.88008
    624701.85607    486772.25607  25348742.48707  25348747.15907
 -22915542.62009 -17856255.71008  20838989.30009  20838990.00208
 -27144630.66709 -21151643.06009  20197718.52909  20197719.31909
  -6044179.97708  -4709746.44608  23235943.41108  23235944.63608
   2790411.93108   2174346.30508  20970629.78508  20970631.30908
   3653733.40708   2847062.62108  24228011.01608  24228013.57608
 93 07 09 00 28 00.0000000  0  6 03 23 28 16 17 22
   2907414.57408   2265517.17208  20992894.64508  20992896.20408
  -8492733.26708  -6617706.95408  23775300.89508  23775303.99708
  -6238733.42108  -4861346.42508  23198921.15208  23198922.42608
   3804520.51008   2964558.98908  24256704.72208  24256707.74708
 -27143409.24909 -21150691.29909  20197950.97309  20197951.76409
 -22917251.26709 -17857587.12908  20838664.13409  20838664.85908
 93 07 09 00 29 00.0000000  0  6 03 23 28 22 17 16
   3025932.32508   2357868.64808  21015447.85708  21015449.39508
  -8696569.82108  -6776540.40408  23736511.87008  23736514.97308
  -6432747.28308  -5012525.94808  23162001.39808  23162002.61508
 -22916699.58509 -17857157.26008  20838769.13609  20838769.84108
 -27139786.22909 -21147868.15809  20198640.37509  20198641.18809
   3957074.70708   3083432.27708  24285735.19008  24285737.67008
 93 07 09 00 30 00.0000000  0  7 03 23 19 22 17 28 16
   3145807.69408   2451278.00808  21038259.38308  21038260.95908
  -8899849.52308  -6934939.95608  23697828.92508  23697831.91608
        -0.11917        -0.62917  25321058.51817  25321061.80217
 -22914015.72109 -17855065.94508  20839279.88809  20839280.62308
 -27133927.40109 -21143302.83109  20199755.26209  20199756.06109
  -6626331.54608  -5163370.72408  23125163.64608  23125164.88508
   4111177.98508   3203512.66008  24315059.92308  24315062.74508
 93 07 09 00 31 00.0000000  0  7 03 23 19 22 17 28 16
   3267075.37708   2545772.28408  21061335.86608  21061337.43308
  -9102508.98008  -7092856.20208  23659264.01408  23659266.86408
   -137398.57307   -107064.26707  25294912.39307  25294915.55707
 -22909089.48709 -17851227.33108  20840217.31909  20840218.01908
 -27125833.29009 -21136995.72909  20201295.51709  20201296.33709
  -6819330.07008  -5313759.07608  23088436.96008  23088438.10808
   4266867.53508   3324829.09508  24344686.75308  24344689.55308
 93 07 09 00 32 00.0000000  0  7 03 23 19 22 17 28 16
   3389822.42708   2641419.31108  21084693.88008  21084695.44708
  -9304391.62408  -7250167.16008  23620846.94408  23620849.65908
   -273035.17907   -212755.09907  25269101.48607  25269104.73307
 -22901756.92409 -17845513.65108  20841612.68109  20841613.38508
 -27115444.22409 -21128900.34909  20203272.46309  20203273.26909
  -7011652.60608  -5463620.68808  23051839.10608  23051840.32408
   4424244.41208   3447460.37508  24374634.68308  24374637.49508
 93 07 09 00 33 00.0000000  0  7 03 23 28 19 22 17 16
   3514027.01108   2738202.08108  21108329.24508  21108330.83708
  -9505373.63008  -7406776.34108  23582601.07908  23582603.74608
  -7203380.20508  -5613018.71608  23015354.56408  23015355.68908
   -406956.56107   -317109.29507  25243617.06407  25243620.26707
 -22892064.48309 -17837961.10508  20843457.06109  20843457.75708
 -27102767.90809 -21119022.69509  20205684.73309  20205685.53809
   4583264.24008   3571371.84508  24404895.28008  24404898.26008
 93 07 09 00 34 00.0000000  0  7 03 23 28 19 22 17 16
   3639632.71108   2836076.62908  21132231.23408  21132232.79408
  -9705388.70008  -7562632.08408  23544539.35608  23544542.02808
  -7394572.75908  -5761999.82208  22978971.67908  22978972.82308
   -539223.97207   -420174.77807  25218447.50407  25218450.61907
 -22880178.75709 -17828699.51208  20845718.87909  20845719.56208
 -27087781.37409 -21107344.87109  20208536.54809  20208537.33809
   4743828.97108   3696487.12508  24435449.65608  24435452.49608
 93 07 09 00 35 00.0000000  0  7 03 23 28 19 17 22 16
   3766625.00408   2935031.63908  21156397.09108  21156398.67908
  -9904519.25708  -7717798.61808  23506646.07808  23506648.60708
  -7585180.92808  -5910525.57508  22942700.21008  22942701.32308
   -669856.75007   -521966.42107  25193588.80807  25193591.92707
 -27070428.32609 -21093823.01009  20211838.72109  20211839.53009
 -22866133.27209 -17817754.99408  20848391.66309  20848392.36608
   4905942.26108   3822809.07808  24466298.92208  24466301.89708
 93 07 09 00 36 00.0000000  0  7 03 23 28 19 16 22 17
   3894995.36908   3035060.47408  21180825.18208  21180826.77208
 -10102851.85708  -7872343.36808  23468904.50308  23468907.09308
  -7775118.69408  -6058528.93708  22906556.25708  22906557.38308
   -798801.73907   -622442.93507  25169051.28107  25169054.27507
   5069717.91108   3950426.35208  24497464.54008  24497467.41808
 -22849823.65009 -17805046.21208  20851495.22009  20851495.99408
 -27050751.11109 -21078490.10709  20215583.15709  20215583.99109
 93 07 09 00 37 00.0000000  0  7 03 23 28 19 16 22 17
   4024733.33808   3136154.96908  21205513.51908  21205515.12008
 -10300456.54108  -8026320.90308  23431301.52908  23431304.04708
  -7964370.52108  -6205997.80808  22870542.64408  22870543.70308
   -925932.14708   -721505.46707  25144859.15208  25144862.17807
   5235125.05208   4079314.95308  24528940.51108  24528943.48208
 -22831144.57109 -17790491.09408  20855049.73409  20855050.50708
 -27028865.32609 -21061436.24609  20219747.91609  20219748.71409
 93 07 09 00 38 00.0000000  0  7 03 23 28 19 16 22 17
   4155826.33508   3238305.32608  21230459.73008  21230461.31308
 -10497245.13808  -8179662.52308  23393853.72108  23393856.27308
  -8152990.15208  -6352974.05708  22834649.36108  22834650.46108
  -1051214.16808   -819127.77707  25121018.59208  25121021.66207
   5402034.77108   4209374.36108  24560702.49508  24560705.39708
 -22810139.07409 -17774123.19208  20859046.98809  20859047.73408
 -27004811.72909 -21042693.17809  20224325.18309  20224325.98009
 93 07 09 00 39 00.0000000  0  7 03 23 28 19 16 22 17
   4288263.92908   3341503.42308  21255661.77508  21255663.37808
 -10693107.59108  -8332282.47608  23356582.25708  23356584.69508
  -8341012.42508  -6499484.83508  22798869.85208  22798870.99008
  -1174738.42808   -915380.34107  25097512.79508  25097515.54407
   5570317.42408   4340503.59808  24592725.56208  24592728.62608
 -22786896.17209 -17756011.84908  20863469.97109  20863470.70608
 -26978478.13109 -21022173.49109  20229336.30009  20229337.09009
 93 07 09 00 40 00.0000000  0  7 03 23 28 22 19 17 16
   4422043.23808   3445747.01108  21281119.12808  21281120.77308
 -10887988.54008  -8484137.62008  23319497.53108  23319499.95608
  -8528392.68808  -6645495.34008  22763212.43808  22763213.48408
 -22761347.85509 -17736104.08808  20868331.74309  20868332.44208
  -1296604.54108  -1010340.82907  25074322.28008  25074325.19007
 -26949838.35909 -20999856.78709  20234786.27509  20234787.03009
   5739991.39408   4472716.99208  24625013.58008  24625016.80508
 93 07 09 00 41 00.0000000  0  8 03 23 28 22 19 21 17 16
   4557119.85008   3551001.48508  21306823.35908  21306825.01208
 -11081942.32008  -8635270.29908  23282589.21308  23282591.64008
  -8715088.64108  -6790972.61308  22727685.32008  22727686.34308
 -22733506.55409 -17714409.58608  20873629.72509  20873630.43608
  -1416789.58108  -1103991.47707  25051451.72708  25051454.69907
        -0.41017        -0.41716  25569295.86117  25569300.55516
 -26918981.49209 -20975812.47509  20240658.12609  20240658.92909
   5911054.98808   4606013.20108  24657565.83808  24657569.10008
 93 07 09 00 42 00.0000000  0  8 03 23 28 22 19 21 17 16
   4693573.45908   3657328.94408  21332789.65708  21332791.26208
 -11274820.66608  -8785564.98108  23245885.65508  23245888.01008
  -8900979.92208  -6935822.88508  22692311.25208  22692312.24708
 -22703399.39409 -17690949.48008  20879358.97409  20879359.70308
  -1535091.51808  -1196174.68007  25028939.66508  25028942.58107
   -228964.82007   -178414.13107  25525725.13507  25525730.02307
 -26885840.00209 -20949987.93809  20246964.71609  20246965.52209
   6083583.46908   4740450.83208  24690397.13508  24690400.06508
 93 07 09 00 43 00.0000000  0  8 03 23 28 22 19 21 17 16
   4831367.96808   3764701.25808  21359011.10308  21359012.74808
 -11466585.64108  -8934992.10408  23209393.90408  23209396.23608
  -9086130.29508  -7080095.82608  22657078.49308  22657079.47708
 -22671157.17009 -17665825.68808  20885494.43209  20885495.15908
  -1651479.76008  -1286866.76407  25006791.64108  25006794.42607
   -458132.03907   -356985.85307  25482115.90207  25482120.94707
 -26850436.00109 -20922400.40909  20253701.88209  20253702.68209
   6257515.60308   4875982.24208  24723495.40308  24723498.70308
 93 07 09 00 44 00.0000000  0  8 03 23 28 22 19 21 17 16
   4970485.73908   3873104.68908  21385484.36108  21385485.95908
 -11657302.01908  -9083602.13808  23173101.60008  23173103.99008
  -9270599.87308  -7223838.27308  22621974.85808  22621975.80308
 -22636677.61209 -17638958.52108  20892055.72309  20892056.46808
  -1765969.08908  -1376079.13407  24985004.94208  24985007.82407
   -687509.63407   -535721.47907  25438466.69307  25438471.67107
 -26812824.62409 -20893092.84409  20260859.11109  20260859.89409
   6432800.19008   5012567.56308  24756850.99108  24756854.24608
 93 07 09 00 45 00.0000000  0  8 03 23 28 22 19 21 17 16
   5110908.38608   3982524.90108  21412205.92308  21412207.52608
 -11847076.71708  -9231478.40008  23136988.59108  23136990.93908
  -9454356.39208  -7367025.09108  22587007.21208  22587008.19308
 -22599788.58609 -17610213.84608  20899075.49209  20899076.26408
  -1878585.95608  -1463832.44407  24963574.58208  24963577.39407
   -917058.53407   -714590.54707  25394784.81607  25394789.83807
 -26773090.41309 -20862131.12209  20268420.25009  20268421.04809
   6609443.56208   5150211.60007  24790465.22908  24790468.32407
 93 07 09 00 46 00.0000000  0  8 03 23 28 22 19 21 17 16
   5252638.20508   4092963.69008  21439176.22008  21439177.88308
 -12035896.62208  -9378610.66008  23101057.32508  23101059.43408
  -9637264.79008  -7509551.04008  22552200.81308  22552201.70908
 -22560512.59309 -17579609.19808  20906549.44509  20906550.20308
  -1989271.88108  -1550081.14407  24942511.53808  24942514.51907
  -1146699.64207   -893531.52508  25351085.55407  25351090.56808
 -26731192.65009 -20829483.51509  20276393.13409  20276393.93909
   6787501.54408   5288957.95307  24824348.53908  24824351.75907
 93 07 09 00 47 00.0000000  0  7 03 23 28 19 22 21 17
   5395649.77108   4204401.24108  21466390.43308  21466392.11008
 -12223653.24108  -9524914.41808  23065328.33508  23065330.38808
  -9819327.50708  -7651418.01808  22517555.50108  22517556.32408
  -2097996.48608  -1634801.56107  24921821.96908  24921824.59807
 -22519016.66409 -17547274.72308  20914445.87409  20914446.61708
  -1376397.71407  -1072516.91508  25307375.53607  25307380.29508
 -26687071.93909 -20795103.74209  20284789.06509  20284789.85509
 93 07 09 00 48 00.0000000  0  7 03 23 28 22 19 21 17
   5539931.34008   4316828.40408  21493846.33708  21493848.01208
 -12410231.62008  -9670300.06208  23029823.43108  23029825.60708
 -10000642.76008  -7792702.55708  22483052.07308  22483052.89608
 -22475289.10909 -17513201.32908  20922766.94109  20922767.72008
  -2204749.81108  -1717985.89907  24901507.45408  24901510.24707
  -1606213.70508  -1251594.21408  25263642.94008  25263647.70708
 -26640668.90109 -20758945.53109  20293619.29309  20293620.08109
 93 07 09 00 49 00.0000000  0  7 03 23 28 19 22 21 17
   5685407.46008   4430186.38108  21521529.52908  21521531.29108
 -12595670.73708  -9814797.95008  22994535.45508  22994537.68708
 -10181329.06408  -7933497.01308  22448668.59308  22448669.40708
  -2309639.56808  -1799718.11207  24881547.53808  24881550.16307
 -22429336.61809 -17477394.21408  20931511.44409  20931512.24308
  -1836285.24008  -1430870.64307  25219861.71208  25219866.43307
 -26592082.19109 -20721085.75809  20302864.99509  20302865.78709
 93 07 09 00 50 00.0000000  0  7 03 23 28 22 19 21 17
   5832093.67808   4544487.29008  21549443.04508  21549444.72008
 -12779965.44108  -9958404.09508  22959465.40108  22959467.50708
 -10361306.60508  -8073739.17108  22414420.13708  22414420.90908
 -22381201.14309 -17439886.07408  20940671.35809  20940672.14008
  -2412665.86308  -1879998.27907  24861942.46708  24861945.10907
  -2066546.14608  -1610294.64407  25176044.48708  25176049.15207
 -26541396.97009 -20681590.78309  20312510.09009  20312510.86809
 93 07 09 00 51 00.0000000  0  7 03 23 28 19 21 22 17
   5980014.42708   4659750.17508  21577591.45408  21577593.18508
 -12963042.53708 -10101061.46808  22924626.86908  22924628.95308
 -10540437.80608  -8213321.85108  22380332.48008  22380333.26908
  -2513811.30308  -1958812.79907  24842695.04508  24842697.27207
  -2296883.57908  -1789778.25607  25132212.57708  25132217.02207
 -22330842.93509 -17400645.94408  20950254.21309  20950255.00308
 -26488645.96909 -20640486.11009  20322548.25109  20322549.02709
 93 07 09 00 52 00.0000000  0  7 23 28 03 22 19 21 17
 -13144902.77908 -10242770.65208  22890019.94708  22890022.02208
 -10718699.49608  -8352226.99708  22346410.34008  22346411.09708
   6129191.17808   4775991.75508  21605978.90908  21605980.66208
 -22278097.13209 -17359545.34308  20960291.43109  20960292.25008
  -2612980.88308  -2036087.68307  24823823.56608  24823826.48607
  -2527238.73507  -1969275.62307  25088377.13507  25088381.65207
 -26433754.14409 -20597713.26309  20332993.86209  20332994.62609
 93 07 09 00 53 00.0000000  0  7 23 28 03 19 21 22 17
 -13325642.17308 -10383606.43908  22855626.22408  22855628.34708
 -10896146.37708  -8490497.23908  22312643.32108  22312644.08008
   6279587.93908   4893183.99808  21634598.50708  21634600.19808
  -2710131.32808  -2111789.33907  24805336.21008  24805339.26607
  -2757667.02507  -2148829.94507  25044527.94407  25044532.29807
 -22223027.25109 -17316633.78008  20970770.91609  20970771.73608
 -26376651.84609 -20553217.97009  20343860.06209  20343860.84909
 93 07 09 00 54 00.0000000  0  7 22 23 28 19 21 17 03
 -22165812.34009 -17272050.76008  20981658.55909  20981659.40108
 -13505175.86108 -10523502.70808  22821462.04508  22821464.09908
 -11072746.39508  -8628107.59108  22279037.26408  22279037.98708
  -2805279.03508  -2185930.32607  24787230.26608  24787232.51807
  -2988104.26107  -2328391.18407  25000677.03607  25000681.46507
 -26317298.18409 -20506968.37109  20355154.66409  20355155.47809
   6431213.28708   5011333.57508  21663451.87208  21663453.53708
 93 07 09 00 55 00.0000000  0  7 22 23 28 03 19 21 17
 -22106500.40709 -17225833.70608  20992945.25309  20992946.10308
 -13683405.38408 -10662382.73008  22787546.02408  22787548.12608
 -11248460.22608  -8765027.40408  22245599.98508  22245600.69908
   6584051.89508   5130428.55408  21692536.12008  21692537.87808
  -2898473.56108  -2258549.34608  24769495.97408  24769499.21808
  -3218450.96207  -2507881.84607  24956843.26707  24956847.84007
 -26255834.85709 -20459074.87909  20366850.72709  20366851.51609
 93 07 09 00 56 00.0000000  0  7 22 23 19 21 17 28 03
 -22044944.11709 -17177867.79608  21004659.08509  21004659.94008
 -13860292.21608 -10800216.50008  22753885.56708  22753887.57508
  -2989690.79408  -2329627.65907  24752137.97208  24752140.21207
  -3448674.61007  -2687276.60707  24913032.99207  24913037.38907
 -26192381.69109 -20409630.86409  20378925.50709  20378926.30209
 -11423288.42608  -8901257.11008  22212331.30908  22212332.07508
   6738095.92608   5250462.82108  21721849.76408  21721851.51208
 93 07 09 00 57 00.0000000  0  7 22 23 28 03 19 21 17
 -21981078.62909 -17128102.50408  21016812.30709  21016813.17908
 -14035880.91408 -10937038.75208  22720472.02308  22720473.88508
 -11597262.16908  -9036821.01208  22179225.24708  22179225.97508
   6893327.08408   5371422.12108  21751389.29208  21751391.01708
  -3078848.53308  -2399101.07407  24735171.43608  24735174.04207
  -3678840.37807  -2866626.27907  24869233.68107  24869238.01207
 -26126924.76709 -20358625.47709  20391381.57709  20391382.37209
 93 07 09 00 58 00.0000000  0  7 22 23 19 21 17 28 03
 -21914912.50209 -17076544.51808  21029403.26809  21029404.15708
 -14210172.98308 -11072850.64108  22687305.23208  22687307.02708
  -3165882.16108  -2466919.47207  24718609.43708  24718612.01207
  -3908983.17707  -3045958.07107  24825438.66007  24825442.97207
 -26059323.85009 -20305949.44809  20404245.61509  20404246.38709
 -11770299.87508  -9171655.53208  22146297.24208  22146297.92908
   7049746.09408   5493307.02008  21781154.89108  21781156.66208
 93 07 09 00 59 00.0000000  0  7 22 23 28 03 19 21 17
 -21846502.90009 -17023238.35608  21042421.27509  21042422.12508
 -14383120.60708 -11207614.89308  22654394.33808  22654396.16308
 -11942347.44508  -9305718.51408  22113557.64908  22113558.34908
   7207342.82408   5616109.62008  21811144.55808  21811146.34608
  -3250834.27808  -2533115.82707  24702443.66908  24702445.95007
  -4139056.71907  -3225235.89307  24781657.01907  24781661.20007
 -25989538.39509 -20251571.17909  20417525.34809  20417526.13209
 93 07 09 01 00 00.0000000  0  7 22 23 19 21 17 28 03
 -21775994.29109 -16968296.61308  21055838.61309  21055839.47008
 -14554736.66208 -11341341.57308  22621736.89108  22621738.67408
  -3333774.50508  -2597744.52208  24686660.40908  24686663.29308
  -4369090.96108  -3404483.07908  24737882.87808  24737886.98208
 -25917694.31609 -20195588.79109  20431196.82109  20431197.61609
 -12113448.95408  -9439044.31708  22080997.90908  22080998.62608
   7366064.49108   5739788.79608  21841348.34008  21841350.12008
 93 07 09 01 01 00.0000000  0  7 22 23 28 03 19 21 17
 -21703414.23609 -16911740.76308  21069650.15609  21069651.02108
 -14725017.88308 -11474028.13308  22589333.25608  22589335.05408
 -12283653.37308  -9571671.08108  22048609.15308  22048609.83708
   7525905.21208   5864339.95908  21871765.04208  21871766.86208
  -3414685.19108  -2660791.76908  24671263.87208  24671266.35208
  -4599029.27908  -3583655.53408  24694126.84508  24694130.95608
 -25843866.44009 -20138060.58609  20445245.85209  20445246.62509
 93 07 09 01 02 00.0000000  0  7 22 23 19 21 17 28 03
 -21628614.69809 -16853455.44208  21083884.08309  21083884.90308
 -14893940.67208 -11605656.17408  22557188.19208  22557190.04508
  -3493460.00808  -2722174.64608  24656273.00908  24656276.17208
  -4828789.00708  -3762688.81808  24650404.81608  24650408.92008
 -25768051.84309 -20078984.28608  20459672.88909  20459673.66708
 -12452974.00908  -9703609.18108  22016388.51208  22016389.15908
   7686879.73408   5989774.59208  21902397.53508  21902399.32108
 93 07 09 01 03 00.0000000  0  6 22 23 28 03 21 17
 -21551575.58109 -16793424.99108  21098544.13809  21098544.96208
 -15061435.95608 -11736171.88308  22525314.87408  22525316.62508
 -12621318.83808  -9834786.92608  21984353.49108  21984354.11908
   7848988.66608   6116093.19108  21933245.91508  21933247.64108
  -5058281.13808  -3941513.56008  24606733.56408  24606737.68408
 -25690174.60309 -20018300.73008  20474492.39209  20474493.17708
 93 07 09 01 04 00.0000000  0  8 22 23 28 31 21 17 03 26
 -21472446.47809 -16731765.97208  21113601.92109  21113602.79108
 -15227502.96208 -11865574.65908  22493713.29908  22493714.94808
 -12788651.95408  -9965176.31408  21952510.99308  21952511.57608
        -0.34517        -0.02017  25197188.69317  25197191.17217
  -5287596.17508  -4120200.33008  24563096.23608  24563100.14908
 -25610321.12809 -19956077.24908  20489688.02709  20489688.85708
   8012158.41908   6243238.39208  21964296.09308  21964297.88508
         0.11017        -0.06817  24939089.32017  24939092.17117
 93 07 09 01 05 00.0000000  0  7 22 23 28 21 03 17 26
 -21391257.91809 -16668502.18908  21129051.63409  21129052.49408
 -15392089.81608 -11993824.06108  22462393.32908  22462395.11808
 -12954991.53508 -10094791.53208  21920857.66008  21920858.25108
  -5516818.99308  -4298815.26208  24519476.43708  24519480.14008
   8176398.96608   6371217.98508  21995550.05008  21995551.91808
 -25528585.91509 -19892387.48008  20505241.68709  20505242.52308
   -126647.76007    -98686.66207  24914989.45507  24914991.06507
 93 07 09 01 06 00.0000000  0  7 22 23 28 21 03 17 26
 -21307839.42409 -16603500.80008  21144925.64309  21144926.49808
 -15555075.16108 -12120825.52808  22431378.25408  22431380.04908
 -13120323.65108 -10223621.71008  21889395.93708  21889396.53108
  -5745847.79708  -4477279.07808  24475893.67408  24475897.09108
   8341815.35708   6500113.80708  22027027.82108  22027029.61308
 -25444859.13709 -19827145.84208  20521174.40509  20521175.22708
   -251695.97808   -196126.74508  24891193.75608  24891196.08308
 93 07 09 01 07 00.0000000  0  7 22 23 21 28 17 03 26
 -21222155.86109 -16536734.42108  21161230.74309  21161231.56908
 -15716559.91208 -12246657.71408  22400648.63808  22400650.38208
  -5974625.21708  -4655547.02208  24432358.71008  24432362.17508
 -13284732.32108 -10351732.31308  21858109.94608  21858110.54108
 -25359143.99709 -19760354.83308  20537485.42009  20537486.24208
   8508333.56208   6629868.20508  22058715.21708  22058717.03908
   -375210.26407   -292371.48608  24867688.68307  24867692.10808
 93 07 09 01 08 00.0000000  0  8 22 23 31 21 17 28 03 26
 -21134258.67509 -16468243.13908  21177957.08509  21177957.92608
 -15876576.07808 -12371345.55008  22370198.46708  22370200.15608
         0.31717        -0.04217  25033603.94617  25033606.24417
  -6203081.14308  -4833564.44908  24388884.72508  24388888.41508
 -25271440.55808 -19692014.50208  20554174.85008  20554175.67608
 -13448147.52808 -10479068.78308  21827013.04008  21827013.62708
   8675920.45108   6760455.32208  22090605.95108  22090607.83408
   -497256.87108   -387472.55008  24844464.90708  24844466.82308
 93 07 09 01 09 00.0000000  0  8 22 23 31 21 17 28 03 26
 -21044258.26309 -16398112.98408  21195083.58909  21195084.43808
 -16035087.97608 -12494861.23208  22340034.63508  22340036.27708
   -214675.24707   -167279.59007  24992752.45607  24992754.95907
  -6431205.03508  -5011323.14808  24345474.01308  24345477.70708
 -25181795.09408 -19622160.90408  20571233.79708  20571234.66108
 -13610443.72108 -10605533.29908  21796129.04008  21796129.62608
   8844601.55608   6891895.08508  22122704.93908  22122706.91608
   -617897.22008   -481477.99907  24821507.44908  24821509.29607
 93 07 09 01 10 00.0000000  0  8 22 23 31 21 17 28 03 26
 -20952215.67208 -16326391.52108  21212598.75808  21212599.63408
 -16192074.19308 -12617188.06208  22310161.07808  22310162.69808
   -429262.75107   -334490.46007  24951917.73307  24951920.18807
  -6659065.37308  -5188876.49008  24302113.61408  24302117.20808
 -25090247.10708 -19550824.82308  20588654.82408  20588655.70008
 -13771599.70808 -10731109.34708  21765462.11208  21765462.73908
   9014343.81008   7024161.70208  22155005.87708  22155007.76908
   -737134.38307   -574389.97908  24798817.00607  24798819.60708
 93 07 09 01 11 00.0000000  0  8 22 23 31 21 17 28 03 26
 -20857990.33908 -16252969.21808  21230529.21908  21230530.11508
 -16347412.60808 -12738230.88508  22280601.08208  22280602.77308
   -643629.61807   -501529.41007  24911125.03207  24911127.55507
  -6886606.76608  -5366181.33008  24258813.83908  24258817.28308
 -24996707.28508 -19477936.66208  20606454.86208  20606455.74708
 -13931660.72408 -10855832.17608  21735003.51608  21735004.12908
   9185174.25208   7157276.26608  22187513.88908  22187515.83008
   -854839.72008   -666108.32508  24776418.69008  24776421.36908
 93 07 09 01 12 00.0000000  0  8 22 23 31 21 17 28 03 26
 -20761589.35908 -16177851.60908  21248873.78808  21248874.67408
 -16501090.05908 -12857979.43708  22251357.17208  22251358.85208
   -857801.87107   -668416.75307  24870369.30607  24870371.58707
  -7113813.25208  -5543225.21708  24215577.72708  24215581.08808
 -24901153.71008 -19403479.34508  20624638.12608  20624639.01308
 -14090697.41808 -10979756.83908  21704739.60708  21704740.20108
   9357059.77008   7291212.97708  22220222.66808  22220224.61608
   -970941.86708   -756577.42108  24754325.19008  24754327.25908
 93 07 09 01 13 00.0000000  0  8 22 23 31 21 17 28 03 26
 -20663148.46808 -16101144.45908  21267606.46608  21267607.38508
 -16653146.10908 -12976464.56908  22222421.79308  22222423.36308
  -1071826.38508   -835188.95107  24829641.66508  24829643.96907
  -7340633.04808  -5719967.77308  24172415.14908  24172418.61508
 -24803632.23108 -19327488.60108  20643195.83808  20643196.72508
 -14248676.60508 -11102857.45908  21674677.27108  21674677.81908
   9529962.30708   7425942.15908  22253124.96508  22253126.87708
  -1085365.66508   -845738.86407  24732550.60808  24732552.61607
 93 07 09 01 14 00.0000000  0  7 22 23 28 31 21 26 17
 -20562805.68108 -16022955.31808  21286701.11308  21286702.04108
 -16803633.12708 -13093727.08408  22193784.92608  22193786.54608
 -14405511.90008 -11225066.73708  21644832.47608  21644832.99708
  -1285701.17407  -1001844.43707  24788942.27307  24788944.67107
  -7567054.06508  -5896399.57608  24129328.61908  24129332.03508
  -1198135.70708   -933611.48908  24711091.68608  24711093.99708
 -24704261.48708 -19250056.86608  20662105.46208  20662106.33908
 93 07 09 01 15 00.0000000  0  7 22 23 28 31 21 26 17
 -20460487.49408 -15943226.89608  21306171.61908  21306172.57808
 -16952521.94508 -13209744.25108  22165452.29608  22165453.90608
 -14561106.44108 -11346309.19608  21615223.75508  21615224.25208
  -1499342.71908  -1168318.18607  24748287.67508  24748290.01107
  -7793045.16208  -6072496.35108  24086323.85008  24086327.29808
  -1309297.28408  -1020230.82208  24689938.24208  24689940.35208
 -24603088.26208 -19171220.60208  20681358.13808  20681359.03608
 93 07 09 01 16 00.0000000  0  7 22 23 28 31 21 26 17
 -20356035.25408 -15861835.58308  21326048.28108  21326049.25908
 -17099753.97708 -13324470.42808  22137434.85708  22137436.39908
 -14715545.36408 -11466651.17208  21585834.76208  21585835.24208
  -1712714.03408  -1334581.39507  24707684.34308  24707686.54007
  -8018576.85408  -6248235.13708  24043406.35508  24043409.73008
  -1418864.11308  -1105607.44508  24669087.77508  24669089.89308
 -24500109.92908 -19090977.76108  20700954.26008  20700955.21508
 93 07 09 01 17 00.0000000  0  7 22 23 31 21 17 28 26
 -20249434.89008 -15778770.40308  21346333.69108  21346334.68608
 -17245268.21908 -13437858.06108  22109744.38908  22109745.92508
  -1925869.57507  -1500676.46507  24667121.97207  24667124.37207
  -8243624.08708  -6423596.42608  24000581.12608  24000584.43708
 -24395303.84508 -19009310.69708  20720898.17208  20720899.12408
 -14868907.06308 -11586153.75308  21556651.18108  21556651.65008
  -1526780.96908  -1189698.43908  24648552.24108  24648553.93508
 93 07 09 01 18 00.0000000  0  7 22 23 28 31 21 26 17
 -20140780.15008 -15694104.41508  21367010.05408  21367011.04708
 -17389021.58008 -13549873.57708  22082388.88208  22082390.44808
 -15021091.40708 -11704738.91608  21527691.54308  21527692.02708
  -2138847.18908  -1666632.91907  24626593.81708  24626595.94407
  -8468213.67808  -6598601.11408  23957843.07308  23957846.32908
  -1633009.34008  -1272473.70308  24628337.54908  24628339.84808
 -24288718.56408 -18926257.24608  20741180.70208  20741181.64208
 93 07 09 01 19 00.0000000  0  7 22 23 31 21 17 28 26
 -20030123.63108 -15607878.60408  21388067.29008  21388068.30908
 -17531061.52908 -13660553.97608  22055359.52408  22055360.92408
  -2351662.68708  -1832463.05907  24586096.35508  24586098.50707
  -8692403.24908  -6773294.08808  23915181.09108  23915184.26808
 -24180357.70808 -18841820.23008  20761801.11508  20761802.04308
 -15172027.14608 -11822351.13608  21498969.22908  21498969.69808
  -1737597.27108  -1353970.60208  24608434.68708  24608437.22408
 93 07 09 01 20 00.0000000  0  7 22 23 31 21 28 26 17
 -19917442.59408 -15520075.25108  21409509.83908  21409510.82908
 -17671365.52008 -13769881.69008  22028660.64008  22028662.02108
  -2564269.61708  -1998130.64108  24545638.42608  24545640.51908
  -8916142.85308  -6947636.42808  23872604.63108  23872607.80908
 -15321761.97108 -11939027.59308  21470475.68908  21470476.15008
  -1840552.54208  -1434195.42007  24588843.46308  24588844.19107
 -24070211.70908 -18755992.19108  20782761.30008  20782762.25008
 93 07 09 01 21 00.0000000  0  7 22 23 31 21 17 28 26
 -19802791.82008 -15430737.03408  21431327.13508  21431328.15208
 -17809968.94808 -13877884.27308  22002285.18708  22002286.68608
  -2776621.04708  -2163599.16808  24505229.14008  24505231.18308
  -9139408.33508  -7121609.33708  23830118.51008  23830121.60208
 -23958295.61408 -18668784.85908  20804058.14708  20804059.11708
 -15470367.82708 -12054824.33708  21442196.77508  21442197.26908
  -1941814.58308  -1513100.87908  24569573.42408  24569576.10408
 93 07 09 01 22 00.0000000  0  7 22 23 31 21 28 26 17
 -19686193.12008 -15339880.95408  21453515.16908  21453516.24608
 -17946868.84508 -13984559.43808  21976233.91408  21976235.27608
  -2988726.78508  -2328876.21408  24464866.64208  24464868.62408
  -9362119.08608  -7295150.00108  23787737.88808  23787740.99508
 -15617798.99808 -12169705.74808  21414141.64708  21414142.08508
  -2041272.63208  -1590600.41908  24550647.35308  24550649.79108
 -23844563.16308 -18580162.18808  20825700.67008  20825701.65008
 93 07 09 01 23 00.0000000  0  7 22 23 31 21 17 28 26
 -19567640.28908 -15247502.18008  21476075.10308  21476076.17108
 -18081978.54608 -14089839.65008  21950523.37508  21950524.69408
  -3200581.30908  -2493957.53208  24424551.90408  24424553.89408
  -9584193.32508  -7468194.67608  23745478.27808  23745481.43008
 -23729068.64708 -18490166.48008  20847678.64008  20847679.61508
 -15763988.36308 -12283619.51208  21386322.78208  21386323.24508
  -2138894.43608  -1666669.37907  24532070.57708  24532071.09507
 93 07 09 01 24 00.0000000  0  7 22 23 31 21 28 26 17
 -19447161.15008 -15153622.39108  21499001.57508  21499002.59308
 -18215210.18208 -14193656.43908  21925170.23208  21925171.48908
  -3412151.59108  -2658817.30808  24384291.19108  24384293.23808
  -9805626.73108  -7640740.01808  23703340.90708  23703344.02608
 -15908914.36208 -12396548.84108  21358744.23108  21358744.69408
  -2234775.62208  -1741381.92208  24513824.35308  24513827.20108
 -23611919.17808 -18398881.20008  20869971.43408  20869972.38308
 93 07 09 01 25 00.0000000  0  7 22 23 31 21 17 28 26
 -19324790.30108 -15058268.54208  21522287.98208  21522289.08908
 -18346561.38408 -14296007.96008  21900174.81008  21900176.05708
  -3623388.22408  -2823417.11408  24344094.21508  24344096.10008
 -10026474.21508  -7812828.80908  23661314.96608  23661317.93908
 -23493139.99408 -18306326.00708  20892574.39608  20892575.32008
 -16052558.65208 -12508479.42408  21331409.52408  21331409.96608
  -2328935.94708  -1814753.48508  24495907.04008  24495908.91008
 93 07 09 01 26 00.0000000  0  7 22 23 31 21 28 26 17
 -19200554.36508 -14961461.38108  21545929.37008  21545930.41008
 -18476045.37508 -14396904.50208  21875534.84208  21875536.17908
  -3834319.31208  -2987778.82608  24303955.22408  24303957.11908
 -10246692.28308  -7984427.14808  23619408.67608  23619411.69708
 -16194944.63208 -12619429.50508  21304314.40908  21304314.88008
  -2421224.03108  -1886666.24707  24478344.14508  24478345.55407
 -23372581.39608 -18212384.26108  20915515.97608  20915516.87608
 93 07 09 01 27 00.0000000  0  7 22 23 31 21 28 17 26
 -19074434.71608 -14863186.38908  21569929.15808  21569930.26508
 -18603655.97708 -14496341.26308  21851251.21808  21851252.56708
  -4044899.12708  -3151866.81808  24263883.01608  24263884.86208
 -10466211.79508  -8155481.15208  23577635.37308  23577638.34508
 -16336062.32708 -12729391.31508  21277460.54708  21277460.99008
 -23250193.99008 -18117017.47308  20938805.52008  20938806.45208
  -2511624.46308  -1957108.06808  24461142.22908  24461144.18708
 93 07 09 01 28 00.0000000  0  7 22 23 31 21 28 26 17
 -18946368.69608 -14763394.74008  21594299.39808  21594300.55408
 -18729409.64208 -14594331.07408  21827321.09508  21827322.34608
  -4255070.44608  -3315636.55108  24223888.68208  24223890.59608
 -10685066.33208  -8326016.98008  23535988.63908  23535991.50608
 -16475775.06508 -12838258.35408  21250874.06908  21250874.51308
  -2600255.31008  -2026170.96208  24444275.82408  24444277.99108
 -23126087.59908 -18020311.22108  20962422.17808  20962423.15208
 93 07 09 01 29 00.0000000  0  7 22 23 31 21 17 28 26
 -18816327.99308 -14662064.38008  21619045.34608  21619046.48608
 -18853352.35708 -14690909.74908  21803735.51308  21803736.75608
  -4464850.18008  -3479101.14708  24183968.73408  24183970.58608
 -10903283.74308  -8496056.36408  23494463.21108  23494465.88208
 -23000437.23208 -17922401.87108  20986332.67408  20986333.67308
 -16614001.62808 -12945967.33908  21224570.45708  21224570.88708
  -2687088.74308  -2093833.32707  24427752.16008  24427753.31507
 93 07 09 01 30 00.0000000  0  7 22 23 31 21 17 28 26
 -18684384.24608 -14559251.13008  21644153.40708  21644154.53908
 -18975525.84008 -14786109.80208  21780486.62608  21780487.84208
  -4674312.79908  -3642318.63108  24144109.20408  24144111.03908
 -11120807.67308  -8665555.37308  23453069.60908  23453072.33108
 -22873271.45408 -17823311.68208  21010531.52208  21010532.50108
 -16750870.86908 -13052618.67308  21198525.12708  21198525.51408
  -2771961.27908  -2159967.71808  24411601.32208  24411603.31308
 93 07 09 01 31 00.0000000  0  7 22 23 31 21 17 28 26
 -18550669.59908 -14455057.96508  21669598.58408  21669599.77008
 -19095864.19308 -14879879.88208  21757586.97308  21757588.21308
  -4883469.65408  -3805297.85908  24104307.99008  24104309.74008
 -11337595.55408  -8834480.83508  23411816.09808  23411818.85608
 -22744525.02208 -17722989.81608  21035031.19408  21035032.16508
 -16886541.28908 -13158335.86008  21172707.99708  21172708.39408
  -2854834.11408  -2224543.88508  24395831.25908  24395832.81908
 93 07 09 01 32 00.0000000  0  7 22 23 31 21 17 28 26
 -18415197.85208 -14349495.64208  21695377.99308  21695379.21208
 -19214220.43608 -14972105.45808  21735064.52508  21735065.74708
  -5092281.12308  -3968007.95708  24064572.32908  24064574.05408
 -11553694.86508  -9002869.74508  23370693.63808  23370696.38208
 -22614122.97608 -17621377.86208  21059845.87908  21059846.87108
 -17020966.65808 -13263082.88208  21147127.59508  21147127.95808
  -2935808.78108  -2287640.98108  24380421.87008  24380424.08108
 93 07 09 01 33 00.0000000  0  7 22 23 31 21 17 28 26
 -18277897.55108 -14242508.45908  21721505.43108  21721506.61308
 -19330493.25708 -15062707.59908  21712938.48708  21712939.64108
  -5300708.79308  -4130418.99008  24024909.82608  24024911.39308
 -11769054.13208  -9170682.01008  23329712.00608  23329714.60508
 -22482071.48708 -17518480.62808  21084974.50708  21084975.48308
 -17153973.69908 -13366724.71108  21121817.00008  21121817.37808
  -3014956.60708  -2349314.53608  24365360.86008  24365362.52708
 93 07 09 01 34 00.0000000  0  7 22 23 31 21 17 28 26
 -18138678.42508 -14134026.08608  21747997.99308  21747999.23708
 -19444636.85508 -15151650.61008  21691217.61408  21691218.76608
  -5508696.32508  -4292487.05808  23985330.94508  23985332.62208
 -11983534.77008  -9337809.63508  23288897.59508  23288900.17708
 -22348376.26508 -17414302.55608  21110415.88508  21110416.81508
 -17285502.34108 -13469214.53808  21096788.00308  21096788.38408
  -3092227.29708  -2409525.46108  24350656.60608  24350658.25308
 93 07 09 01 35 00.0000000  0  7 22 23 31 21 17 28 26
 -17997606.79908 -14024100.21308  21774843.12308  21774844.37208
 -19556783.00108 -15239037.16608  21669876.85408  21669878.00808
  -5716307.26708  -4454261.67708  23945823.82208  23945825.34808
 -12197129.17108  -9504246.68408  23248251.84408  23248254.41908
 -22213121.27808 -17308909.08608  21136154.05608  21136155.00908
 -17415630.28108 -13570612.90408  21072025.44908  21072025.83108
  -3167513.73208  -2468190.16308  24336330.05108  24336332.03608
 93 07 09 01 36 00.0000000  0  7 22 23 31 21 17 28 26
 -17854803.73708 -13912825.16908  21802017.64908  21802018.94308
 -19667022.77308 -15324938.24108  21648898.86508  21648900.03408
  -5923539.07908  -4615740.89308  23906388.71908  23906390.26308
 -12409861.64608  -9670012.10208  23207770.05708  23207772.61408
 -22076414.59108 -17202384.41608  21162168.48408  21162169.42908
 -17544345.02108 -13670910.07508  21047531.93108  21047532.30008
  -3240781.10308  -2525281.56608  24322387.69008  24322389.51508
 93 07 09 01 37 00.0000000  0  7 22 23 31 21 17 28 26
 -17710320.76408 -13800241.11308  21829511.96908  21829513.26208
 -19775383.63408 -15409375.21908  21628278.42508  21628279.60508
  -6130295.59908  -4776849.76108  23867044.35408  23867045.78308
 -12621727.46408  -9835102.19608  23167453.21408  23167455.76108
 -21938268.93908 -17094738.47608  21188456.73508  21188457.71208
 -17671613.93608 -13770080.63108  21023313.45108  21023313.83508
  -3312085.57908  -2580843.48308  24308818.81508  24308820.24908
 93 07 09 01 38 00.0000000  0  7 22 23 31 21 17 28 26
 -17564136.22208 -13686331.17108  21857330.00508  21857331.29508
 -19881825.96008 -15492317.22808  21608023.12708  21608024.21708
  -6336514.29408  -4937539.54908  23827802.04408  23827803.44608
 -12832740.39008  -9999527.70208  23127298.64808  23127301.18208
 -21798609.51108 -16985912.97208  21215033.05908  21215034.06308
 -17797459.27108 -13868141.91008  20999365.88308  20999366.22608
  -3381489.77008  -2634924.61808  24295611.48108  24295613.50808
 93 07 09 01 39 00.0000000  0  7 22 23 31 21 17 28 26
 -17416222.56308 -13571073.85708  21885477.10108  21885478.45108
 -19986238.20208 -15573677.37208  21588154.07208  21588155.16508
  -6542217.65908  -5097827.80508  23788657.89308  23788659.39708
 -13042919.34308 -10163303.34808  23087302.82808  23087305.34208
 -21657388.07508 -16875870.31808  21241906.63308  21241907.62008
 -17921853.21008 -13965072.23508  20975694.46308  20975694.80208
  -3448925.39108  -2687471.78308  24282779.12208  24282781.05308
 93 07 09 01 40 00.0000000  0  7 22 23 31 21 17 26 28
 -17266561.54408 -13454454.96908  21913956.66008  21913958.02808
 -20088566.16308 -15653413.39308  21568681.63508  21568682.78708
  -6747502.29308  -5257789.73308  23749593.32108  23749594.84508
 -13252147.98208 -10326338.50908  23047487.90408  23047490.21808
 -21514607.52308 -16764612.77008  21269076.90008  21269077.91708
  -3514332.60708  -2738438.37308  24270332.44308  24270333.93108
 -18044762.80108 -14060845.91908  20952305.52608  20952305.89108
 93 07 09 01 41 00.0000000  0  7 22 23 31 21 17 28 26
 -17115228.60308 -13336533.28708  21942754.35908  21942755.76708
 -20188815.44708 -15731529.66508  21549604.81408  21549605.89108
  -6952398.75808  -5417449.19508  23710602.75808  23710604.34008
 -13460359.11408 -10488580.82308  23007866.53808  23007868.82808
 -21370344.91308 -16652200.37108  21296529.15008  21296530.16808
 -18166177.90508 -14155455.06808  20929200.93208  20929201.26308
  -3577733.50508  -2787841.64108  24258267.60208  24258269.26208
 93 07 09 01 42 00.0000000  0  7 22 23 31 21 17 26 28
 -16962283.65808 -13217355.50208  21971858.93408  21971860.33608
 -20287004.83608 -15808040.82708  21530919.93008  21530921.05508
  -7156837.59908  -5576752.06508  23671699.32608  23671700.77008
 -13667623.65208 -10650085.52308  22968425.26308  22968427.62408
 -21224648.21408 -16538670.50408  21324254.34908  21324255.38508
  -3639096.14408  -2835656.59608  24246590.55608  24246592.54908
 -18286059.54608 -14248869.31308  20906388.17308  20906388.51708
 93 07 09 01 43 00.0000000  0  7 22 23 31 21 17 28 26
 -16807678.19308 -13096883.79908  22001279.45708  22001280.88708
 -20383120.32808 -15882935.97008  21512629.80608  21512630.88208
  -7360707.73308  -5735611.78808  23632904.13308  23632905.50808
 -13874007.41408 -10810903.91508  22929151.66908  22929153.97208
 -21077499.88008 -16424009.49708  21352255.73608  21352256.74708
 -18404383.43608 -14341069.72808  20883871.87508  20883872.21408
  -3698304.87508  -2881793.21208  24235323.55108  24235324.97208
 93 07 09 01 44 00.0000000  0  7 22 23 31 21 17 26 28
 -16651397.34308 -12975106.59908  22031018.75008  22031020.21908
 -20477145.38808 -15956202.20408  21494737.35408  21494738.43508
  -7563972.68908  -5893999.96108  23594224.14408  23594225.50108
 -14079439.00908 -10970980.36508  22890059.24908  22890061.44608
 -20928944.69208 -16308252.23908  21380524.93708  21380525.86808
  -3755385.09208  -2926271.25508  24224461.34108  24224463.22208
 -18521149.48909 -14432056.24608  20861652.06909  20861652.39008
 93 07 09 01 45 00.0000000  0  7 22 23 31 21 17 28 26
 -16493470.30108 -12852046.65908  22061071.35808  22061072.86408
 -20569048.18008 -16027814.72808  21477248.80508  21477249.83408
  -7766655.44208  -6051934.47508  23555654.68308  23555656.06508
 -14283794.59008 -11130218.36408  22851171.48608  22851173.75208
 -20779041.29408 -16191444.42708  21409050.55808  21409051.55808
 -18636376.74209 -14521843.69508  20839725.05009  20839725.34108
  -3810470.57808  -2969194.96408  24213979.18208  24213980.74208
 93 07 09 01 46 00.0000000  0  7 22 23 31 21 17 26 28
 -16334015.48008 -12727796.23708  22091414.66608  22091416.15408
 -20658822.89908 -16097769.01808  21460165.25208  21460166.19908
  -7968807.81008  -6209455.67208  23517186.35408  23517187.67508
 -14487064.74108 -11288610.57208  22812490.42508  22812492.78608
 -20627779.07708 -16073577.79608  21437834.87708  21437835.86908
  -3863603.65908  -3010597.32008  24203867.89608  24203869.95108
 -18750060.39509 -14610428.34208  20818091.57909  20818091.83708
 93 07 09 01 47 00.0000000  0  7 22 23 31 21 17 28 26
 -16173050.66408 -12602369.20708  22122045.37308  22122046.87608
 -20746467.58808 -16166063.54408  21443487.02008  21443487.95408
  -8170377.46808  -6366522.82708  23478828.86708  23478830.18908
 -14689296.39408 -11446193.56508  22774006.99608  22774009.09608
 -20475152.66808 -15954648.15808  21466878.71608  21466879.73208
 -18862090.78909 -14697724.73208  20796773.06509  20796773.34508
  -3914631.51308  -3050359.22108  24194158.10608  24194159.70408
 93 07 09 01 48 00.0000000  0  7 22 23 31 21 17 26 28
 -16010565.89308 -12475757.79708  22152965.26708  22152966.79908
 -20831968.38208 -16232687.50808  21427216.71408  21427217.66008
  -8371325.02408  -6523105.24408  23440589.61608  23440591.00908
 -14890452.06508 -11602938.14408  22735728.21708  22735730.27108
 -20321171.61308 -15834662.95808  21496180.36108  21496181.36508
  -3963480.44808  -3088423.27108  24184862.30408  24184863.72108
 -18972453.47209 -14783721.60508  20775771.59809  20775771.89808
 93 07 09 01 49 00.0000000  0  7 22 23 31 21 17 28 26
 -15846512.86608 -12347924.37208  22184183.57008  22184185.07208
 -20915301.25908 -16297622.18608  21411358.97508  21411359.97408
  -8571651.59908  -6679203.78408  23402468.69008  23402469.98408
 -15090477.13808 -11758801.73208  22697664.61508  22697666.83708
 -20165861.19408 -15713641.88708  21525734.95908  21525735.97908
 -19081247.85409 -14868496.42108  20755068.65609  20755068.96008
  -4010189.45508  -3124819.87308  24175973.65808  24175975.12808
 93 07 09 01 50 00.0000000  0  7 22 23 31 21 17 26 28
 -15680837.44408 -12218826.73808  22215710.65008  22215712.22608
 -20996459.76708 -16360862.55008  21395914.97608  21395915.97008
  -8771388.21008  -6834842.60408  23364459.95008  23364461.19008
 -15289379.38908 -11913790.38208  22659814.73608  22659816.95108
 -20009238.76008 -15591598.46608  21555539.27608  21555540.33308
  -4054770.87908  -3159558.58708  24167489.94708  24167492.01808
 -19188514.96909 -14952081.16008  20734656.50909  20734656.81608
 93 07 09 01 51 00.0000000  0  7 22 23 31 21 17 28 26
 -15513560.50708 -12088481.17208  22247542.55408  22247544.06108
 -21075496.03408 -16422449.21708  21380874.82708  21380875.82308
  -8970527.90808  -6990016.30308  23326564.86908  23326566.21108
 -15487161.76608 -12067906.41408  22622177.94708  22622180.01008
 -19851304.78808 -15468533.07308  21585593.12708  21585594.18508
 -19294142.11709 -15034388.00608  20714556.31509  20714556.61508
  -4097205.09408  -3192624.15608  24159415.39208  24159416.77108
 93 07 09 01 52 00.0000000  0  7 22 23 31 21 17 26 28
 -15344804.30108 -11956982.93308  22279655.85408  22279657.38808
 -21152435.53808 -16482402.04708  21366233.75508  21366234.71408
  -9169005.20608  -7144673.84108  23288795.85708  23288797.08008
 -15683792.85808 -12221125.34208  22584760.15808  22584762.26008
 -19692091.86208 -15344471.09708  21615890.40308  21615891.45208
  -4137527.96708  -3224044.57408  24151741.95408  24151743.23208
 -19398065.08209 -15115366.91708  20694780.43209  20694780.69608
 93 07 09 01 53 00.0000000  0  7 22 23 31 21 17 28 26
 -15174685.93508 -11824423.27108  22312028.38608  22312029.91608
 -21227216.61508 -16540672.97708  21352003.31508  21352004.27408
  -9366815.11008  -7298811.34308  23251153.88108  23251154.98308
 -15879241.64508 -12373422.99008  22547567.53708  22547569.58008
 -19531575.42608 -15219393.39908  21646435.63308  21646436.70108
 -19500366.03809 -15195081.93208  20675313.17009  20675313.44908
  -4175735.80608  -3253816.86608  24144470.97308  24144472.65508
 93 07 09 01 54 00.0000000  0  7 22 23 31 21 17 26 28
 -15003145.60808 -11690755.58908  22344671.54508  22344673.19108
 -21299735.13808 -16597180.88108  21338203.48308  21338204.41408
  -9563972.13208  -7452440.09108  23213636.02408  23213637.14108
 -16073484.86508 -12524781.25308  22510604.17008  22510606.15808
 -19369761.50408 -15093304.67108  21677227.77708  21677228.84008
  -4211721.99108  -3281858.01508  24137623.25008  24137624.65008
 -19601059.86409 -15273544.63708  20656151.76009  20656152.02208
 93 07 09 01 55 00.0000000  0  7 22 23 31 21 17 28 26
 -14830107.09608 -11555920.49608  22377599.73208  22377601.36708
 -21369947.12008 -16651891.48008  21324842.52908  21324843.45308
  -9760473.99408  -7605558.34908  23176242.82908  23176243.88108
 -16266500.47808 -12675182.94108  22473874.41408  22473876.35408
 -19206714.51808 -14966255.11508  21708254.70108  21708255.79208
 -19700052.13009 -15350681.44709  20637314.05709  20637314.31909
  -4245476.24508  -3308159.98508  24131199.80908  24131201.64008
 93 07 09 01 56 00.0000000  0  7 22 23 31 21 17 26 28
 -14655586.81408 -11419930.76908  22410809.90108  22410811.56108
 -21437978.27008 -16704902.72508  21311896.62208  21311897.55908
  -9956274.83008  -7758130.34608  23138983.13008  23138984.20908
 -16458305.24908 -12824641.13008  22437375.10808  22437377.01008
 -19042476.52608 -14838277.49808  21739508.19208  21739509.26008
  -4277092.65708  -3332796.09108  24125183.44208  24125185.18108
 -19797224.84409 -15426400.42809  20618822.74309  20618822.99609
 93 07 09 01 57 00.0000000  0  7 22 23 31 21 17 28 26
 -14479692.04308 -11282870.01508  22444281.60908  22444283.28008
 -21503904.11908 -16756273.48508  21299351.31308  21299352.20408
 -10151329.67708  -7910121.04208  23101865.30108  23101866.28308
 -16648852.40108 -12973119.33908  22401115.08908  22401117.08608
 -18877039.95308 -14709365.92308  21770989.77108  21770990.91608
 -19892538.73409 -15500670.98109  20600685.12109  20600685.36409
  -4306618.50608  -3355803.21908  24119564.88708  24119566.45208
 93 07 09 01 58 00.0000000  0  7 22 23 31 21 17 26 28
 -14302565.48708 -11144849.43708  22477987.78908  22477989.43908
 -21567717.93308 -16805998.50508  21287207.92008  21287208.82508
 -10345666.63808  -8061552.36708  23064884.21108  23064885.27308
 -16838073.20608 -13120564.02008  22365107.52708  22365109.46708
 -18710379.52608 -14579500.69808  21802704.22908  21802705.38808
  -4334075.25408  -3377198.06908  24114339.94808  24114341.46008
 -19986136.16009 -15573604.02809  20582874.20909  20582874.42309
 93 07 09 01 59 00.0000000  0  7 22 23 31 21 17 28 26
 -14124188.36708 -11005854.38708  22511931.93608  22511933.61408
 -21629280.10808 -16853969.00208  21275493.03308  21275493.95008
 -10539232.83608  -8212383.09108  23028049.75608  23028050.68908
 -17025890.92808 -13266915.39208  22329366.93008  22329368.81508
 -18542443.80208 -14448641.73708  21834661.29708  21834662.48508
 -20078141.58909 -15645296.55509  20565366.18809  20565366.36109
  -4359350.09708  -3396892.74608  24109530.30008  24109531.67908
 93 07 09 02 00 00.0000000  0  7 22 23 31 21 17 26 28
 -13944504.29408 -10865840.92308  22546124.69108  22546126.48508
 -21688510.94908 -16900122.87908  21264221.82208  21264222.66108
 -10732022.63908  -8362608.81608  22991363.08108  22991364.09208
 -17212386.32008 -13412236.37608  22293877.95108  22293879.82808
 -18373296.02308 -14316838.31108  21866849.10508  21866850.27108
  -4382341.48008  -3414808.08608  24105155.01308  24105156.63308
 -20168508.79809 -15715712.54609  20548169.79209  20548169.96409
 93 07 09 02 01 00.0000000  0  7 22 23 31 21 17 28 26
 -13763454.59508 -10724763.35008  22580577.42708  22580579.23908
 -21745483.39908 -16944516.97008  21253380.17508  21253381.07408
 -10924050.18208  -8512240.59508  22954821.29108  22954822.29908
 -17397632.94808 -13556584.29908  22258626.65908  22258628.50908
 -18203068.91408 -14184193.84808  21899242.31908  21899243.46508
 -20257096.18409 -15784741.66109  20531312.07609  20531312.26209
  -4403026.19608  -3430926.02808  24101219.07808  24101220.52008
 93 07 09 02 02 00.0000000  0  7 22 23 31 21 17 26 28
 -13580992.15808 -10582584.93108  22615299.00908  22615300.81908
 -21800287.82208 -16987221.69108  21242951.24208  21242952.18908
 -11115263.14808  -8661237.63808  22918434.59408  22918435.57508
 -17581599.96308 -13699935.11808  22223618.71408  22223620.62408
 -18031726.82508 -14050680.57208  21931847.62308  21931848.77108
  -4421418.09008  -3445257.36708  24097719.24508  24097720.76808
 -20343755.32709 -15852268.24809  20514821.36309  20514821.55309
 93 07 09 02 03 00.0000000  0  7 22 23 31 21 17 28 26
 -13397157.35208 -10439337.13808  22650281.55408  22650283.42408
 -21852915.08308 -17028229.92208  21232936.58408  21232937.51708
 -11305659.67308  -8809598.47308  22882203.14108  22882204.16908
 -17764213.93708 -13842231.61808  22188868.44408  22188870.17708
 -17859224.46608 -13916263.19208  21964673.77108  21964674.91408
 -20428501.57009 -15918304.26909  20498694.74709  20498694.93409
  -4437622.93508  -3457884.50408  24094635.48608  24094637.11508
 93 07 09 02 04 00.0000000  0  7 23 22 31 21 17 26 28
 -21903230.46008 -17067436.68308  21223361.85408  21223362.76708
 -13212032.13608 -10295083.84308  22685509.81008  22685511.75808
 -11495307.28008  -8957375.76808  22846114.49408  22846115.38608
 -17945383.11708 -13983402.29808  22154392.95508  22154394.76008
 -17685614.26508 -13780982.55308  21997710.74208  21997711.91908
  -4451673.53608  -3468833.01508  24091961.79908  24091963.35708
 -20511468.51409 -15982953.81909  20482906.67209  20482906.85109
 93 07 09 02 05 00.0000000  0  7 23 22 31 21 17 28 26
 -21951165.70308 -17104788.79708  21214240.09208  21214241.00008
 -13025804.42708 -10149971.46008  22720947.90308  22720949.87708
 -11684221.19008  -9104581.34708  22810165.36708  22810166.33608
 -18125104.82508 -14123445.05608  22120192.98408  22120194.76408
 -17511013.76608 -13644930.25808  22030936.16508  22030937.32008
 -20592785.01709 -16046317.30909  20467432.58809  20467432.76609
  -4463592.37608  -3478120.40608  24089693.61808  24089695.21708
 93 07 09 02 06 00.0000000  0  7 23 22 31 21 17 26 28
 -21996734.25108 -17140296.72708  21205568.66008  21205569.59908
 -12838448.25208 -10003979.75108  22756600.64708  22756602.61708
 -11872220.08108  -9251073.92508  22774390.29008  22774391.15408
 -18303325.93208 -14262318.53208  22086278.58808  22086280.28708
 -17335328.72808 -13508032.86608  22064367.98308  22064369.15508
  -4473341.60008  -3485717.19408  24087838.22408  24087839.92808
 -20672337.79109 -16108306.46909  20452294.23509  20452294.40509
 93 07 09 02 07 00.0000000  0  7 23 22 31 21 17 28 26
 -22040063.15808 -17174059.48408  21197323.42208  21197324.33208
 -12649895.07608  -9857055.31308  22792481.23308  22792483.20108
 -12059260.88708  -9396819.93908  22738797.64508  22738798.50508
 -18480051.74608 -14400026.84408  22052648.62308  22052650.32308
 -17158517.22908 -13370257.71608  22098014.07208  22098015.26108
 -20750005.71209 -16168826.91509  20437514.55609  20437514.71509
  -4480862.11108  -3491577.31808  24086407.23608  24086408.88108
 93 07 09 02 08 00.0000000  0  7 23 22 31 21 17 26 28
 -22081210.13208 -17206122.03908  21189493.37208  21189494.25508
 -12460127.16708  -9709184.31708  22828592.95808  22828594.96108
 -12245387.07208  -9541853.26208  22703378.84008  22703379.66208
 -18655299.71008 -14536583.58108  22019300.05608  22019301.68508
 -16980651.14508 -13231660.80908  22131860.89908  22131862.08308
  -4486036.93108  -3495609.63608  24085422.50808  24085423.91108
 -20825753.49609 -16227851.14809  20423100.08609  20423100.26209
 93 07 09 02 09 00.0000000  0  7 22 23 31 21 17 28 26
 -12269183.79708  -9560397.38708  22864928.37408  22864930.40408
 -22120126.05008 -17236446.11008  21182087.94108  21182088.83308
 -12430657.55208  -9686219.80808  22668122.96108  22668123.80508
 -18829099.71208 -14672012.04608  21986226.82808  21986228.47908
 -16801824.97808 -13092315.79808  22165890.42308  22165891.63308
 -20899577.91509 -16285376.65509  20409051.76009  20409051.95609
  -4488889.83908  -3497832.65808  24084879.60508  24084881.12908
 93 07 09 02 10 00.0000000  0  7 23 22 31 21 17 26 28
 -22156748.73208 -17264983.24608  21175118.93108  21175119.79308
 -12077150.58308  -9410761.23508  22901471.15408  22901473.20308
 -12615095.64808  -9829937.75008  22633025.59008  22633026.36708
 -19001447.10708 -14806308.61808  21953430.21208  21953431.83408
 -16622052.85708 -12952233.67508  22200100.01608  22200101.19208
  -4489557.58608  -3498352.95808  24084752.43708  24084753.92408
 -20971457.64909 -16341386.82509  20395373.54909  20395373.71809
 93 07 09 02 11 00.0000000  0  7 22 23 31 21 17 28 26
 -11884074.66508  -9260312.58508  22938212.29708  22938214.42608
 -22191038.98508 -17291702.90908  21168593.60908  21168594.49608
 -12798649.74808  -9972966.85908  22598096.40408  22598097.24408
 -19172227.77208 -14939384.38108  21920931.64108  21920933.29508
 -16441275.33008 -12811368.12708  22234500.82008  22234502.09608
 -21041341.69009 -16395841.91409  20382075.06609  20382075.23509
  -4488052.77408  -3497180.36108  24085039.03708  24085040.17308
 93 07 09 02 12 00.0000000  0  7 22 23 31 21 17 26 28
 -11689910.92108  -9109016.28608  22975160.51408  22975162.68308
 -22223022.68108 -17316625.25508  21162507.35908  21162508.20308
 -12981182.16808 -10115199.85708  22563361.52508  22563362.27808
 -19341416.71808 -15071219.85108  21888735.95208  21888737.47508
 -16259452.66708 -12669688.18608  22269100.59708  22269101.87608
  -4484292.36508  -3494250.14708  24085754.53408  24085755.86708
 -21109319.44309 -16448811.57809  20369139.24609  20369139.41209
 93 07 09 02 13 00.0000000  0  7 22 23 31 21 17 28 26
 -11494651.81308  -8956866.46908  23012317.19808  23012319.43708
 -22252777.66708 -17339810.94508  21156845.16408  21156846.00308
 -13162726.84008 -10256663.18608  22528814.67708  22528815.47308
 -19509097.85208 -15201880.38608  21856827.24608  21856828.83408
 -16076603.45108 -12527208.33308  22303895.71108  22303896.90708
 -21175500.04209 -16500380.86109  20356545.41709  20356545.58309
  -4478311.91608  -3489590.04208  24086892.60908  24086893.99308
 93 07 09 02 14 00.0000000  0  7 22 23 31 21 17 26 28
 -11298273.39308  -8803844.46108  23049686.94808  23049689.17008
 -22280194.93408 -17361175.03308  21151627.78308  21151628.63708
 -13343308.10808 -10397375.81208  22494451.13608  22494451.93408
 -19675187.27808 -15331300.62008  21825221.42908  21825222.99608
 -15892722.62408 -12383924.62708  22338887.02608  22338888.31008
  -4470116.28508  -3483203.81808  24088452.18908  24088453.43308
 -21239759.46609 -16550453.13109  20344317.37009  20344317.54209
 93 07 09 02 15 00.0000000  0  7 22 23 31 21 17 28 26
 -11100836.96308  -8649998.02308  23087257.83708  23087260.11708
 -22305280.00408 -17380721.82508  21146854.27408  21146855.08408
 -13522933.45208 -10537343.55108  22460269.65008  22460270.39508
 -19839620.20008 -15459430.09208  21793930.80908  21793932.25108
 -15707932.92008 -12239932.70608  22374051.38308  22374052.72908
 -21302078.17209 -16599013.14409  20332458.59409  20332458.76609
  -4459653.59208  -3475051.07508  24090442.90008  24090444.29808
 93 07 09 02 16 00.0000000  0  7 22 23 31 21 17 26 28
 -10902422.92608  -8495389.80508  23125014.85508  23125017.20908
 -22328097.35608 -17398501.56908  21142512.19008  21142513.00208
 -13701559.78208 -10676532.83208  22426278.05708  22426278.80408
 -20002444.51408 -15586306.10908  21762946.35908  21762947.87108
 -15522258.29708 -12095251.25308  22409384.13908  22409385.52608
  -4446854.61708  -3465077.84808  24092878.29708  24092880.04108
 -21362484.29709 -16646082.84709  20320963.55509  20320963.71409
 93 07 09 02 17 00.0000000  0  7 22 23 31 21 17 28 26
 -10703008.88408  -8340002.36508  23162962.23708  23162964.45708
 -22348636.12508 -17414505.79508  21138603.80008  21138604.68708
 -13879133.48108 -10814901.88008  22392486.80408  22392487.58708
 -20163689.41308 -15711951.40008  21732262.38108  21732263.84108
 -15335668.27708 -11949856.50008  22444891.13208  22444892.55608
 -21420919.76509 -16691616.97109  20309843.80309  20309843.96409
  -4431773.50508  -3453326.32808  24095748.29708  24095749.89308
 93 07 09 02 18 00.0000000  0  7 22 23 31 21 17 26 28
 -10502648.53608  -8183877.54508  23201089.69008  23201092.00308
 -22366888.28808 -17428728.25008  21135130.54008  21135131.42808
 -14055679.15708 -10952469.88308  22358891.24808  22358892.01608
 -20323327.02508 -15836344.27108  21701884.27508  21701885.64508
 -15148186.51808 -11803766.88308  22480567.63008  22480569.13608
  -4414476.69008  -3439848.31608  24099039.96108  24099041.50608
 -21477281.42509 -16735535.14409  20299118.39609  20299118.54009
 93 07 09 02 19 00.0000000  0  7 22 23 31 21 17 28 26
 -10301385.15708  -8027049.06908  23239388.90008  23239391.25008
 -22382777.06908 -17441109.11208  21132107.00208  21132107.81608
 -14231118.60408 -11089175.89908  22325506.18508  22325506.94108
 -20481202.82708 -15959364.30408  21671841.43508  21671842.91608
 -14959832.81508 -11656997.83908  22516410.20108  22516411.72708
 -21531582.38109 -16777847.57509  20288785.35109  20288785.51409
  -4394889.66108  -3424585.73608  24102767.20508  24102768.62408
 93 07 09 02 20 00.0000000  0  7 22 23 31 21 17 28 26
 -10099234.16708  -7869528.95608  23277857.07708  23277859.40508
 -22396328.31908 -17451668.52308  21129528.26608  21129529.12308
 -14405452.46508 -11225020.40708  22292331.57508  22292332.29808
 -20637344.09108 -16081032.73508  21642128.71708  21642130.13108
 -14770626.21608 -11509564.20508  22552415.20008  22552416.67408
 -21583944.97709 -16818649.59609  20278820.98709  20278821.13109
  -4373017.25108  -3407542.33708  24106929.48608  24106930.90908
 93 07 09 02 21 00.0000000  0  7 22 23 31 21 17 28 26
  -9896187.22508  -7711310.68808  23316495.72508  23316498.08908
 -22407620.74108 -17460467.80508  21127379.45808  21127380.30008
 -14578733.86908 -11360044.82008  22259357.12508  22259357.81508
 -20791836.78808 -16201416.58208  21612729.67808  21612731.02708
 -14580568.40508 -11361467.27808  22588582.01808  22588583.52308
 -21634358.59509 -16857932.93609  20269227.44809  20269227.58409
  -4348979.17408  -3388811.40708  24111503.79408  24111505.63908
 93 07 09 02 22 00.0000000  0  7 22 23 31 21 17 28 26
  -9692307.54708  -7552443.52708  23355292.85108  23355295.24708
 -22416737.38308 -17467571.67708  21125644.52808  21125645.35508
 -14750968.89308 -11494253.88008  22226581.85408  22226582.58508
 -20944664.62608 -16320503.13108  21583647.42008  21583648.82008
 -14389746.11708 -11212774.66208  22624894.34908  22624895.80608
 -21682782.57809 -16895665.90709  20260012.81409  20260012.96009
  -4322870.37608  -3368466.93608  24116472.01008  24116473.77008
 93 07 09 02 23 00.0000000  0  8 22 23 31 21 17 28 19 26
  -9487675.77408  -7392990.30508  23394232.96408  23394235.41108
 -22423636.58808 -17472947.67208  21124331.66808  21124332.47908
 -14922195.45408 -11627677.12408  22193998.46208  22193999.20108
 -21095804.44908 -16438274.35608  21554886.44808  21554887.76908
 -14198220.10708 -11063533.68808  22661340.72908  22661342.09408
 -21729208.30509 -16931841.80109  20251178.31209  20251178.47909
         0.00318        -0.37617  24827758.84318  24827761.11617
  -4294628.06808  -3346459.98808  24121846.53508  24121848.13208
 93 07 09 02 24 00.0000000  0  8 22 23 31 21 17 28 19 26
  -9282124.79808  -7232820.84308  23433348.09708  23433350.53808
 -22428091.95108 -17476419.37408  21123483.82708  21123484.64008
 -15092352.17808 -11760266.72908  22161618.70808  22161619.41208
 -21245146.63408 -16554644.82508  21526467.45708  21526468.83008
 -14005839.71308 -10913626.94208  22697949.40508  22697950.93208
 -21773571.30209 -16966410.36309  20242736.31409  20242736.48709
     96616.53308     75285.18008  24846144.32208  24846147.05608
  -4264029.72508  -3322617.15908  24127669.31608  24127670.81608
 93 07 09 02 25 00.0000000  0  8 22 23 31 21 17 28 19 26
  -9075644.30708  -7071927.07208  23472640.18608  23472642.70308
 -22430085.45608 -17477972.74608  21123104.46408  21123105.28708
 -15261321.14508 -11891930.81908  22129464.94208  22129465.62308
 -21392704.92508 -16669625.24708  21498388.03408  21498389.41708
 -13812516.47308 -10762985.53108  22734737.66808  22734739.09708
 -21815840.94209 -16999347.74909  20234692.68509  20234692.86609
    195139.23108    152056.02608  24864892.70208  24864895.14708
  -4231057.68908  -3296924.69408  24133943.66908  24133945.07508
 93 07 09 02 26 00.0000000  0  8 22 23 31 21 17 28 19 26
  -8868404.17108  -6910441.38508  23512076.75708  23512079.32308
 -22429736.80908 -17477701.06708  21123170.82908  21123171.63808
 -15428961.18508 -12022559.37808  22097564.05108  22097564.71608
 -21538473.44708 -16783211.04208  21470649.12808  21470650.47008
 -13618379.23708 -10611709.82808  22771680.83008  22771682.26008
 -21856036.89609 -17030669.27109  20227043.68709  20227043.83309
    295493.65008    230254.19307  24883989.24208  24883991.89107
  -4195873.08708  -3269508.15708  24140639.13908  24140640.41208
 93 07 09 02 27 00.0000000  0  8 22 23 31 21 17 28 19 26
  -8660479.69908  -6748422.44808  23551643.52308  23551646.25508
 -22427148.61408 -17475684.29008  21123663.32608  21123664.13208
 -15595254.25708 -12152138.34908  22065919.53208  22065920.15608
 -21682412.66808 -16895371.41808  21443258.38508  21443259.71108
 -13423535.77708 -10459883.84108  22808758.30208  22808759.86608
 -21894173.87009 -17060386.38709  20219786.29909  20219786.43809
    397600.27508    309817.73107  24903419.46608  24903422.01807
  -4158552.53908  -3240427.23908  24147741.00808  24147742.21108
 93 07 09 02 28 00.0000000  0  8 22 23 31 21 17 28 19 26
  -8451718.35608  -6585751.40708  23591369.69708  23591372.35508
 -22422390.60108 -17471976.74408  21124568.75408  21124569.56808
 -15760385.50408 -12280812.00108  22034496.07908  22034496.74708
 -21824505.41308 -17006092.97708  21416218.92008  21416220.25108
 -13227947.96208 -10307477.82208  22845977.55508  22845979.01508
 -21930260.97809 -17088506.21409  20212919.25209  20212919.41109
    501407.97508    390706.78107  24923173.59308  24923175.90807
  -4119045.77408  -3209642.76308  24155258.69508  24155260.33408
 93 07 09 02 29 00.0000000  0  8 22 23 31 21 17 28 19 26
  -8242163.55408  -6422462.08808  23631246.71208  23631249.44808
 -22415475.76108 -17466588.55208  21125884.61208  21125885.44908
 -15924462.94808 -12408664.50908  22003273.17608  22003273.80208
 -21964743.17308 -17115369.09208  21389532.60708  21389533.86608
 -13031568.98608 -10154455.33208  22883347.26708  22883348.82908
 -21964282.03609 -17115016.13509  20206445.35009  20206445.47009
    606874.92208    472888.74907  24943243.59608  24943245.92207
  -4077287.29908  -3177103.72208  24163205.09208  24163206.86508
 93 07 09 02 30 00.0000000  0  8 22 23 31 21 17 28 19 26
  -8031960.17008  -6258667.37708  23671247.10208  23671249.86508
 -22406313.94108 -17459449.46708  21127628.06308  21127628.90308
 -16087373.97508 -12535608.12008  21972272.17708  21972272.79808
 -22103041.22008 -17223133.74008  21363215.31908  21363216.56808
 -12834403.29708 -10000819.80808  22920866.76708  22920868.30208
 -21996190.32709 -17139879.74809  20200373.43509  20200373.50709
    713993.27208    556357.57707  24963627.65108  24963629.94807
  -4033258.74408  -3142795.79908  24171583.37808  24171585.12208
 93 07 09 02 31 00.0000000  0  8 22 23 31 21 17 28 19 26
  -7821175.83008  -6094419.98808  23711358.30508  23711361.00808
 -22394819.06108 -17450492.41208  21129815.41608  21129816.23508
 -16249030.25508 -12661574.01008  21941509.96808  21941510.55208
 -22239447.83408 -17329424.54608  21337257.95108  21337259.22408
 -12636550.20008  -9846648.66908  22958517.06308  22958518.61908
 -22026009.77809 -17163115.68409  20194699.01109  20194699.13809
    822789.97308    641134.19107  24984331.01208  24984333.64607
  -3987023.42608  -3106768.32508  24180381.73808  24180383.54008
 93 07 09 02 32 00.0000000  0  8 22 23 31 21 17 28 19 26
  -7609776.96408  -5929693.74608  23751586.22408  23751588.97508
 -22380999.49408 -17439723.91208  21132445.28108  21132446.04208
 -16409431.29508 -12786561.79708  21910986.70708  21910987.28808
 -22374109.92808 -17434355.99108  21311632.53708  21311633.77808
 -12438084.78008  -9692000.37308  22996283.72208  22996285.40008
 -22053774.48109 -17184750.52009  20189415.39909  20189415.53009
    933232.13808    727192.95208  25005347.34808  25005350.01908
  -3938628.99808  -3069058.42308  24189590.99108  24189592.76408
 93 07 09 02 33 00.0000000  0  8 22 23 31 21 17 28 19 26
  -7397631.28708  -5764385.56908  23791956.30108  23791959.14208
 -22364863.13308 -17427150.11908  21135515.87008  21135516.63108
 -16568503.33608 -12910514.00508  21880716.22508  21880716.79808
 -22506945.34908 -17537864.05108  21286354.77908  21286356.01008
 -12238980.41708  -9536854.21408  23034172.20608  23034173.76008
 -22079423.14409 -17204736.49009  20184534.72809  20184534.84109
   1045274.43507    814498.55808  25026667.94707  25026671.18208
  -3888031.04708  -3029631.47808  24199219.45908  24199221.20508
 93 07 09 02 34 00.0000000  0  8 22 23 31 21 17 28 19 26
  -7184787.28608  -5598533.24308  23832459.21808  23832462.02508
 -22346462.18708 -17412811.71508  21139017.50408  21139018.28408
 -16726191.03008 -13033387.49808  21850709.26308  21850709.81908
 -22637771.11008 -17639806.14108  21261459.44308  21261460.65508
 -12039170.57208  -9381158.32908  23072194.76908  23072196.42708
 -22102880.12109 -17223014.65009  20180070.91909  20180071.03609
   1158898.67707    903036.79208  25048290.01107  25048293.16908
  -3835229.86208  -2988487.73808  24209267.27708  24209268.90308
 93 07 09 02 35 00.0000000  0  8 23 22 31 21 17 28 19 26
 -22325795.06508 -17396707.46208  21142950.27108  21142951.01408
  -6971364.15708  -5432229.64908  23873072.38108  23873075.25108
 -16882525.90008 -13155206.84608  21820959.63008  21820960.19408
 -22766599.54008 -17740191.86908  21236944.13008  21236945.26608
 -11838642.11108  -9224902.47008  23110354.15208  23110355.82708
 -22124092.30209 -17239543.62509  20176034.41009  20176034.54809
   1274138.46008    992833.95207  25070219.68608  25070222.41307
  -3780247.88008  -2945644.67608  24219730.16608  24219731.73108
 93 07 09 02 36 00.0000000  0  8 23 22 31 21 17 28 19 26
 -22302871.83308 -17378845.20708  21147312.40308  21147313.13108
  -6757422.42208  -5265521.94708  23913784.24708  23913787.11008
 -17037549.13808 -13276004.14308  21791459.72708  21791460.25808
 -22893541.20608 -17839107.39708  21212787.86708  21212789.01108
 -11637465.02608  -9068141.20008  23148636.98808  23148638.71108
 -22143048.89509 -17254314.99809  20172427.04709  20172427.19809
   1391054.25508   1083937.11107  25092468.26008  25092470.74707
  -3723115.30808  -2901125.86708  24230601.98008  24230603.85308
 93 07 09 02 37 00.0000000  0  8 23 22 31 21 17 28 19 26
 -22277710.83708 -17359239.23808  21152100.45408  21152101.15908
  -6543001.47208  -5098440.83908  23954587.18708  23954590.16708
 -17191297.39808 -13395807.94908  21762202.40008  21762202.93208
 -23018607.11708 -17936561.29408  21188988.55508  21188989.71508
 -11435712.71308  -8910931.69608  23187029.18008  23187030.92408
 -22159892.18309 -17267439.63609  20169221.88409  20169222.03309
   1509627.86608   1176332.10707  25115032.17208  25115034.38407
  -3663874.33408  -2854964.14208  24241875.24208  24241876.88008
 93 07 09 02 38 00.0000000  0  8 23 22 31 21 17 28 19 26
 -22250282.95708 -17337866.86508  21157319.82208  21157320.56108
  -6328026.35308  -4930927.91308  23995495.67408  23995498.66408
 -17343722.49708 -13514580.71808  21733196.80608  21733197.34508
 -23141745.03708 -18032512.87108  21165556.17908  21165557.25408
 -11233322.95108  -8753225.48008  23225542.83708  23225544.42108
 -22174735.61809 -17279005.95909  20166397.40409  20166397.57809
   1629770.78308   1269949.93807  25137894.49808  25137896.96807
  -3602533.90708  -2807166.42908  24253548.05208  24253549.80208
 93 07 09 02 39 00.0000000  0  8 23 22 31 21 17 28 19 26
 -22220609.57708 -17314744.75408  21162966.43008  21162967.17908
  -6112490.11808  -4762977.76108  24036511.07308  24036514.07208
 -17494778.29208 -13632286.49508  21704451.81208  21704452.35108
 -23262942.29708 -18126952.24708  21142493.04408  21142494.22508
 -11030232.47408  -8594973.26008  23264189.67108  23264191.36808
 -22187582.69409 -17289016.67009  20163952.54009  20163952.73309
   1751366.28808   1364699.61207  25161033.34308  25161036.14407
  -3539115.39908  -2757749.44108  24265616.19108  24265617.87908
 93 07 09 02 40 00.0000000  0  7 23 22 31 21 17 28 26
 -22188682.32708 -17289866.38208  21169041.97208  21169042.68908
  -5896425.14008  -4594615.58908  24077626.98108  24077629.98108
 -17644390.97208 -13748867.76808  21675981.39208  21675981.92208
 -23382134.36008 -18219829.12708  21119811.50608  21119812.65908
 -10826476.86708  -8436202.74808  23302963.09508  23302964.91708
 -22198282.99909 -17297354.57009  20161916.38609  20161916.52209
  -3473472.16708  -2706598.92208  24278107.69808  24278109.40708
 93 07 09 02 41 00.0000000  0  7 23 31 22 21 17 28 26
 -22154561.67108 -17263278.86308  21175534.93308  21175535.67908
 -17792553.78508 -13864319.27308  21647786.86308  21647787.40908
  -5679951.79208  -4425935.22108  24118820.75408  24118823.80608
 -23499250.14408 -18311088.13308  21097525.07208  21097526.22208
 -10622272.15908  -8277082.29708  23341821.98608  23341823.80508
 -22206736.73509 -17303941.89809  20160307.62409  20160307.77309
  -3405508.75208  -2653640.44708  24291040.76208  24291042.81808
 93 07 09 02 42 00.0000000  0  8 23 31 22 21 17 28 27 26
 -22118230.43708 -17234968.81608  21182448.58108  21182449.30708
 -17939328.76908 -13978689.35308  21619856.49508  21619857.00908
  -5463088.12608  -4256950.71708  24160088.62508  24160091.74408
 -23614309.11108 -18400744.42508  21075630.00208  21075631.11108
 -10417656.89708  -8117641.93908  23380759.20608  23380760.85208
 -22212931.04609 -17308768.63309  20159128.86309  20159129.04409
        -0.47218        -0.19017  24588388.11218  24588390.20117
  -3335267.32108  -2598906.89308  24304407.34108  24304408.93208
 93 07 09 02 43 00.0000000  0  8 23 31 22 21 17 28 27 26
 -22079611.74608 -17204876.33508  21189797.42208  21189798.11808
 -18084712.17908 -14091975.09008  21592190.98108  21592191.49108
  -5245752.03008  -4087598.10608  24201446.48908  24201449.70508
 -23727373.93308 -18488846.83908  21054114.48208  21054115.62308
 -10212438.38108  -7957731.51208  23419811.04708  23419812.85408
 -22216846.12309 -17311819.34309  20158383.87809  20158384.03609
     39614.05607     30868.30708  24595926.61007  24595928.86308
  -3262891.04208  -2542509.81908  24318179.82008  24318181.71008
 93 07 09 02 44 00.0000000  0  8 23 31 22 21 17 28 27 26
 -22038753.27908 -17173038.57508  21197572.58308  21197573.27108
 -18228725.60208 -14204193.30708  21564786.14708  21564786.62908
  -5027962.56308  -3917892.20308  24242890.51908  24242893.79508
 -23838429.40508 -18575383.52808  21032981.31308  21032982.40808
 -10006527.78308  -7797281.79008  23458994.52408  23458996.47408
 -22218529.41709 -17313130.99909  20158063.58309  20158063.72909
     81548.18407     63544.22308  24603906.13507  24603908.60908
  -3188548.77808  -2484580.84008  24332327.12608  24332328.41308
 93 07 09 02 45 00.0000000  0  8 23 31 21 22 17 28 27 26
 -21995726.59208 -17139511.29108  21205760.26208  21205760.98508
 -18371238.07008 -14315241.94708  21537666.86108  21537667.32108
 -23947413.07408 -18660305.82808  21012242.38908  21012243.50708
  -4809774.75208  -3747875.90608  24284410.47408  24284413.73108
  -9800072.68508  -7636407.78608  23498281.65708  23498283.65808
 -22218026.05409 -17312738.77109  20158159.43009  20158159.58609
    125818.52108     98040.53808  24612330.92408  24612333.16608
  -3112306.36708  -2425171.20108  24346835.17708  24346836.82508
 93 07 09 02 46 00.0000000  0  8 23 31 17 22 21 28 27 26
 -21950557.90708 -17104314.91608  21214355.59408  21214356.29308
 -18512151.68108 -14425044.72308  21510851.88708  21510852.31908
  -9593253.00008  -7475249.68408  23537638.25108  23537640.22808
  -4591213.26308  -3577568.42408  24326001.41508  24326004.75508
 -24054291.00908 -18743587.29408  20991904.18608  20991905.28608
 -22215326.07109 -17310634.89309  20158673.15009  20158673.32209
    172459.12008    134383.88407  24621206.21308  24621208.35107
  -3034049.85008  -2364192.14808  24361727.09608  24361729.12708
 93 07 09 02 47 00.0000000  0  8 23 31 17 22 21 28 27 26
 -21903176.89508 -17067394.65308  21223371.87308  21223372.58708
 -18651431.35208 -14533574.30708  21484347.84508  21484348.26508
  -9385988.50708  -7313744.98208  23577079.49608  23577081.42708
  -4372269.19208  -3406962.83408  24367665.26708  24367668.64308
 -24159053.86208 -18825220.65008  20971968.46008  20971969.52508
 -22210455.27609 -17306839.47509  20159600.09109  20159600.23709
    221493.31008    172592.35607  24630537.40608  24630539.13707
  -2953607.81508  -2301510.13908  24377034.74408  24377036.55008
 93 07 09 02 48 00.0000000  0  8 23 31 17 22 21 28 27 26
 -21853602.61408 -17028765.35108  21232805.53908  21232806.28208
 -18789126.80708 -14640869.44008  21458145.22408  21458145.62608
  -9178165.22908  -7151804.87508  23616627.03208  23616629.03408
  -4152956.56008  -3236070.08108  24409399.06708  24409402.60508
 -24261715.33508 -18905216.56908  20952432.58508  20952433.66508
 -22203498.83009 -17301418.87509  20160923.86009  20160923.96409
    272812.59107    212581.39807  24640302.82607  24640304.44407
  -2871018.59308  -2237154.91108  24392751.10208  24392752.81808
 93 07 09 02 49 00.0000000  0  7 23 31 17 22 26 28 21
 -21801842.69808 -16988432.95808  21242655.16308  21242655.89908
 -18925244.08308 -14746934.82408  21432242.98708  21432243.39108
  -8969676.38908  -6989346.16708  23656301.28708  23656303.23608
  -3933234.34308  -3064858.16008  24451210.97208  24451214.57808
  -2786344.77008  -2171175.37308  24408863.81408  24408865.87708
 -22194309.74309 -17294258.55009  20162672.48809  20162672.62509
 -24362204.62508 -18983519.87808  20933310.06208  20933311.11208
 93 07 09 02 50 00.0000000  0  7 23 31 22 21 17 28 26
 -21748005.19108 -16946481.66808  21252900.13608  21252900.83108
 -19059902.75408 -14851863.63608  21406618.22308  21406618.62708
  -3713291.18908  -2893474.07508  24493064.90108  24493068.62208
 -24460594.23108 -19060187.07208  20914587.09208  20914588.15208
  -8760608.89308  -6826436.54108  23696085.53008  23696087.60508
 -22182846.05309 -17285325.80409  20164853.96009  20164854.10109
  -2699644.62708  -2103616.87308  24425362.60508  24425364.03108
 93 07 09 02 51 00.0000000  0  7 23 31 22 17 26 21 28
 -21692038.53508 -16902871.30008  21263550.24808  21263550.93608
 -19193090.64908 -14955646.38308  21381273.47108  21381273.84408
  -3493197.61708  -2721972.78108  24534947.43908  24534951.09308
  -8551044.75408  -6663139.91008  23735964.41408  23735966.46908
  -2610839.90208  -2034418.40608  24442261.57708  24442263.40308
 -24556919.31108 -19135245.54108  20896257.03408  20896258.05108
 -22169113.05609 -17274624.76809  20167467.26009  20167467.40609
 93 07 09 02 52 00.0000000  0  7 23 31 22 21 17 28 26
 -21633906.06908 -16857573.28508  21274612.47308  21274613.19908
 -19324722.15108 -15058216.35808  21356224.76008  21356225.12508
  -3272979.97808  -2550374.80307  24576853.61608  24576857.11807
 -24651226.50608 -19208731.63408  20878311.02508  20878311.96008
  -8341139.01908  -6499577.11708  23775908.18108  23775910.19108
 -22153223.97209 -17262243.66109  20170490.85909  20170490.99709
  -2520043.94708  -1963668.35708  24459539.50608  24459541.20308
 93 07 09 02 53 00.0000000  0  7 23 31 22 21 17 28 26
 -21573617.53408 -16810595.21808  21286085.00208  21286085.72208
 -19454718.36308 -15159512.08108  21331487.30408  21331487.69108
  -3052612.81908  -2378660.32207  24618788.14908  24618791.88907
 -24743444.66308 -19280589.90408  20860762.47008  20860763.42608
  -8130981.99908  -6335818.51808  23815899.79308  23815901.91408
 -22135198.15709 -17248197.58109  20173920.94009  20173921.09809
  -2427362.33208  -1891448.95108  24477176.22308  24477177.81908
 93 07 09 02 54 00.0000000  0  8 23 31 22 21 17 28 15 26
 -21511236.51808 -16761986.64908  21297955.69608  21297956.48908
 -19583041.19308 -15259503.87108  21307068.22408  21307068.57708
  -2832065.81708  -2206805.70207  24660757.03608  24660760.71607
 -24833430.64208 -19350708.81308  20843638.65908  20843639.62208
  -7920538.45608  -6171836.65008  23855946.00308  23855948.16308
 -22114913.03509 -17232391.00309  20177781.13109  20177781.29909
        -0.35917        -0.62817  25169690.07817  25169692.86717
  -2332764.93208  -1817736.73908  24495177.63108  24495179.84708
 93 07 09 02 55 00.0000000  0  8 23 31 22 21 17 28 15 26
 -21446769.87908 -16711752.92408  21310223.29808  21310224.07308
 -19709696.69308 -15358196.44208  21282966.49108  21282966.84608
  -2611255.36908  -2034745.78407  24702776.05208  24702779.79407
 -24921159.77008 -19419069.13908  20826944.34508  20826945.27908
  -7709653.21108  -6007510.58908  23896076.21008  23896078.36508
 -22092292.68209 -17214764.75809  20182085.64509  20182085.80409
   -217987.43007   -169860.55107  25128208.36707  25128212.19807
  -2236101.39808  -1742414.57208  24513572.06708  24513573.46608
 93 07 09 02 56 00.0000000  0  8 23 31 22 21 17 28 15 26
 -21380945.12308 -16660460.92508  21322749.39008  21322750.16408
 -19835448.52208 -15456184.85708  21259036.65408  21259036.99908
  -2390884.61608  -1863028.51007  24744711.49508  24744715.22807
 -25007474.54708 -19486327.37708  20810519.17708  20810520.16608
  -7498944.33008  -5843321.96108  23936172.84408  23936175.05008
 -22068121.50409 -17195930.08509  20186685.33009  20186685.49909
   -436490.88808   -340122.76407  25086628.94308  25086631.61507
  -2138050.44008  -1666011.29208  24532230.45308  24532232.72508
 93 07 09 02 57 00.0000000  0  8 23 31 22 21 17 28 15 26
 -21314388.08008 -16608598.31408  21335414.70508  21335415.47008
 -19960962.62208 -15553988.03508  21235152.10808  21235152.47708
  -2171724.65208  -1692254.69608  24786416.53608  24786420.26408
 -25093015.74408 -19552982.82808  20794241.19808  20794242.11708
  -7289062.75408  -5679777.99508  23976112.05108  23976114.19508
 -22043104.13009 -17176436.03309  20191445.98909  20191446.12209
   -656170.75307   -511301.72807  25044824.54507  25044827.84607
  -2039365.46008  -1589114.01908  24551009.82808  24551011.50408
 93 07 09 02 58 00.0000000  0  8 23 31 22 21 17 28 15 26
 -21244186.79608 -16553896.03508  21348773.61308  21348774.36208
 -20083320.90808 -15649332.13908  21211868.12008  21211868.45108
  -1951060.97708  -1520309.15708  24828407.45608  24828411.32208
 -25174789.98008 -19616702.98408  20778680.06708  20778680.98008
  -7077231.46908  -5514714.78208  24016422.35108  24016424.56508
 -22014347.89909 -17154028.59109  20196918.14109  20196918.29609
   -874163.58107   -681166.16307  25003342.07607  25003345.08207
  -1937266.14208  -1509556.15308  24570438.62208  24570440.66608
 93 07 09 02 59 00.0000000  0  8 23 31 22 21 17 28 15 26
 -21171004.95808 -16496871.24308  21362699.70408  21362700.47008
 -20203065.34808 -15742639.47808  21189081.48008  21189081.85508
  -1729568.87008  -1347718.10108  24870556.16308  24870560.06908
 -25253477.03108 -19678017.54208  20763706.31308  20763707.26508
  -6864237.97308  -5348745.94708  24056953.76908  24056955.92808
 -21982510.69109 -17129220.38609  20202976.56509  20202976.72209
  -1091134.70607   -850234.34908  24962053.41607  24962057.05908
  -1832454.94208  -1427885.21408  24590383.57108  24590385.58808
 93 07 09 03 00 00.0000000  0  8 23 31 22 21 17 28 15 26
 -21095507.50908 -16438042.07708  21377066.40908  21377067.15708
 -20320749.10208 -15834341.08408  21166686.96308  21166687.34108
  -1507709.50108  -1174840.84708  24912774.70308  24912778.65108
 -25329773.76408 -19737469.51608  20749187.56208  20749188.46608
  -6650712.72808  -5182362.75708  24097586.33608  24097588.60908
 -21948195.93509 -17102481.62109  20209506.47009  20209506.60209
  -1307656.96408  -1018952.83407  24920850.88608  24920853.38407
  -1725538.75808  -1344573.93908  24610729.15308  24610730.68808
 93 07 09 03 01 00.0000000  0  8 23 31 22 21 17 28 15 26
 -21018079.67908 -16377708.72008  21391800.41508  21391801.17708
 -20436683.27308 -15924679.37808  21144625.34408  21144625.72208
  -1285677.02508  -1001828.72208  24955026.08208  24955030.20308
 -25403939.76508 -19795261.18308  20735074.25608  20735075.12508
  -6436895.98008  -5015752.44108  24138274.30008  24138276.62308
 -21911605.66909 -17073969.73409  20216469.38509  20216469.55509
  -1523955.22507  -1187496.83907  24879690.26707  24879693.45307
  -1616746.44308  -1259800.76408  24631431.78208  24631434.18008
 93 07 09 03 02 00.0000000  0  7 23 31 22 21 17 28 15
 -20938823.01708 -16315950.29808  21406882.48308  21406883.23408
 -20551034.34108 -16013784.08408  21122865.12108  21122865.49208
  -1063623.86207   -828800.48408  24997281.58407  24997285.77908
 -25475968.85608 -19851387.72508  20721367.53408  20721368.42108
  -6222851.72608  -4848964.81308  24179005.62408  24179008.03208
 -21872809.72609 -17043739.14509  20223851.97509  20223852.13909
  -1740099.03407  -1355920.36207  24838559.28307  24838562.43407
 93 07 09 03 03 00.0000000  0  7 23 31 22 21 17 28 15
 -20857539.41908 -16252612.44808  21422350.25508  21422351.05908
 -20663744.19208 -16101609.92308  21101417.12908  21101417.48808
   -841626.32807   -655815.57708  25039526.38507  25039530.68608
 -25545766.59608 -19905775.55608  20708085.45108  20708086.35008
  -6008541.74108  -4681970.12408  24219787.70908  24219789.98208
 -21831817.28409 -17011796.99609  20231652.58309  20231652.74009
  -1956059.52508  -1524201.20907  24797463.58008  24797466.10507
 93 07 09 03 04 00.0000000  0  8 23 31 22 21 17 28 15 01
 -20774138.81408 -16187624.98408  21438220.88908  21438221.68408
 -20774688.48208 -16188060.00508  21080305.09508  21080305.44308
   -619669.50307   -482862.42608  25081763.51007  25081767.79708
 -25613351.07408 -19958438.76808  20695224.50808  20695225.41608
  -5793923.72708  -4514735.47608  24260628.34408  24260630.45908
 -21788662.50309 -16978169.90409  20239864.69309  20239864.80609
  -2171818.87807  -1692325.16708  24756405.46007  24756408.96808
        -0.70217        -0.47917  25225127.73617  25225132.18017
 93 07 09 03 05 00.0000000  0  8 23 31 22 21 17 28 15 01
 -20688874.78608 -16121185.50008  21454446.05808  21454446.88408
 -20883891.26708 -16273153.07108  21059524.47008  21059524.81508
   -397855.75707   -310020.75908  25123973.42907  25123977.78808
 -25678850.92908 -20009477.59808  20682760.32808  20682761.24208
  -5579126.37808  -4347361.06008  24301502.87008  24301505.22108
 -21743442.61509 -16942933.64809  20248469.67609  20248469.84709
  -2387494.81008  -1860384.17607  24715363.95608  24715366.50307
   -211332.84307   -164674.63907  25184912.35807  25184916.75007
 93 07 09 03 06 00.0000000  0  8 23 31 22 21 17 28 15 01
 -20601799.22408 -16053334.43508  21471016.03008  21471016.85008
 -20991278.02908 -16356831.04808  21039089.52008  21039089.84508
   -176174.16307   -137282.06307  25166158.23907  25166162.58707
 -25742154.72208 -20058805.21008  20670713.97608  20670714.87408
  -5364090.98008  -4179801.10407  24342422.78808  24342425.13307
 -21696035.19909 -16905992.82609  20257491.05909  20257491.20309
  -2603022.67407  -2028327.86508  24674349.70307  24674353.01008
   -422840.20407   -329485.27407  25144663.54807  25144667.94407
 93 07 09 03 07 00.0000000  0  8 23 31 22 21 17 28 15 01
 -20512828.81808 -15984006.87108  21487946.65208  21487947.45608
 -21096953.22308 -16439175.33108  21018980.10408  21018980.42108
     45326.29607     35315.48207  25208308.50707  25208312.80907
 -25803222.03708 -20106390.10908  20659093.23108  20659094.15908
  -5148791.31208  -4012035.26208  24383393.17108  24383395.62708
 -21646414.98109 -16867327.73309  20266933.34309  20266933.51609
  -2818360.68608  -2196123.50808  24633372.61408  24633375.47408
   -634406.62807   -494341.93607  25104403.58207  25104407.97307
 93 07 09 03 08 00.0000000  0  8 23 31 22 21 17 28 15 01
 -20421894.51108 -15913148.99708  21505250.77408  21505251.60708
 -21200914.94708 -16520184.45108  20999196.84708  20999197.19308
    266659.33307    207782.56507  25250426.97707  25250431.25607
 -25862050.10008 -20152230.13408  20647898.58508  20647899.51308
  -4933233.17808  -3844068.01608  24424412.69308  24424414.92908
 -21594622.75309 -16826970.17109  20276789.09609  20276789.28009
  -3033480.53607  -2363749.20508  24592436.24607  24592439.13308
   -845915.07207   -659153.42607  25064154.68607  25064158.90507
 93 07 09 03 09 00.0000000  0  8 23 22 31 21 17 28 15 01
 -20329046.39108 -15840799.84308  21522919.18908  21522920.03408
    487876.48207    380159.39807  25292523.31607  25292527.65407
 -21303068.80008 -16599784.85008  20979757.68608  20979758.00108
 -25918690.00508 -20196365.10408  20637120.36108  20637121.26708
  -4717470.17808  -3675941.16208  24465470.92608  24465473.49008
 -21540665.79509 -16784925.80609  20287056.78609  20287056.95009
  -3248365.84808  -2531192.17808  24551544.94008  24551547.80908
  -1057333.62107   -823894.90407  25023922.92107  25023927.13307
 93 07 09 03 10 00.0000000  0  8 23 22 31 21 17 28 15 01
 -20234337.15608 -15767000.47008  21540941.85808  21540942.75008
    708915.53607    552397.46807  25334585.79107  25334589.99207
 -21403359.55808 -16677933.48408  20960672.91308  20960673.24608
 -25973192.86208 -20238834.84608  20626748.76808  20626749.70808
  -4501544.39108  -3507687.36508  24506560.44808  24506563.12608
 -21484537.99009 -16741189.87609  20297737.74209  20297737.91509
  -3463011.47808  -2698448.31708  24510699.10008  24510702.04708
  -1268684.03207   -988583.31808  24983704.17107  24983708.25908
 93 07 09 03 11 00.0000000  0  8 23 22 31 21 17 28 15 01
 -20137721.24708 -15691715.37808  21559327.28708  21559328.16108
    929822.59608    724532.72007  25376623.24108  25376627.33307
 -21501713.19908 -16754572.67508  20941956.81108  20941957.13608
 -26025497.08708 -20279591.36908  20616795.60608  20616796.51208
  -4285374.33008  -3339243.41608  24547696.12508  24547699.12808
 -21426173.11609 -16695710.77009  20308844.22509  20308844.38209
  -3677338.62108  -2865456.31408  24469913.86908  24469916.43708
  -1479950.22807  -1153206.12008  24943501.42207  24943505.40608
 93 07 09 03 12 00.0000000  0  8 23 22 31 21 17 28 15 01
 -20039165.02608 -15614918.35908  21578081.88108  21578082.77708
   1150599.36908    896566.44807  25418635.76108  25418640.12807
 -21598107.06508 -16829684.76908  20923613.70808  20923614.02208
 -26075526.06008 -20318574.97608  20607275.42808  20607276.30608
  -4068973.82107  -3170619.65108  24588875.89407  24588878.60608
 -21365491.47609 -16648426.39409  20320391.56909  20320391.76609
  -3891331.33708  -3032203.71308  24429192.19208  24429195.10708
  -1691100.17207  -1317738.30708  24903320.77807  24903324.75708
 93 07 09 03 13 00.0000000  0  8 23 22 31 21 17 28 15 01
 -19938717.12908 -15536647.30308  21597196.46608  21597197.39808
   1371203.11507   1068465.32907  25460615.17107  25460619.75907
 -21692592.19408 -16903309.54108  20905633.70808  20905634.05008
 -26123190.00308 -20355715.70208  20598205.22008  20598206.11708
  -3852434.33207  -3001887.85608  24630082.18907  24630085.46308
 -21302463.40509 -16599313.63009  20332385.36309  20332385.57809
  -4105021.82908  -3198715.60308  24388528.26908  24388530.93508
  -1902115.52208  -1482165.63408  24863165.68308  24863169.66708
 93 07 09 03 14 00.0000000  0  8 23 22 31 21 17 28 15 01
 -19836384.80208 -15456907.85808  21616669.72608  21616670.63108
   1591610.41407   1240211.13007  25502557.43407  25502562.07407
 -21785176.49308 -16975453.14908  20888015.53208  20888015.85308
 -26168409.98408 -20390952.04208  20589600.17908  20589601.06808
  -3635685.62808  -2832992.83007  24671328.33108  24671330.44907
 -21237145.09909 -16548416.26909  20344815.02109  20344815.26109
  -4318357.70008  -3364951.19108  24347931.58108  24347934.22308
  -2112931.86508  -1646437.91208  24823048.55108  24823052.47708
 93 07 09 03 15 00.0000000  0  8 23 22 31 21 17 28 15 01
 -19732285.87708 -15375791.84408  21636479.04308  21636479.98408
   1811677.08507   1411691.48907  25544434.71007  25544439.60607
 -21875915.92708 -17046159.19708  20870748.40208  20870748.70108
 -26211361.47208 -20424420.72608  20581426.77408  20581427.65108
  -3418701.51507  -2663914.45108  24712618.76307  24712622.37708
 -21169775.13709 -16495920.22109  20357635.22709  20357635.47209
  -4531419.49208  -3530973.23608  24307387.15508  24307389.89208
  -2323625.07908  -1810614.24308  24782954.76708  24782958.57608
 93 07 09 03 16 00.0000000  0  7 23 17 31 21 28 15 01
 -19626372.34408 -15293261.84808  21656633.76408  21656634.70708
  -3201480.81108  -2494651.78308  24753955.13708  24753957.82908
 -21964686.10809 -17115330.76008  20853856.04609  20853856.37508
 -26252157.26708 -20456209.64708  20573663.54408  20573664.43508
 -21100332.83309 -16441809.35809  20370849.50509  20370849.78509
  -4744158.68008  -3696743.88708  24266904.19108  24266906.59408
  -2534129.67608  -1974643.62107  24742896.93208  24742900.51307
 93 07 09 03 17 00.0000000  0  7 23 31 21 17 28 15 01
 -19518583.31908 -15209270.42608  21677145.31308  21677146.26208
 -22051460.54109 -17182947.19508  20837343.36909  20837343.67208
 -26290782.97608 -20486307.59508  20566313.35808  20566314.24108
  -2984125.12607  -2325283.71007  24795315.93307  24795318.73707
 -21028648.65909 -16385951.58509  20384490.62409  20384490.97809
  -4956528.88208  -3862227.01208  24226491.27308  24226493.92408
  -2744329.52007  -2138435.54307  24702896.99207  24702900.19207
 93 07 09 03 18 00.0000000  0  8 23 26 31 21 17 28 15 01
 -19408896.50408 -15123800.20808  21698018.13108  21698019.03908
        -0.45317        -0.47017  25034875.95417  25034878.41017
 -22136275.87309 -17249037.06308  20821203.58009  20821203.87508
 -26327045.37808 -20514564.00608  20559412.81908  20559413.71208
  -2766599.09608  -2155783.10208  24836710.75008  24836713.62908
 -20954573.26909 -16328230.53309  20398586.73109  20398587.07309
  -5168471.35208  -4027376.83608  24186159.95608  24186162.18908
  -2954141.37007  -2301925.11807  24662970.81607  24662974.43607
 93 07 09 03 19 00.0000000  0  8 23 26 31 21 17 28 15 01
 -19297488.36608 -15036988.70308  21719218.44708  21719219.33808
    139784.44408    108922.66808  25061476.82108  25061479.60308
 -22219274.11009 -17313711.01208  20805409.51309  20805409.80708
 -26360996.64708 -20541019.53308  20552952.06008  20552952.94308
  -2548942.77707  -1986180.95507  24878128.54807  24878131.75407
 -20878304.72009 -16268800.51909  20413100.08709  20413100.45209
  -5380113.17308  -4192292.38208  24145885.58308  24145888.06808
  -3163753.09707  -2465258.70707  24623082.96707  24623086.72907
 93 07 09 03 20 00.0000000  0  8 23 26 31 21 17 28 15 01
 -19184275.96308 -14948771.27908  21740762.11708  21740762.98108
    281250.70407    219156.06007  25088396.41907  25088398.35407
 -22300266.28109 -17376821.79308  20789997.23309  20789997.52608
 -26392537.81008 -20565597.05708  20546950.02008  20546950.90008
  -2331020.87808  -1816371.71207  24919598.50508  24919600.48207
 -20799849.59909 -16207666.69209  20428029.75109  20428030.12009
  -5591343.13308  -4356887.02508  24105689.82508  24105692.27108
  -3373102.21508  -2628387.62108  24583245.06508  24583248.82908
 93 07 09 03 21 00.0000000  0  8 23 26 31 21 17 28 15 01
 -19069335.15808 -14859207.04708  21762634.60708  21762635.52408
    424361.13308    330670.63307  25115630.09808  25115632.49307
 -22379184.22009 -17438316.28408  20774979.65309  20774979.93408
 -26421787.71708 -20588389.18408  20541383.90108  20541384.84308
  -2112958.24908  -1646452.87808  24961094.51908  24961097.60008
 -20719299.20109 -16144900.17409  20443357.91709  20443358.23909
  -5802210.66708  -4521199.24108  24065563.01108  24065565.33508
  -3582152.93508  -2791284.02708  24543464.00508  24543467.54108
 93 07 09 03 22 00.0000000  0  8 23 26 31 21 17 28 15 01
 -18952655.92908 -14768288.20008  21784837.92108  21784838.80708
    569087.73407    443444.53707  25143170.27407  25143172.48907
 -22455944.71309 -17498129.64608  20760372.59909  20760372.90808
 -26448821.68708 -20609454.61108  20536239.52108  20536240.44508
  -1894776.25807  -1476441.22307  25002612.79007  25002616.21107
 -20636597.73509 -16080457.50209  20459095.49009  20459095.79609
  -6012681.20908  -4685202.14708  24025511.64508  24025513.95908
  -3790705.73408  -2953792.47308  24503777.47508  24503781.08308
 93 07 09 03 23 00.0000000  0  8 23 26 31 21 17 28 15 01
 -18834280.41208 -14676047.57308  21807364.01308  21807364.97408
    715417.80708    557467.92007  25171016.11808  25171019.02207
 -22530628.84909 -17556325.07408  20746160.61509  20746160.94708
 -26473658.29008 -20628807.80508  20531513.27008  20531514.17608
  -1676461.66108  -1306325.96007  25044157.24508  25044159.57007
 -20551677.83609 -16014286.18109  20475255.35309  20475255.65109
  -6222733.07308  -4848878.78608  23985539.90608  23985542.31008
  -3998751.02908  -3115905.48308  24464187.58408  24464191.07608
 93 07 09 03 24 00.0000000  0  8 23 26 31 21 17 28 15 01
 -18714220.32008 -14582494.29408  21830210.70808  21830211.67408
    863311.10707    672709.42007  25199159.18507  25199161.36107
 -22603263.97009 -17612923.86208  20732338.61309  20732338.93508
 -26496181.74208 -20646358.54508  20527227.20908  20527228.10008
  -1458009.33408  -1136103.40207  25085727.28708  25085730.38907
 -20464521.42809 -15946372.13009  20491840.63709  20491840.91009
  -6432346.49508  -5012213.80408  23945651.84308  23945654.07608
  -4206437.23007  -3277738.67008  24424665.96107  24424669.44208
 93 07 09 03 25 00.0000000  0  8 23 26 31 21 17 28 15 01
 -18592505.30508 -14487651.46308  21853372.34308  21853373.34508
   1012573.69707    789017.91207  25227562.98307  25227565.67007
 -22673867.38409 -17667939.50808  20718903.28909  20718903.61608
 -26516336.89308 -20662063.85508  20523391.79708  20523392.69408
  -1239538.76107   -965866.82207  25127300.61807  25127304.27007
 -20375228.94909 -15876793.61009  20508832.47709  20508832.74209
  -6641592.94608  -5175262.85408  23905833.46608  23905835.84608
  -4413826.32507  -3439340.36508  24385200.93207  24385204.31608
 93 07 09 03 26 00.0000000  0  8 23 26 31 21 17 28 15 01
 -18469032.42008 -14391438.86808  21876868.48908  21876869.53708
   1163252.11708    906429.59807  25256236.23608  25256238.43307
 -22742285.76809 -17721252.52808  20705883.65109  20705883.96108
 -26534088.18208 -20675896.02908  20520013.87208  20520014.74808
  -1020957.45808   -795543.84407  25168895.79508  25168898.80007
 -20283719.86409 -15805487.86508  20526246.12209  20526246.41908
  -6850403.81308  -5337972.50708  23866098.07808  23866100.28008
  -4620732.93108  -3600566.12808  24345827.91608  24345831.06808
 93 07 09 03 27 00.0000000  0  8 23 15 26 31 21 17 28 01
 -18343804.04208 -14293858.35408  21900698.69108  21900699.71508
  -7058786.06708  -5500348.16908  23826444.15108  23826446.32208
   1315379.87708   1024970.80407  25285185.23308  25285187.58607
 -22808592.61809 -17772920.19808  20693265.87609  20693266.16808
 -26549562.75708 -20687954.13608  20517069.12308  20517070.03608
   -802230.96107   -625107.63807  25210518.12407  25210521.12207
 -20190056.20109 -15732503.21508  20544069.56909  20544069.87008
  -4827151.81308  -3761411.85008  24306547.70208  24306550.77508
 93 07 09 03 28 00.0000000  0  7 23 15 26 31 21 28 01
 -18216858.61308 -14194939.87608  21924855.64108  21924856.67408
  -7266727.93708  -5662380.68808  23786873.95908  23786876.20708
   1469010.39008   1144682.77407  25314420.29508  25314422.77607
 -22872929.47209 -17823052.80508  20681022.92909  20681023.24308
 -26562835.63108 -20698296.63508  20514543.36408  20514544.27708
 -20094314.60909 -15657899.40608  20562288.61009  20562288.89608
  -5033125.83908  -3921910.92808  24267351.98308  24267355.10808
 93 07 09 03 29 00.0000000  0  7 23 15 01 26 31 21 28
 -18088304.65108 -14094768.00508  21949318.74408  21949319.77208
  -7474214.41108  -5824058.34608  23747390.59708  23747392.71508
  -5238613.59008  -4082031.08808  24228248.81808  24228251.96408
   1624093.33607   1265526.73307  25343931.31207  25343933.12907
 -22935270.44209 -17871630.18208  20669159.87709  20669160.16908
 -26573884.51708 -20706906.15908  20512440.85808  20512441.75008
 -19996515.13709 -15581692.05708  20580899.43709  20580899.77608
 93 07 09 03 30 00.0000000  0  7 23 15 26 31 21 28 01
 -17958184.54208 -13993375.76308  21974079.78708  21974080.85108
  -7681160.75408  -5985315.13408  23708009.88108  23708011.98908
   1780607.50307   1387485.81907  25373715.15207  25373718.25807
 -22995445.21709 -17918519.61508  20657709.03209  20657709.33308
 -26582597.87208 -20713695.78608  20510782.75708  20510783.68108
 -19896546.50809 -15503794.46308  20599922.79109  20599923.12108
  -5443454.02408  -4241646.82908  24189268.82508  24189271.85808
 93 07 09 03 31 00.0000000  0  7 23 15 01 26 31 21 28
 -17826440.89408 -13890718.42308  21999149.77308  21999150.79908
  -7887542.31608  -6146131.83008  23668736.62908  23668738.89208
  -5647627.56708  -4400742.92208  24150415.74208  24150418.77308
   1938564.55307   1510569.18207  25403773.19807  25403775.05707
 -23053382.88709 -17963665.85508  20646683.78809  20646684.06908
 -26588901.34308 -20718607.58208  20509583.25808  20509584.12008
 -19794319.55009 -15424137.12808  20619375.99609  20619376.34708
 93 07 09 03 32 00.0000000  0  7 23 15 26 31 21 28 01
 -17693041.89408 -13786771.19808  22024534.80108  22024535.85208
  -8093448.45208  -6306578.09108  23629553.99408  23629556.09208
   2097871.68707   1634704.70208  25434088.23207  25434091.47908
 -23109159.41509 -18007128.08408  20636069.84309  20636070.11708
 -26592875.73208 -20721704.50908  20508826.97108  20508827.81908
 -19689883.77509 -15342758.63808  20639249.48909  20639249.86908
  -5851210.18908  -4559378.55908  24111675.04208  24111678.04208
 93 07 09 03 33 00.0000000  0  6 23 15 01 31 21 28
 -17557979.46408 -13681527.79508  22050236.33908  22050237.40308
  -8298855.57508  -6466635.49908  23590466.18608  23590468.35508
  -6054148.59208  -4717512.21808  24073056.99508  24073060.01408
 -23162786.98509 -18048915.79808  20625864.90109  20625865.14308
 -26594484.58008 -20722958.15508  20508520.84008  20508521.70208
 -19583273.52909 -15259685.75908  20659536.70509  20659537.12308
 93 07 09 03 34 00.0000000  0  6 23 15 01 31 21 28
 -17421455.22508 -13575145.32108  22076216.13608  22076217.23708
  -8503832.15908  -6626357.43708  23551460.47508  23551462.47908
  -6256499.00308  -4875187.69608  24034550.97808  24034553.84808
 -23214392.59609 -18089127.96508  20616044.72709  20616045.00208
 -26593870.54608 -20722479.68808  20508637.67908  20508638.52608
 -19474651.80209 -15175045.49408  20680206.66309  20680207.09808
 93 07 09 03 35 00.0000000  0  7 23 15 01 02 31 21 28
 -17283452.16308 -13467610.52208  22102477.21408  22102478.38208
  -8708296.60808  -6785680.30808  23512552.06608  23512554.11108
  -6458173.26608  -5032336.30908  23996173.49108  23996176.40408
        -0.86917        -0.28217  25530566.87617  25530570.26017
 -23263892.17509 -18127699.06808  20606625.23409  20606625.52308
 -26591036.07308 -20720271.01108  20509177.10908  20509177.93008
 -19364001.67809 -15088824.65608  20701262.79309  20701263.18308
 93 07 09 03 36 00.0000000  0  7 23 15 01 02 31 21 28
 -17143941.17508 -13358900.71908  22129025.38808  22129026.55408
  -8912227.18708  -6944587.15808  23473745.32208  23473747.20908
  -6659157.87308  -5188947.54308  23957927.29208  23957930.14808
   -176675.49107   -137668.76107  25496946.73207  25496950.03707
 -23311139.13309 -18164514.87408  20597634.56009  20597634.86308
 -26585978.27509 -20716329.87508  20510139.51609  20510140.36708
 -19251324.03608 -15001023.93908  20722704.50708  20722704.99708
 93 07 09 03 37 00.0000000  0  7 23 15 01 02 31 21 28
 -17002883.29108 -13248985.54308  22155867.78808  22155868.93408
  -9115601.07408  -7103060.23208  23435044.51408  23435046.48108
  -6859471.79208  -5345036.16008  23919808.70208  23919811.54208
   -352162.37907   -274411.65207  25463552.69307  25463556.10207
 -23356061.96709 -18199519.67608  20589085.87509  20589086.17608
 -26578613.23209 -20710590.88708  20511541.03909  20511541.88908
 -19136571.14708 -14911606.15408  20744541.45508  20744541.89708
 93 07 09 03 38 00.0000000  0  7 23 15 01 02 31 21 28
 -16860300.54608 -13137882.16008  22183000.41808  22183001.53008
  -9318401.69308  -7261086.59408  23396452.79208  23396454.64608
  -7059049.66308  -5500551.22308  23881830.09108  23881832.95508
   -526349.12707   -410141.49707  25430405.90507  25430409.30007
 -23398722.46109 -18232761.62008  20580967.90109  20580968.21208
 -26568905.37209 -20703026.33008  20513388.46709  20513389.27608
 -19019709.25408 -14820544.98108  20766779.60408  20766780.08608
 93 07 09 03 39 00.0000000  0  7 23 15 01 02 31 21 28
 -16716259.36308 -13025642.33608  22210410.61308  22210411.70308
  -9520640.32808  -7418675.03708  23357967.93908  23357969.82108
  -7257810.63908  -5655429.76008  23844007.07708  23844009.79208
   -699172.24807   -544808.72807  25397518.81007  25397522.09407
 -23439166.13209 -18264276.16408  20573271.71409  20573272.01008
 -26556942.86709 -20693704.90908  20515664.83709  20515665.69708
 -18900753.13408 -14727851.95508  20789416.14708  20789416.61508
 93 07 09 03 40 00.0000000  0  7 23 15 01 02 31 21 28
 -16572079.28308 -12913294.27308  22237847.24008  22237848.33108
  -9723568.82008  -7576801.03608  23319351.80808  23319353.79208
  -7456968.57508  -5810617.64108  23806108.58008  23806111.17308
   -871885.54607   -679390.42607  25364652.37007  25364655.54307
 -23478642.57809 -18295037.03508  20565759.58009  20565759.86108
 -26544026.26809 -20683640.03408  20518122.79609  20518123.65408
 -18781011.85108 -14634547.10208  20812202.12408  20812202.56108
 93 07 09 03 41 00.0000000  0  7 23 15 01 02 31 21 28
 -16427245.22608 -12800436.62308  22265408.23908  22265409.35008
  -9926665.85808  -7735058.38408  23280703.75508  23280705.57408
  -7656079.55708  -5965768.93308  23768218.83608  23768221.41308
  -1044050.41807   -813544.75707  25331890.41507  25331893.70107
 -23516720.96609 -18324708.51009  20558513.66809  20558513.97109
 -26529643.34209 -20672432.56508  20520859.72709  20520860.59408
 -18659989.81008 -14540244.26408  20835232.04908  20835232.51808
 93 07 09 03 42 00.0000000  0  7 23 15 02 01 31 21 28
 -16279335.20008 -12685182.11208  22293554.64508  22293555.77608
 -10127579.14508  -7891614.12008  23242471.12908  23242472.87608
  -1213335.60307   -945455.15307  25299676.43707  25299679.54707
  -7852809.07908  -6119064.53508  23730782.31908  23730784.91108
 -23551089.65709 -18351489.30909  20551973.37209  20551973.63209
 -26511444.81408 -20658251.89608  20524322.81008  20524323.69108
 -18535332.79208 -14443108.97508  20858953.58808  20858954.03808
 93 07 09 03 43 00.0000000  0  7 23 15 01 02 31 21 28
 -16129166.40908 -12568167.52008  22322130.79908  22322131.94008
 -10327077.94908  -8047067.66708  23204507.75408  23204509.54208
  -8047814.30008  -6271016.51408  23693673.99408  23693676.67008
  -1380451.18607  -1075675.00207  25267875.40207  25267878.46407
 -23582455.69309 -18375930.38309  20546004.66209  20546004.91409
 -26490208.41608 -20641704.05608  20528363.95008  20528364.82808
 -18407861.78708 -14343780.97208  20883210.50208  20883210.97708
 93 07 09 03 44 00.0000000  0  7 23 15 02 01 31 21 28
 -15977381.48608 -12449893.61008  22351014.51108  22351015.68308
 -10525721.48108  -8201854.76908  23166707.04608  23166708.87808
  -1545888.69207  -1204587.25007  25236393.64807  25236396.67307
  -8241617.97208  -6422032.20508  23656794.23508  23656796.86308
 -23611308.41509 -18398413.02509  20540514.16909  20540514.40309
 -26466461.35308 -20623199.85508  20532882.84908  20532883.73208
 -18278159.46108 -14242714.27608  20907891.99508  20907892.49308
 93 07 09 03 45 00.0000000  0  7 23 15 01 02 31 21 28
 -15824252.16408 -12330572.11208  22380154.16508  22380155.34808
 -10723745.26708  -8356158.95808  23129024.32708  23129026.14908
  -8434567.41408  -6572382.26108  23620077.12908  23620079.56608
  -1709850.11508  -1332349.31807  25205192.70908  25205195.81007
 -23637895.45009 -18419130.20109  20535454.82009  20535455.07409
 -26440374.19008 -20602872.20208  20537847.06708  20537847.97208
 -18146507.14408 -14140128.11708  20932944.64608  20932945.20408
 93 07 09 03 46 00.0000000  0  7 23 15 02 01 31 21 28
 -15669843.23408 -12210253.52208  22409537.29508  22409538.49608
 -10921208.72008  -8510026.51808  23091448.20108  23091449.97208
  -1872420.74308  -1459027.66707  25174256.45308  25174259.58607
  -8626803.47608  -6722176.44308  23583495.62708  23583498.18008
 -23662302.31909 -18438148.55009  20530810.33209  20530810.59709
 -26412019.23608 -20580777.44308  20543242.87408  20543243.77408
 -18012997.88308 -14036094.99608  20958350.76108  20958351.29608
 93 07 09 03 47 00.0000000  0  7 28 23 15 01 02 31 21
 -17877612.13208 -13930599.66008  20984113.87808  20984114.39308
 -15514163.87308 -12088944.98808  22439162.09908  22439163.32508
 -11118132.07408  -8663473.21208  23053974.89608  23053976.68108
  -8818292.90308  -6871388.83608  23547056.31608  23547058.78908
  -2033633.89108  -1584648.22207  25143578.42608  25143581.57207
 -23684479.73509 -18455429.65309  20526590.14909  20526590.39709
 -26381556.26908 -20557040.07708  20549039.78408  20549040.66108
 93 07 09 03 48 00.0000000  0  7 28 23 02 15 31 21 01
 -17740350.39208 -13823642.51308  21010233.92008  21010234.49508
 -15357247.36608 -11966672.44808  22469022.38208  22469023.58908
  -2193542.18608  -1709252.01007  25113148.97408  25113152.05607
 -11314518.83608  -8816501.78308  23016603.65008  23016605.45408
 -23704371.72609 -18470929.90709  20522804.80509  20522805.07709
 -26349088.46009 -20531740.49808  20555218.25109  20555219.12008
  -9008895.27708  -7019910.03808  23510785.80308  23510788.09808
 93 07 09 03 49 00.0000000  0  7 28 23 15 01 02 31 21
 -17601148.16908 -13715173.30408  21036723.24008  21036723.77808
 -15199024.24908 -11843381.76508  22499131.27108  22499132.53308
 -11510265.67108  -8969031.70508  22979354.20808  22979355.96508
  -9198433.24808  -7167601.84008  23474717.78108  23474720.16208
  -2352018.19008  -1832739.71307  25082991.97808  25082994.98407
 -23721954.43309 -18484630.72109  20519458.92209  20519459.22409
 -26314426.76109 -20504731.39308  20561814.13909  20561815.04508
 93 07 09 03 50 00.0000000  0  7 28 23 02 15 31 21 01
 -17460225.93508 -13605363.82308  21063539.86508  21063540.53608
 -15039683.52408 -11719220.22008  22529452.79608  22529454.09308
  -2509093.59608  -1955136.02507  25053101.32308  25053104.25407
 -11705494.06308  -9121157.64408  22942203.40708  22942205.14708
 -23737456.66709 -18496710.37809  20516508.90009  20516509.20909
 -26277643.77709 -20476069.33808  20568813.68309  20568814.59908
  -9387051.38208  -7314576.87908  23438824.75208  23438827.27108
 93 07 09 03 51 00.0000000  0  7 28 23 15 02 01 31 21
 -17317535.81608 -13494176.77708  21090692.88508  21090693.53708
 -14879199.95008 -11594168.13808  22559991.86508  22559993.18908
 -11900118.29908  -9272812.81508  22905167.64108  22905169.36508
  -2664661.06908  -2076357.41407  25023497.86908  25023500.95207
  -9574656.36608  -7460762.45208  23403124.74408  23403127.11008
 -23750853.15309 -18507149.21509  20513959.65109  20513959.96409
 -26238696.87609 -20445721.11308  20576225.04009  20576225.94408
 93 07 09 03 52 00.0000000  0  7 28 02 23 15 31 21 01
 -17173015.37708 -13381563.50308  21118194.25008  21118194.96308
  -2818726.94308  -2196408.65107  24994180.13008  24994183.01907
 -14717542.86908 -11468201.64308  22590754.17108  22590755.55608
 -12094063.66008  -9423938.99408  22868260.97308  22868262.70708
 -23762053.06009 -18515876.42509  20511828.43509  20511828.71409
 -26197674.65409 -20413755.75508  20584031.28809  20584032.17508
  -9761172.06608  -7606099.24308  23367631.87808  23367634.16408
 93 07 09 03 53 00.0000000  0  7 28 23 15 02 01 31 21
 -17026603.64208 -13267476.50608  21146055.53708  21146056.24008
 -14554659.05808 -11341279.24908  22621750.05608  22621751.37308
 -12287288.51408  -9574503.74208  22831491.43708  22831493.13308
  -2971297.04108  -2315294.34407  24965146.71008  24965149.67907
  -9946605.29208  -7750592.55608  23332345.06908  23332347.30408
 -23770982.68409 -18522834.58709  20510129.15509  20510129.45309
 -26154623.44309 -20380209.36408  20592223.70009  20592224.59408
 93 07 09 03 54 00.0000000  0  7 28 02 23 15 31 21 01
 -16878212.35308 -13151846.99408  21174293.54808  21174294.23408
  -3122232.19308  -2432906.09407  24936424.67908  24936427.70107
 -14390523.49508 -11213381.47808  22652984.03708  22652985.42708
 -12479759.41408  -9724480.99608  22794865.39608  22794867.05408
 -23777545.34109 -18527948.36409  20508880.37909  20508880.69209
 -26109437.05708 -20344999.20208  20600822.37008  20600823.26208
 -10130902.63808  -7894200.76108  23297274.34108  23297276.59008
 93 07 09 03 55 00.0000000  0  7 28 23 15 02 01 31 21
 -16727789.30008 -13034634.27808  21202918.10208  21202918.76808
 -14225131.22208 -11084504.44208  22684457.16308  22684458.50708
 -12671454.71108  -9873853.88108  22758386.88708  22758388.55708
  -3271375.02908  -2549121.19807  24908043.73808  24908046.57407
 -10314001.02508  -8036874.69708  23262431.76608  23262434.01608
 -23781688.21909 -18531176.59309  20508092.00109  20508092.28109
 -26061931.75708 -20307982.09508  20609862.32108  20609863.22208
 93 07 09 03 56 00.0000000  0  7 28 02 23 15 31 21 01
 -16575389.54208 -12915881.27408  21231918.91108  21231919.55108
  -3418780.20408  -2663982.29508  24879993.38108  24879996.31808
 -14058511.09408 -10954670.64108  22716163.97908  22716165.40108
 -12862404.00708 -10022645.47308  22722050.38408  22722052.08708
 -23783459.28909 -18532556.65409  20507755.05309  20507755.33709
 -26012103.01008 -20269154.50908  20619344.42908  20619345.33008
 -10495921.11308  -8178630.48208  23227813.37708  23227815.62908
 93 07 09 03 57 00.0000000  0  7 28 23 15 02 01 31 21
 -16421236.99208 -12795762.47008  21261253.17008  21261253.90108
 -13890776.12008 -10823968.12508  22748082.91008  22748084.35408
 -13052698.38008 -10170926.73408  22685838.52508  22685840.19208
  -3564632.37308  -2777633.23908  24852238.67108  24852241.57808
 -10676755.28408  -8319540.10908  23193401.71208  23193403.90408
 -23782994.78409 -18532194.71709  20507843.35009  20507843.66009
 -25960203.07908 -20228713.01508  20629220.70108  20629221.62608
 93 07 09 03 58 00.0000000  0  7 28 02 23 15 31 21 01
 -16265397.39708 -12674329.08208  21290908.52208  21290909.17308
  -3708927.51808  -2890070.92808  24824780.20808  24824782.78808
 -13721925.51608 -10692396.29408  22780214.22508  22780215.67308
 -13242299.36308 -10318667.69608  22649758.61508  22649760.29708
 -23780303.14009 -18530097.34709  20508355.55109  20508355.86609
 -25906276.12208 -20186692.02108  20639482.60608  20639483.54608
 -10856422.89608  -8459540.74308  23159212.05008  23159214.19608
 93 07 09 03 59 00.0000000  0  7 28 23 15 02 01 31 21
 -16107865.57208 -12551577.07608  21320885.69508  21320886.44308
 -13551995.30008 -10559983.20208  22812550.80508  22812552.33508
 -13431133.19708 -10465810.88208  22613824.66108  22613826.25008
  -3851587.64608  -3001234.60008  24797632.68808  24797635.74608
 -11034805.99008  -8598540.42808  23125266.71108  23125268.94808
 -23775325.90409 -18526218.99309  20509302.67709  20509303.02309
 -25850197.68808 -20142994.54808  20650154.01208  20650154.92408
 93 07 09 04 00 00.0000000  0  7 28 02 23 15 31 21 01
 -15948587.18008 -12427464.11608  21351195.64108  21351196.33408
  -3992525.80808  -3111056.51408  24770812.96808  24770816.08608
 -13380958.23408 -10426707.61808  22845098.19808  22845099.63308
 -13619156.82208 -10612322.73508  22578044.91808  22578046.55408
 -23768028.74009 -18520532.91009  20510691.35109  20510691.66909
 -25791966.48908 -20097619.59708  20661235.05308  20661235.96608
 -11211895.84908  -8736532.39408  23091567.66308  23091569.66308
 93 07 09 04 01 00.0000000  0  7 28 23 15 02 01 31 21
 -15787564.23508 -12301991.76108  21381837.31808  21381837.96808
 -13208796.28908 -10292555.51808  22877859.58008  22877861.03208
 -13806380.55008 -10758211.29608  22542417.40408  22542418.98608
  -4131746.94408  -3219540.46908  24744320.13408  24744323.09808
 -11387768.07508  -8873575.56208  23058100.15508  23058102.15508
 -23758406.87709 -18513035.36309  20512522.35809  20512522.66009
 -25731701.59808 -20050659.95308  20672703.06108  20672703.99508
 93 07 09 04 02 00.0000000  0  7 28 02 23 15 31 21 01
 -15624720.05508 -12175100.25808  21412825.48208  21412826.31908
  -4269134.36008  -3326595.50708  24718176.05408  24718178.92408
 -13035440.86708 -10157473.44008  22910848.05608  22910849.53008
 -13992755.95208 -10903438.82008  22506951.32408  22506952.78408
 -23746409.43509 -18503686.71009  20514805.31509  20514805.60309
 -25669372.24308 -20002091.63708  20684563.96008  20684564.88008
 -11562352.08908  -9009614.91108  23024877.73008  23024879.87908
 93 07 09 04 03 00.0000000  0  7 28 23 15 02 01 31 21
 -15460049.44008 -12046785.57408  21444161.30808  21444162.05908
 -12860990.68608 -10021538.30508  22944044.84208  22944046.36508
 -14178290.72808 -11048011.31508  22471645.17208  22471646.73608
  -4404659.97808  -3432199.81108  24692386.52108  24692389.23908
 -11735599.44008  -9144612.72208  22991909.88408  22991911.89708
 -23732020.36609 -18492474.46909  20517543.48209  20517543.80209
 -25604901.07808 -19951854.37908  20696832.40308  20696833.32108
 93 07 09 04 04 00.0000000  0  7 28 02 23 15 31 21 01
 -15293696.49408 -11917159.96208  21475817.33208  21475818.10308
  -4538453.16208  -3536454.15108  24666926.29908  24666929.03508
 -12685601.58508  -9884871.55008  22977420.30708  22977421.89508
 -14363019.52508 -11191955.77708  22436492.41908  22436493.88408
 -23715283.21209 -18479432.54809  20520728.48809  20520728.82409
 -25538296.14508 -19899954.44208  20709506.94008  20709507.84308
 -11907488.75208  -9278552.33608  22959200.31108  22959202.24908
 93 07 09 04 05 00.0000000  0  7 28 23 02 15 01 31 21
 -15125696.50108 -11786250.97208  21507786.80508  21507787.72308
 -12509275.99508  -9747475.04308  23010974.02408  23010975.61108
  -4670551.75708  -3639388.06308  24641788.60408  24641791.43508
 -14546926.42208 -11335259.79808  22401496.00508  22401497.54008
 -12077959.22608  -9411386.36908  22926760.72308  22926762.63108
 -23696236.45609 -18464590.93109  20524352.97309  20524353.30909
 -25469573.18408 -19846404.09708  20722584.50308  20722585.43608
 93 07 09 04 06 00.0000000  0  7 02 23 28 15 31 21 01
  -4800863.53708  -3740929.63008  24616991.00408  24616993.86308
 -12331933.28508  -9609285.99308  23044721.25508  23044722.85908
 -14955975.46508 -11654000.88608  21540083.72408  21540084.53208
 -14729965.92508 -11477887.92108  22366664.71608  22366666.24008
 -23674887.95809 -18447955.74809  20528415.42409  20528415.77609
 -25398759.20608 -19791224.38908  20736059.96308  20736060.89208
 -12246971.24608  -9543083.93608  22894598.74208  22894600.69908
 93 07 09 04 07 00.0000000  0  7 23 28 02 15 01 31 21
 -12153544.19108  -9470281.60808  23078667.62808  23078669.29108
 -14784534.36508 -11520410.49508  21572707.77208  21572708.69408
  -4929251.56908  -3840972.13808  24592559.50608  24592562.38808
 -14912127.04708 -11619831.60208  22332000.55108  22332002.07008
 -12414553.81408  -9673667.66308  22862708.76608  22862710.58508
 -23651211.48309 -18429506.55809  20532920.89709  20532921.26009
 -25325943.78108 -19734485.11108  20749916.29708  20749917.22508
 93 07 09 04 08 00.0000000  0  7 02 23 28 15 31 21 01
  -5055713.48008  -3939513.86508  24568494.78808  24568497.63308
 -11974141.91508  -9330487.74208  23112806.92308  23112808.56708
 -14611425.42108 -11385520.48308  21605649.30408  21605650.16808
 -15093404.10708 -11761086.40208  22297504.64308  22297506.15908
 -23625191.24909 -18409231.05909  20537872.44509  20537872.79509
 -25251161.80708 -19676213.46308  20764146.78208  20764147.74708
 -12580684.90308  -9803120.37908  22831095.04008  22831096.91008
 93 07 09 04 09 00.0000000  0  7 23 02 28 15 01 31 21
 -11793795.25608  -9189957.96608  23147125.76608  23147127.46108
  -5180289.55608  -4036586.12108  24544788.82108  24544791.54508
 -14436668.20608 -11249346.11508  21638904.66308  21638905.57608
 -15273801.29508 -11901655.58908  22263176.18008  22263177.67108
 -12745380.23608  -9931454.30108  22799754.46408  22799756.41708
 -23596817.48809 -18387121.64109  20543271.94609  20543272.30709
 -25174345.94608 -19616356.96008  20778764.36008  20778765.29708
 93 07 09 04 10 00.0000000  0  7 02 23 28 31 21 15 01
  -5304201.60008  -4133140.86208  24521209.07308  24521211.67608
 -11613731.27208  -9049648.41208  23181390.81308  23181392.60908
 -14261446.37808 -11112809.72508  21672248.26708  21672249.15708
 -23567287.64809 -18364111.38009  20548891.28909  20548891.64309
 -25096641.34508 -19555807.94108  20793551.09308  20793552.03608
 -15454499.29608 -12042459.17808  22228790.43308  22228791.88308
 -12909858.82508 -10059619.33308  22768455.15208  22768456.93108
 93 07 09 04 11 00.0000000  0  7 02 23 28 15 01 31 21
  -5426949.81008  -4228788.73808  24497850.68308  24497853.43608
 -11433426.75508  -8909151.48008  23215701.64508  23215703.44508
 -14085308.03008 -10975559.15608  21705766.50308  21705767.41908
 -15635005.56308 -12183113.35908  22194441.20808  22194442.66608
 -13073563.74708 -10187181.51708  22737303.06708  22737304.77208
 -23536119.04909 -18339824.17209  20554822.34809  20554822.70109
 -25017629.34008 -19494240.16208  20808586.62708  20808587.57008
 93 07 09 04 12 00.0000000  0  7 02 23 28 31 21 15 01
  -5546205.87208  -4321715.49808  24475156.88908  24475159.84508
 -11250570.74708  -8766666.35708  23250498.06508  23250499.84508
 -13906023.72508 -10835857.20208  21739883.30108  21739884.36308
 -23501025.51309 -18312478.56708  20561500.39209  20561500.69508
 -24935081.19208 -19429916.94608  20824295.01708  20824295.99808
 -15813020.82408 -12321826.49808  22160566.00708  22160567.44908
 -13234087.42008 -10312264.80008  22706756.30308  22706758.13908
 93 07 09 04 13 00.0000000  0  7 23 02 28 15 01 31 21
 -11066059.66608  -8622891.58608  23285609.51508  23285611.27708
  -5662797.67808  -4412566.16508  24452970.04708  24452972.97808
 -13724473.08908 -10694389.29108  21774431.32008  21774432.35408
 -15989396.54108 -12459262.06708  22127002.72808  22127004.18008
 -13392274.01808 -10435526.97108  22676654.24808  22676656.09308
 -23462893.04209 -18282764.96508  20568756.79909  20568757.11408
 -24849920.07908 -19363557.65608  20840500.61908  20840501.61708
 93 07 09 04 14 00.0000000  0  7 02 23 28 31 21 15 01
  -5777164.04608  -4501682.76508  24431206.82008  24431209.64208
 -10880451.93508  -8478262.23308  23320929.48008  23320931.25708
 -13541195.44008 -10551575.64508  21809307.96208  21809308.94208
 -23422244.27109 -18251090.61308  20576492.10609  20576492.44008
 -24762629.60208 -19295539.12908  20857111.47608  20857112.49008
 -16164629.89808 -12595807.48908  22093656.89408  22093658.36408
 -13548722.91008 -10557435.08908  22646883.00408  22646884.70908
 93 07 09 04 15 00.0000000  0  7 02 23 28 15 01 31 21
  -5889491.81108  -4589210.80208  24409831.51008  24409834.14708
 -10694076.20508  -8333034.47508  23356395.66508  23356397.50508
 -13356390.72508 -10407572.06708  21844475.10608  21844476.26108
 -16338924.59608 -12731621.49308  22060489.70708  22060491.09808
 -13703678.80208 -10678179.84908  22617395.84508  22617397.40608
 -23379285.65109 -18217616.38408  20584666.77009  20584667.08908
 -24673377.32808 -19225991.91908  20874095.67708  20874096.67408
 93 07 09 04 16 00.0000000  0  7 02 23 28 31 21 15 01
  -5999934.90508  -4675270.30808  24388815.01008  24388817.53308
 -10507084.52108  -8187326.72408  23391979.11708  23391980.83808
 -13170127.66808 -10262432.12908  21879919.69008  21879920.80908
 -23334075.92409 -18182388.04808  20593269.90809  20593270.23108
 -24582217.72408 -19154958.47208  20891442.80208  20891443.76308
 -16512338.69608 -12866749.32208  22027490.06008  22027491.47308
 -13857122.42408 -10797746.21808  22588196.46008  22588198.07008
 93 07 09 04 17 00.0000000  0  7 02 23 28 15 01 31 21
  -6108617.19708  -4759957.76208  24368133.42808  24368135.85908
 -10319398.17408  -8041077.68008  23427694.60608  23427696.36508
 -12982396.02608 -10116147.81208  21915644.14208  21915645.24708
 -16684846.42808 -13001170.89208  21994662.91808  21994664.33408
 -14008983.67808 -10916079.56008  22559298.12808  22559299.77808
 -23286648.08509 -18145431.31308  20602295.15409  20602295.52008
 -24489211.48008 -19082486.09708  20909141.29508  20909142.26908
 93 07 09 04 18 00.0000000  0  7 02 23 28 31 21 15 01
  -6215488.43708  -4843234.00008  24347796.44708  24347798.88808
 -10130863.67008  -7894167.67508  23463571.52408  23463573.36108
 -12793182.49108  -9968708.79108  21951650.35008  21951651.51908
 -23237040.36509 -18106775.96808  20611735.17209  20611735.54108
 -24394427.16208 -19008628.21208  20927178.10908  20927179.09408
 -16856435.93208 -13134876.96608  21962010.53008  21962011.85908
 -14159275.68508 -11033190.11908  22530698.42608  22530700.06208
 93 07 09 04 19 00.0000000  0  7 02 23 28 15 01 31 21
  -6320364.19808  -4924955.32108  24327839.23408  24327841.70708
  -9941454.61908  -7746576.17908  23499614.80108  23499616.58408
 -12602515.25308  -9820137.02808  21987933.20408  21987934.36708
 -17027080.29308 -13267846.56208  21929537.95308  21929539.25808
 -14307971.56408 -11149056.95608  22502402.49508  22502403.94408
 -23185187.66909 -18066371.28908  20621602.46709  20621602.84308
 -24297795.12708 -18933330.53208  20945566.59108  20945567.57008
 93 07 09 04 20 00.0000000  0  7 02 23 28 31 21 15 01
  -6423133.32708  -5005035.12208  24308282.81308  24308285.37408
  -9751249.49608  -7598364.45408  23535809.75208  23535811.55508
 -12410539.02708  -9670545.26308  22024465.10308  22024466.24108
 -23130990.57709 -18024139.80608  20631915.80409  20631916.18708
 -24199251.69808 -18856543.47008  20964318.83308  20964319.81108
 -17196767.59908 -13400070.40308  21897247.50208  21897248.82608
 -14454967.47808 -11263599.15208  22474430.05308  22474431.51908
 93 07 09 04 21 00.0000000  0  7 21 02 23 28 15 01 31
 -24098813.84108 -18778280.22008  20983431.56708  20983432.50208
  -6523806.58708  -5083481.74908  24289125.15808  24289127.89808
  -9560363.27508  -7449622.00608  23572134.16308  23572136.01208
 -12217304.14108  -9519972.70708  22061236.60408  22061237.78208
 -17365493.75808 -13531545.29408  21865139.96408  21865141.28008
 -14600163.35308 -11376738.72408  22446800.12508  22446801.61708
 -23074514.78309 -17980132.71008  20642662.85109  20642663.21908
 93 07 09 04 22 00.0000000  0  7 02 23 21 31 28 15 01
  -6622502.01008  -5160387.22208  24270344.08708  24270346.78108
  -9368918.97908  -7300444.71608  23608564.84108  23608566.67508
 -23996580.45708 -18698617.85908  21002885.93708  21002886.89108
 -23015913.75909 -17934469.59008  20653814.29209  20653814.62908
 -12022725.01408  -9368352.70008  22098263.65208  22098264.87008
 -17533277.18108 -13662285.58208  21833211.79708  21833213.09808
 -14743689.00808 -11488576.81708  22419488.09108  22419489.55408
 93 07 09 04 23 00.0000000  0  7 21 02 23 28 15 01 31
 -23892590.14708 -18617586.46808  21022674.60208  21022675.59508
  -6719204.52108  -5235739.76408  24251942.09308  24251944.73408
  -9176834.03308  -7150768.25508  23645117.58208  23645119.37108
 -11826686.05008  -9215595.16708  22135568.92108  22135570.15908
 -17700047.77408 -13792236.65608  21801476.37608  21801477.67608
 -14885615.58308 -11599168.86508  22392480.26408  22392481.78508
 -22955155.78809 -17887125.73708  20665376.13009  20665376.47708
 93 07 09 04 24 00.0000000  0  7 02 23 21 28 31 15 01
  -6813867.73708  -5309503.27708  24233928.37708  24233930.95908
  -8984010.45308  -7000516.22308  23681810.77008  23681812.64408
 -23786846.22708 -18535188.63008  21042797.00508  21042798.00208
 -11629232.22608  -9061735.13908  22173143.08408  22173144.36208
 -22892073.31809 -17837970.58908  20677380.37909  20677380.72908
 -17865737.01608 -13921345.11408  21769946.69608  21769947.98908
 -15025837.38308 -11708432.51808  22365796.84708  22365798.24908
 93 07 09 04 25 00.0000000  0  7 02 23 21 28 15 01 31
  -6906432.83108  -5381631.88208  24216313.71408  24216316.25608
  -8790438.58308  -6849681.03508  23718646.28608  23718648.18408
 -23679338.03708 -18451416.03708  21063255.16208  21063256.15508
 -11430471.65908  -8906856.89508  22210966.14308  22210967.37608
 -18030311.43608 -14049584.88008  21738629.17408  21738630.51208
 -15164124.63908 -11816188.75808  22339481.57708  22339482.99908
 -22826576.92409 -17786934.46608  20689843.94209  20689844.29908
 93 07 09 04 26 00.0000000  0  7 02 23 21 28 31 15 01
  -6996834.72708  -5452074.88608  24199111.00308  24199113.24908
  -8596198.96308  -6698325.52408  23755608.87408  23755610.65008
 -23570028.98908 -18366240.17408  21084056.01308  21084056.97108
 -11230429.23008  -8750979.79308  22249032.99708  22249034.33808
 -22758750.48809 -17734082.72708  20702750.97009  20702751.32208
 -18193772.18208 -14176956.85308  21707523.60008  21707524.94108
 -15300456.41908 -11922421.24508  22313538.45908  22313539.94308
 93 07 09 04 27 00.0000000  0  7 02 23 21 28 15 01 31
  -7085001.27108  -5520776.06508  24182333.46408  24182335.60708
  -8401284.49508  -6546444.15808  23792699.90708  23792701.78208
 -23458870.64508 -18279623.30608  21105208.75408  21105209.72908
 -11029048.22108  -8594059.65308  22287354.55808  22287355.99908
 -18356105.10608 -14303450.00208  21676632.64208  21676633.98308
 -15434937.40208 -12027211.55408  22287947.57808  22287948.94108
 -22688618.82709 -17679434.71708  20716096.51609  20716096.87008
 93 07 09 04 28 00.0000000  0  7 02 23 21 28 31 15 01
  -7170991.79008  -5587781.63308  24165969.75508  24165972.21208
  -8205649.36308  -6394001.26808  23829928.10908  23829930.03208
 -23345868.39608 -18191569.64208  21126712.41708  21126713.39808
 -10826306.73708  -8436079.38608  22325935.15908  22325936.52308
 -22616261.59709 -17623052.49708  20729865.63609  20729866.03008
 -18517347.14208 -14429093.11208  21645949.27208  21645950.59108
 -15567652.37108 -12130625.75008  22262692.72908  22262694.10908
 93 07 09 04 29 00.0000000  0  7 02 23 21 28 15 01 31
  -7254738.09808  -5653038.44508  24150033.38208  24150035.72908
  -8009192.03508  -6240917.68608  23867312.68908  23867314.59708
 -23230992.69908 -18102056.14408  21148572.53508  21148573.53008
 -10622123.26208  -8276975.47108  22364790.02308  22364791.44808
 -18677416.65808 -14553822.56408  21615489.04208  21615490.36508
 -15698500.80208 -12232585.48308  22237793.00608  22237794.38308
 -22541608.07609 -17564880.95108  20744071.74909  20744072.16108
 93 07 09 04 30 00.0000000  0  7 02 23 21 28 31 15 01
  -7336416.29408  -5716683.75408  24134490.50508  24134492.84808
  -7812166.29108  -6087391.15308  23904805.48208  23904807.47608
 -23114484.53108 -18011270.58708  21170743.31108  21170744.29908
 -10416713.91508  -8116916.34708  22403878.17708  22403879.64908
 -22464776.59909 -17505012.30708  20758692.25309  20758692.68308
 -18836446.47208 -14677741.85708  21585226.62308  21585227.95908
 -15827611.60008 -12333191.21908  22213223.97008  22213225.26208
 93 07 09 04 31 00.0000000  0  7 02 23 21 28 15 01 31
  -7415989.72308  -5778688.98008  24119348.12608  24119350.60508
  -7614672.58508  -5933500.01208  23942387.39508  23942389.33208
 -22996302.80708 -17919180.95908  21193232.55608  21193233.57508
 -10210105.07108  -7955922.55908  22443194.53708  22443195.95208
 -18994351.53408 -14800784.71708  21555178.23408  21555179.56408
 -15954866.17408 -12432350.57508  22189008.18908  22189009.58208
 -22385727.15909 -17443415.37908  20773734.90209  20773735.30408
 93 07 09 04 32 00.0000000  0  7 02 23 21 28 31 15 01
  -7493421.54408  -5839025.40508  24104613.29408  24104615.75608
  -7416749.90908  -5779274.57808  23980050.89108  23980052.69708
 -22876404.53108 -17825753.75808  21216048.45308  21216049.48508
 -10002265.70608  -7793969.90908  22482745.15208  22482746.60208
 -22304500.34509 -17380121.79908  20789191.89409  20789192.35208
 -19151100.36908 -14922926.61808  21525349.89708  21525351.19308
 -16080122.91108 -12529953.15508  22165172.49008  22165173.93408
 93 07 09 04 33 00.0000000  0  7 21 02 23 28 15 01 31
 -22754770.89008 -17730974.32908  21239194.58708  21239195.65808
  -7568652.74508  -5897647.07708  24090297.24408  24090299.57108
  -7218214.30908  -5624571.57808  24017830.84208  24017832.99908
  -9793170.75608  -7631038.89108  22522534.67308  22522536.20808
 -19306652.98408 -15044136.39908  21495749.17408  21495750.43808
 -16203312.66908 -12625945.10908  22141730.25108  22141731.55308
 -22221027.00409 -17315077.67508  20805076.42009  20805076.86908
 93 07 09 04 34 00.0000000  0  7 02 23 21 28 31 15 01
  -7641585.33708  -5954477.62408  24076418.51008  24076420.95408
  -7018930.78508  -5469285.83908  24055753.44508  24055755.48508
 -22631420.39208 -17634857.08508  21262667.46308  21262668.50008
  -9582921.91208  -7467208.73908  22562543.77508  22562545.30508
 -22135248.16909 -17248237.06208  20821399.58609  20821400.06308
 -19461007.75008 -15164412.79208  21466376.42508  21466377.67008
 -16324467.18708 -12720351.17208  22118675.29408  22118676.56208
 93 07 09 04 35 00.0000000  0  7 02 23 21 28 15 01 31
  -7713429.24208  -6010459.83908  24062747.07808  24062749.42108
  -6820263.12508  -5314479.95808  24093558.68808  24093560.69708
 -22507616.46408 -17538386.51508  21286226.59608  21286227.64408
  -9372802.08808  -7303479.11108  22602528.32108  22602529.77308
 -19615396.71808 -15284715.84108  21436997.16308  21436998.36308
 -16444918.16508 -12814209.02708  22095754.18808  22095755.44708
 -22048418.41309 -17180577.55108  20837922.83109  20837923.31308
 93 07 09 04 36 00.0000000  0  7 02 23 21 28 31 15 01
  -7783836.83508  -6065322.85508  24049348.90008  24049351.16908
  -6621973.63108  -5159968.60508  24131291.82008  24131293.94008
 -22382936.88208 -17441233.61708  21309952.38508  21309953.43108
  -9162333.31908  -7139477.59208  22642579.39008  22642580.98508
 -21960223.04609 -17111853.92508  20854705.86209  20854706.34408
 -19769360.71308 -15404687.74608  21407698.76208  21407699.93308
 -16564235.40408 -12907183.43808  22073048.80708  22073050.12308
 93 07 09 04 37 00.0000000  0  7 02 23 21 28 15 01 31
  -7850404.46208  -6117193.69208  24036681.52208  24036683.84008
  -6421627.87208  -5003855.07108  24169416.37308  24169418.25408
 -22254991.37908 -17341535.84008  21334299.60908  21334300.64308
  -8949082.57508  -6973308.29408  22683159.76208  22683161.32708
 -19920454.36208 -15522423.02208  21378946.56408  21378947.72008
 -16679891.47308 -12997304.99708  22051040.26208  22051041.47608
 -21868323.13308 -17040243.63708  20872193.81808  20872194.30808
 93 07 09 04 38 00.0000000  0  7 02 23 21 28 31 15 01
  -7914003.57308  -6166751.39708  24024579.01708  24024581.29208
  -6219988.16808  -4846733.28208  24207787.21308  24207789.36608
 -22124667.83408 -17239985.05108  21359099.33508  21359100.44008
  -8733999.48008  -6805711.18508  22724088.71208  22724090.27508
 -21773567.20408 -16966407.88408  20890225.27908  20890225.81908
 -20069575.11908 -15638620.98108  21350569.81308  21350570.97608
 -16792668.82408 -13085183.40408  22029579.28508  22029580.53808
 93 07 09 04 39 00.0000000  0  7 02 23 21 28 15 01 31
  -7975096.00308  -6214355.85608  24012953.57708  24012955.77608
  -6017481.28308  -4688935.74008  24246323.00808  24246324.77908
 -21992427.90908 -17136940.98208  21384263.73408  21384264.86108
  -8517544.23908  -6637044.89608  22765278.86208  22765280.70908
 -20217191.54808 -15753646.74008  21322479.28908  21322480.49008
 -16903113.09108 -13171243.82808  22008562.41608  22008563.67108
 -21676295.07208 -16890611.45508  20908735.64608  20908736.16908
 93 07 09 04 40 00.0000000  0  7 02 23 21 28 31 15 01
  -8033961.41208  -6260224.97708  24001751.62008  24001753.88008
  -5814426.02408  -4530710.81508  24284963.02208  24284965.14108
 -21858619.16708 -17032674.45608  21409726.71008  21409727.81808
  -8300006.03408  -6467534.75708  22806675.22608  22806677.11208
 -21576751.02708 -16813044.70208  20927678.24108  20927678.80508
 -20363544.45008 -15867687.93808  21294629.23708  21294630.43408
 -17011577.43408 -13255761.45908  21987922.35708  21987923.54308
 93 07 09 04 41 00.0000000  0  7 02 23 21 28 15 01 31
  -8090719.37408  -6304451.92908  23990950.98708  23990953.27308
  -5611014.15408  -4372208.01407  24323670.97608  24323672.84907
 -21723460.76008 -16927356.24608  21435446.54308  21435447.60208
  -8081531.56608  -6297295.04008  22848249.61808  22848251.19608
 -20508740.60408 -15980827.77408  21266999.28908  21267000.49108
 -17118158.04508 -13338811.24308  21967640.67008  21967641.89808
 -21475135.98508 -16733864.18908  20947014.88008  20947015.44308
 93 07 09 04 42 00.0000000  0  7 02 23 21 28 31 15 01
  -8145278.47808  -6346965.48808  23980568.78208  23980571.02908
  -5407279.95908  -4213454.23807  24362440.66108  24362442.22807
 -21586894.14408 -16820940.73808  21461434.33908  21461435.39808
  -7862120.95308  -6126325.84208  22890002.00008  22890003.74008
 -21371440.15808 -16653062.29508  20966747.62608  20966748.24908
 -20652736.46208 -16093032.31808  21239597.78008  21239598.95008
 -17222660.77008 -13420241.89408  21947754.43008  21947755.66808
 93 07 09 04 43 00.0000000  0  7 02 23 31 21 28 15 01
  -8197574.93108  -6387715.95308  23970617.11308  23970619.45408
  -5203307.92808  -4054515.05908  24401255.20308  24401257.22908
 -21265703.61808 -16570670.23608  20986868.61708  20986869.20808
 -21448782.17608 -16713321.05908  21487716.18108  21487717.25708
  -7641778.46408  -5954630.53508  22931932.10408  22931934.01408
 -20795521.64108 -16204293.47008  21212426.64408  21212427.80608
 -17325038.91308 -13500017.03008  21928272.43208  21928273.63708
 93 07 09 04 44 00.0000000  0  7 02 23 31 21 28 15 01
  -8247588.88908  -6426687.84408  23961099.71708  23961101.83608
  -4999094.03908  -3895387.42607  24440115.76008  24440117.61707
 -21158035.88608 -16486773.34408  21007357.16508  21007357.82908
 -21309089.42108 -16604469.60008  21514298.85908  21514299.94908
  -7420461.28808  -5782175.74108  22974047.37608  22974049.27608
 -20937092.18108 -16314608.14708  21185486.64208  21185487.81008
 -17425375.29208 -13578201.17808  21909179.07308  21909180.30908
 93 07 09 04 45 00.0000000  0  7 02 23 31 21 28 15 01
  -8295331.23808  -6463889.65108  23952014.61508  23952016.94308
  -4794570.29308  -3736018.22508  24479035.60708  24479037.68208
 -21048403.79208 -16401345.78408  21028219.47208  21028220.11308
 -21167888.80108 -16494443.19108  21541168.45708  21541169.60808
  -7198237.99108  -5609014.89508  23016335.09808  23016336.83908
 -21077407.69208 -16423944.87308  21158785.45508  21158786.60708
 -17523707.84908 -13654823.91508  21890466.93308  21890468.22708
 93 07 09 04 46 00.0000000  0  7 02 23 31 21 28 15 01
  -8340844.56808  -6499354.57108  23943353.71208  23943355.96408
  -4589673.43608  -3576358.42407  24518025.95908  24518027.58507
 -20936678.71808 -16314287.33408  21049480.10708  21049480.76908
 -21025242.65208 -16383290.38808  21568313.18708  21568314.29708
  -6975178.56808  -5435202.48308  23058782.23608  23058783.87008
 -21216444.72308 -16532285.38108  21132327.58708  21132328.68208
 -17620035.04108 -13729884.03008  21872136.49708  21872137.67308
 93 07 09 04 47 00.0000000  0  7 02 23 31 21 28 15 01
  -8384074.61608  -6533040.31008  23935127.20108  23935129.55108
  -4384324.37508  -3416346.12308  24557102.46408  24557105.26708
 -20822758.96008 -16225518.74708  21071158.34408  21071159.01408
 -20881185.86608 -16271038.39708  21595726.25508  21595727.38908
  -6751243.48208  -5260707.75908  23101395.54208  23101397.57408
 -21354162.53008 -16639597.91608  21106120.71408  21106121.83008
 -17714295.20308 -13803333.47208  21854199.32808  21854200.46508
 93 07 09 04 48 00.0000000  0  7 02 23 31 21 28 15 01
  -8425023.70108  -6564948.67808  23927334.83708  23927337.11708
  -4178564.66508  -3256013.90407  24596257.66708  24596259.02907
 -20706747.01108 -16135119.87608  21093234.71308  21093235.37008
 -20735757.10908 -16157717.34108  21623400.48008  21623401.65508
  -6526399.58508  -5085504.89608  23144181.93808  23144184.09908
 -21490553.81708 -16745876.80808  21080166.28908  21080167.38608
 -17806385.36808 -13875092.00808  21836675.15008  21836676.32208
 93 07 09 04 49 00.0000000  0  8 02 23 31 21 14 28 15 01
  -8463777.32408  -6595146.28408  23919960.18908  23919962.57208
  -3972596.21008  -3095519.06708  24635451.72508  24635454.51008
 -20588815.08708 -16043224.92508  21115676.43008  21115677.10908
 -20588994.67208 -16043357.05008  21651328.47908  21651329.66808
         0.45317         0.33417  25370725.68817  25370729.54317
  -6300692.79308  -4909629.62708  23187132.75608  23187134.66108
 -21625645.70808 -16851143.17808  21054459.12508  21054460.23408
 -17896281.80108 -13945141.14008  21819568.30908  21819569.57208
 93 07 09 04 50 00.0000000  0  8 02 23 31 21 14 28 15 01
  -8500255.68508  -6623570.96508  23913018.54908  23913020.88208
  -3766364.33708  -2934818.92407  24674696.48808  24674698.16407
 -20468880.08108 -15949769.12708  21138499.36108  21138500.06208
 -20440735.97008 -15927830.85308  21679541.21908  21679542.39608
   -221212.68907   -172373.42907  25328629.88207  25328633.99107
  -6074044.85008  -4733020.96608  23230262.56308  23230264.49308
 -21759340.78308 -16955321.13008  21029017.78308  21029018.89408
 -17983874.62708 -14013395.25708  21802900.01008  21802901.10708
 93 07 09 04 51 00.0000000  0  8 02 23 31 21 14 28 15 01
  -8534386.53308  -6650166.40908  23906523.65708  23906525.92408
  -3559758.33508  -2773827.23508  24714012.73308  24714014.93208
 -20346892.93608 -15854714.26208  21161712.78408  21161713.46608
 -20290899.96308 -15811075.57908  21708054.15508  21708055.30508
   -442233.10908   -344596.99507  25286571.32808  25286574.57307
  -5846462.90708  -4555684.53508  23273569.89508  23273572.25708
 -21891618.31208 -17058394.49508  21003846.17708  21003847.29808
 -18069157.04008 -14079849.05708  21786671.31408  21786672.45108
 93 07 09 04 52 00.0000000  0  8 31 02 23 21 14 28 15 01
 -20222896.11408 -15758093.41608  21185308.60108  21185309.28808
  -8566124.79308  -6674897.50508  23900483.98908  23900486.49408
  -3352745.84607  -2612518.99907  24753405.30607  24753407.30607
 -20139574.24508 -15693159.48608  21736850.52508  21736851.68308
   -663104.48808   -516704.67407  25244540.96008  25244544.01607
  -5618059.96208  -4377708.40308  23317033.70908  23317036.14808
 -22022496.10108 -17160377.16608  20978940.94708  20978942.05108
 -18152178.31308 -14144540.93408  21770872.84708  21770873.98208
 93 07 09 04 53 00.0000000  0  8 31 02 23 21 14 28 15 01
 -20096954.88508 -15659957.45408  21209274.48608  21209275.20008
  -8595472.17508  -6697765.58108  23894899.39008  23894901.58608
  -3145422.11907  -2450967.93308  24792857.79407  24792860.56508
 -19986928.46508 -15574214.77108  21765898.05108  21765899.29608
   -883879.97407   -688737.36508  25202528.24907  25202532.54408
  -5388921.50308  -4199159.12008  23360637.54008  23360639.62808
 -22151980.39508 -17261273.99608  20954300.91908  20954301.99608
 -18232985.07008 -14207507.21308  21755495.81608  21755496.95508
 93 07 09 04 54 00.0000000  0  8 31 02 23 21 14 28 15 01
 -19969047.93808 -15560289.76208  21233614.48208  21233615.18608
  -8622448.66708  -6718786.21908  23889765.98108  23889768.23408
  -2937874.74308  -2289242.79907  24832353.19708  24832354.63907
 -19833098.38108 -15454347.22608  21795171.00208  21795172.22208
  -1104505.89008   -860653.48107  25160544.93308  25160548.58007
  -5159050.97708  -4020039.37108  23404380.45008  23404382.56908
 -22280039.21908 -17361060.07008  20929932.08008  20929933.18008
 -18311607.78308 -14268771.63608  21740534.39608  21740535.56408
 93 07 09 04 55 00.0000000  0  8 31 02 23 21 14 28 15 01
 -19839088.07508 -15459022.38808  21258344.96608  21258345.67808
  -8647108.45908  -6738001.64308  23885073.36108  23885075.69708
  -2730049.60907  -2127301.02008  24871900.59307  24871903.06008
 -19678010.18608 -15333499.33308  21824683.34808  21824684.62308
  -1324836.65007  -1032339.79407  25118616.93607  25118620.00907
  -4928396.23808  -3840308.56208  23448272.74308  23448275.01508
 -22406603.31408 -17459681.41908  20905847.73408  20905848.82608
 -18388028.74908 -14328320.41708  21725991.93008  21725992.99708
 93 07 09 04 56 00.0000000  0  8 31 02 23 21 14 28 15 01
 -19706997.93508 -15356095.06708  21283481.00108  21283481.74308
  -8669400.07608  -6755371.73408  23880831.53608  23880833.76308
  -2521880.17308  -1965091.02707  24911514.03308  24911516.04107
 -19521494.16908 -15211538.86108  21854467.38208  21854468.66808
  -1544744.66507  -1203696.50108  25076769.68207  25076773.74308
  -4696956.66908  -3659966.21308  23492314.40808  23492316.74408
 -22531624.08108 -17557100.17708  20882057.05208  20882058.12808
 -18462165.47708 -14386089.27608  21711884.20408  21711885.24708
 93 07 09 04 57 00.0000000  0  8 31 02 23 21 14 28 15 01
 -19572872.47108 -15251581.78208  21309004.24808  21309005.00208
  -8689326.37308  -6770898.73108  23877039.68508  23877041.99408
  -2313491.96208  -1802710.22707  24951168.70208  24951170.41707
 -19363537.43308 -15088455.74808  21884525.64108  21884526.93208
  -1764332.89908  -1374804.01108  25034983.65008  25034987.27608
  -4464799.64208  -3479064.79508  23536492.80808  23536495.06208
 -22655188.30608 -17653383.96808  20858543.57208  20858544.61408
 -18533955.50208 -14442029.52808  21698223.00508  21698224.05608
 93 07 09 04 58 00.0000000  0  8 31 02 23 21 14 28 15 01
 -19436778.23908 -15145534.39308  21334902.11208  21334902.90808
  -8706844.56008  -6784549.26908  23873706.08108  23873708.41708
  -2104869.61308  -1640147.14507  24990867.97608  24990870.04107
 -19204112.70708 -14964228.72108  21914863.18208  21914864.43508
  -1983573.71807  -1545640.88007  24993263.00107  24993266.44707
  -4231808.78508  -3297513.61608  23580829.48308  23580831.90808
 -22777228.05408 -17748479.85808  20835320.15808  20835321.19208
 -18603234.56208 -14496013.18608  21685039.58808  21685040.71208
 93 07 09 04 59 00.0000000  0  8 31 02 23 21 14 28 15 01
 -19298967.22808 -15038149.25208  21361126.69308  21361127.50608
  -8722128.20208  -6796458.60808  23870797.55608  23870799.90508
  -1896134.50408  -1477496.29707  25030589.14108  25030590.74107
 -19043441.11108 -14839030.11308  21945437.95408  21945439.23808
  -2202659.57208  -1716356.94408  24951572.52108  24951576.07108
  -3998209.50708  -3115488.36308  23625281.85408  23625284.32108
 -22897882.91808 -17842496.61808  20812360.27608  20812361.30308
 -18670304.33308 -14548275.32008  21672276.61308  21672277.69408
 93 07 09 05 00 00.0000000  0  8 31 21 02 23 14 28 15 01
 -19159288.74708 -14929308.94408  21387706.73308  21387707.55008
 -18881479.19208 -14712826.06108  21976258.33408  21976259.63408
  -8734995.65108  -6806485.19908  23868349.17208  23868351.36508
  -1687137.58608  -1314641.61407  25070359.72708  25070361.56407
  -2421452.35707  -1886844.70608  24909937.35707  24909941.19508
  -3763934.71008  -2932936.74108  23669863.01408  23669865.58708
 -23017014.07108 -17935326.07508  20789690.36508  20789691.39808
 -18735204.81308 -14598847.10808  21659926.46908  21659927.45908
 93 07 09 05 01 00.0000000  0  8 31 21 02 23 14 28 15 01
 -19019014.08108 -14820004.07808  21414400.19008  21414400.99508
 -18719586.72008 -14586676.15508  22007065.42008  22007066.73808
  -8746702.24008  -6815607.21708  23866121.43708  23866123.63108
  -1479213.61308  -1152623.02307  25109926.66508  25109928.59607
  -2641261.69108  -2058124.48507  24868108.87108  24868112.22007
  -3530273.28808  -2750863.08108  23714327.36908  23714329.90008
 -23135927.36509 -18027985.76508  20767061.88109  20767062.94108
 -18799133.77808 -14648661.87408  21647761.15908  21647762.22608
 93 07 09 05 02 00.0000000  0  8 31 21 02 23 14 28 15 01
 -18877780.70708 -14709952.16508  21441276.15208  21441276.98208
 -18557402.88408 -14460299.20508  22037928.00808  22037929.37108
  -8756952.19008  -6823594.19408  23864170.84908  23864173.16308
  -1272034.12407   -991184.66907  25149351.47007  25149353.13807
  -2861760.26008  -2229941.49608  24826149.31508  24826152.81808
  -3296865.01208  -2568986.65308  23758743.69108  23758746.27208
 -23254228.65209 -18120168.56608  20744549.88509  20744550.92408
 -18861519.85608 -14697274.38808  21635889.48408  21635890.52508
 93 07 09 05 03 00.0000000  0  8 31 21 02 23 14 28 15 01
 -18732883.64408 -14597045.43208  21468849.11908  21468849.93208
 -18392168.25908 -14331545.02508  22069371.19808  22069372.54108
  -8763117.99808  -6828398.71608  23862997.55608  23862999.91008
  -1062889.57708   -828214.91407  25189150.74608  25189152.43107
  -3080209.76808  -2400161.65008  24784579.65608  24784583.47608
  -3061086.23808  -2385263.09208  23803610.93408  23803613.46808
 -23369174.59409 -18209736.81308  20722676.38209  20722677.41508
 -18919633.97008 -14742558.10208  21624830.74908  21624831.76008
 93 07 09 05 04 00.0000000  0  8 31 21 02 23 14 28 15 01
 -18585339.49808 -14482076.03208  21496925.87408  21496926.72008
 -18224888.57208 -14201197.28908  22101203.52508  22101204.94408
  -8766220.31308  -6830816.09208  23862407.23808  23862409.62408
   -852764.38807   -664480.99708  25229135.86207  25229138.28608
  -3297566.32908  -2569530.29008  24743218.19508  24743221.22808
  -2823992.94908  -2200515.23408  23848728.54108  23848731.12408
 -23481767.80709 -18297471.76408  20701250.57609  20701251.63608
 -18974614.01708 -14785399.68708  21614368.37208  21614369.36408
 93 07 09 05 05 00.0000000  0  8 31 21 02 23 14 28 15 01
 -18435713.19608 -14365484.19108  21525398.81408  21525399.69108
 -18056127.80408 -14069695.46808  22133317.71108  22133319.10708
  -8766761.78208  -6831238.00708  23862304.13108  23862306.46608
   -642251.02307   -500444.65007  25269195.15007  25269197.05107
  -3514258.46308  -2738381.15708  24701982.55608  24701986.29008
  -2586076.63308  -2015126.07308  23894002.63808  23894005.36108
 -23592545.36709 -18383791.91908  20680170.29209  20680171.35408
 -19027066.53608 -14826271.76308  21604386.95708  21604388.02108
 93 07 09 05 06 00.0000000  0  8 31 21 02 23 14 28 15 01
 -18284225.38108 -14247441.81408  21554226.10408  21554226.96208
 -17886088.74508 -13937197.56508  22165675.10708  22165676.49408
  -8764922.92508  -6829805.11808  23862654.08508  23862656.40508
   -431538.70408   -336252.64007  25309292.44908  25309293.63807
  -3730449.46408  -2906841.50608  24660843.07308  24660846.25708
  -2347494.56608  -1829218.13608  23939403.42608  23939406.16708
 -23701673.48509 -18468826.79108  20659403.89009  20659404.94608
 -19077082.16808 -14865244.96908  21594869.25608  21594870.35508
 93 07 09 05 07 00.0000000  0  8 31 21 02 23 14 28 15 01
 -18131104.01308 -14128126.53508  21583364.24508  21583365.10108
 -17715074.66508 -13803939.91608  22198218.04808  22198219.50708
  -8760870.56208  -6826647.42908  23863425.24908  23863427.49008
   -220834.23407   -172066.96607  25349387.20207  25349389.49507
  -3946399.45708  -3075114.09608  24619748.86708  24619752.02108
  -2108534.80708  -1643015.90608  23984876.02308  23984878.73208
 -23809341.47109 -18552723.90308  20638915.34309  20638916.39408
 -19124802.00708 -14902429.24608  21585788.55608  21585789.54608
 93 07 09 05 08 00.0000000  0  8 31 21 02 23 14 28 15 01
 -17976348.88508 -14007538.17808  21612813.09808  21612814.05108
 -17543092.63108 -13669927.99608  22230945.18308  22230946.65308
  -8754551.22708  -6821723.26108  23864627.84608  23864629.99408
    -10115.43507     -7870.37408  25389485.79407  25389487.67708
  -4162145.94008  -3243228.09608  24578693.71208  24578696.87108
  -1869231.76608  -1456546.15508  24030414.02108  24030416.71808
 -23915530.68509 -18635468.72409  20618708.17609  20618709.22609
 -19170269.84008 -14937858.71308  21577136.23508  21577137.29308
 93 07 09 05 09 00.0000000  0  8 31 21 02 23 14 28 15 01
 -17819912.36908 -13885639.66408  21642582.11208  21642583.05208
 -17370073.84708 -13535108.22408  22263869.66608  22263871.06208
  -8745923.32708  -6815000.21608  23866269.56708  23866271.77608
    200630.82707    156347.73007  25429589.51207  25429591.06607
  -4377670.10408  -3411168.86908  24537680.58608  24537683.72008
  -1629512.54608  -1269752.10408  24076031.23808  24076034.00208
 -24020221.02409 -18717045.59009  20598786.23409  20598787.29909
 -19213545.12908 -14971579.70508  21568901.21208  21568902.24408
 93 07 09 05 10 00.0000000  0  8 31 02 23 21 14 28 15 01
 -17661746.24808 -13762393.39408  21672680.09708  21672681.08808
  -8735001.78008  -6806489.91208  23868347.68708  23868350.02708
    411363.35007    320555.02607  25469690.40407  25469692.00707
 -17195952.77208 -13399429.52208  22297003.83308  22297005.24708
  -4592895.77908  -3578877.09308  24496724.39208  24496727.56008
  -1389298.55308  -1082572.51908  24121742.52608  24121745.39908
 -24123363.23309 -18797416.12409  20579158.91309  20579159.95709
 -19254544.35808 -15003527.14108  21561099.28508  21561100.38408
 93 07 09 05 11 00.0000000  0  8 31 21 02 23 14 28 15 01
 -17501894.96308 -13637834.02708  21703098.85908  21703099.83708
 -17020779.33108 -13262930.78408  22330338.23808  22330339.71208
  -8721897.26108  -6796278.61408  23870841.35408  23870843.81008
    622018.33407    484701.87807  25509776.23107  25509778.07107
  -4807781.60008  -3746320.46508  24455832.82708  24455835.97808
  -1148705.35808   -895097.47308  24167525.97108  24167528.95608
 -24224948.35109 -18876573.33909  20559827.89709  20559828.92309
 -19293137.15108 -15033599.43708  21553755.33408  21553756.35208
 93 07 09 05 12 00.0000000  0  8 31 02 23 21 14 28 15 01
 -17340368.87408 -13511969.62108  21733836.36708  21733837.36208
  -8706554.54208  -6784323.25008  23873760.98308  23873763.40208
    832668.10907    648844.71607  25549861.67907  25549863.42907
 -16844567.69808 -13125623.07308  22363870.16308  22363871.69708
  -5022239.08208  -3913430.12408  24415022.79108  24415026.06908
   -907819.90508   -707394.69208  24213365.21608  24213368.21608
 -24324925.49709 -18954477.58709  20540802.84809  20540803.87909
 -19329260.04408 -15061747.14308  21546881.34608  21546882.36008
 93 07 09 05 13 00.0000000  0  8 31 21 02 23 14 28 15 01
 -17177235.60208 -13384852.86508  21764879.62408  21764880.62908
 -16667332.69308 -12987517.93308  22397596.91508  22397598.46308
  -8688894.77808  -6770562.41608  23877121.58908  23877123.93508
   1043371.39207    813029.17207  25589957.04907  25589958.72007
  -5236215.88608  -4080165.18608  24374304.46408  24374307.44508
   -666614.47808   -519442.59508  24259264.88308  24259267.91608
 -24423284.56909 -19031121.00209  20522085.72609  20522086.74909
 -19362993.77408 -15088033.16408  21540462.04908  21540463.12708
 93 07 09 05 14 00.0000000  0  7 31 02 21 14 28 15 01
 -17012465.60908 -13256460.72908  21796234.33108  21796235.37108
  -8668874.80708  -6754962.45908  23880931.33008  23880933.54308
 -16489060.03408 -12848604.20908  22431521.09308  22431522.63908
  -5449721.19108  -4246532.88108  24333675.49808  24333678.73108
   -425017.00908   -331185.00908  24305239.43308  24305242.37608
 -24519993.06509 -19106478.25409  20503682.70909  20503683.70409
 -19394431.38608 -15112530.00008  21534479.71008  21534480.77908
 93 07 09 05 15 00.0000000  0  7 31 21 02 14 28 15 01
 -16846090.05808 -13126817.50608  21827894.58308  21827895.64708
 -16309798.61208 -12708920.01808  22465633.45708  22465635.01208
  -8646562.75508  -6737576.46208  23885177.32608  23885179.56308
  -5662866.46508  -4412620.01908  24293115.36608  24293118.45308
   -183083.63908   -142665.66308  24351278.06608  24351281.12008
 -24615033.90809 -19180536.03309  20485597.04209  20485598.01509
 -19423575.28808 -15135239.52908  21528933.75308  21528934.77808
 93 07 09 05 16 00.0000000  0  8 31 02 12 21 14 28 15 01
 -16678131.89508 -12995941.08908  21859856.04008  21859857.15708
  -8621996.66808  -6718434.07408  23889852.14208  23889854.42308
        -0.06618         0.37218  24458209.88918  24458213.23518
 -16129573.28108 -12568484.74808  22499929.20708  22499930.83308
  -5875639.58508  -4578417.18608  24252625.89408  24252628.85308
     59155.68308     46092.07508  24397374.98208  24397378.14008
 -24708387.32909 -19253278.93709  20467832.47509  20467833.42309
 -19450336.80508 -15156092.64608  21523841.26208  21523842.28408
 93 07 09 05 17 00.0000000  0  8 31 02 12 21 14 28 15 01
 -16508549.69308 -12863799.18908  21892126.45908  21892127.58408
  -8595155.48408  -6697518.88708  23894959.68208  23894962.13008
    -84820.95408    -66093.79807  24442068.78308  24442071.78907
 -15948325.22608 -12427252.55208  22534419.66808  22534421.22808
  -6087948.26608  -4743852.42308  24212224.93008  24212228.15708
    301728.18308    235109.44408  24443535.17608  24443538.35108
 -24800022.81409 -19324683.18309  20450394.80809  20450395.73909
 -19474604.66208 -15175002.66008  21519223.23108  21519224.21408
 93 07 09 05 18 00.0000000  0  8 31 02 12 21 14 28 15 01
 -16337309.04508 -12730364.99808  21924712.50008  21924713.69608
  -8565964.56308  -6674772.74008  23900514.57908  23900517.00708
   -167158.26008   -130252.76207  24426400.81608  24426403.78207
 -15765996.20508 -12285178.02508  22569115.77008  22569117.30908
  -6299674.79908  -4908834.02708  24171934.63608  24171937.44408
    544652.02008    424400.57308  24489762.00008  24489765.20608
 -24889901.94609 -19394718.85009  20433291.36609  20433292.27109
 -19496374.06208 -15191965.81708  21515080.67008  21515081.70108
 93 07 09 05 19 00.0000000  0  8 31 02 12 21 14 28 15 01
 -16164387.82808 -12595621.28308  21957618.46008  21957619.64408
  -8534361.78608  -6650147.23108  23906528.46708  23906530.93108
   -246966.87408   -192441.22407  24411213.50908  24411216.58307
 -15582566.02608 -12142245.47208  22604021.36308  22604022.93408
  -6510785.47608  -5073335.74608  24131761.40008  24131764.56008
    787927.14407    613965.42307  24536055.88907  24536059.12007
 -24977983.87509 -19463354.10009  20416529.90109  20416530.83409
 -19515648.92308 -15206985.17708  21511412.69808  21511413.66608
 93 07 09 05 20 00.0000000  0  8 31 02 12 21 14 28 15 01
 -15989956.35408 -12459700.72808  21990811.65208  21990812.85208
  -8500523.42208  -6623779.68908  23912967.67408  23912970.08008
   -324391.29008   -252771.72108  24396480.07808  24396483.04608
 -15398195.71708 -11998580.33708  22639105.91108  22639107.45408
  -6721499.55608  -5237528.44608  24091664.01708  24091666.75808
   1031455.78307    803727.82107  24582397.83907  24582401.11307
 -25064416.48009 -19530704.16209  20400082.30709  20400083.22709
 -19532618.93508 -15220208.55108  21508183.44208  21508184.41308
 93 07 09 05 21 00.0000000  0  8 31 21 02 12 14 28 15 01
 -15813985.20508 -12322580.42708  22024297.98308  22024299.13608
 -15212922.92108 -11854211.97808  22674362.26408  22674363.81108
  -8464488.01708  -6595700.18508  23919824.89208  23919827.35508
   -399393.43808   -311214.84208  24382207.58308  24382210.81108
  -6931834.73208  -5401425.89308  24051638.37908  24051641.44808
   1275244.51208    993692.89407  24628789.58208  24628792.72307
 -25149165.35909 -19596742.23209  20383955.11309  20383956.03709
 -19547238.02708 -15231600.04108  21505401.47608  21505402.40708
 93 07 09 05 22 00.0000000  0  7 31 21 02 14 28 15 01
 -15636514.67208 -12184291.79308  22058069.54508  22058070.77008
 -15026795.11608 -11709177.37008  22709781.23408  22709782.82308
  -8426265.21808  -6565916.19908  23927098.49708  23927100.71408
  -7141711.50608  -5564966.13508  24011700.11208  24011702.90208
   1519253.56208   1183829.66207  24675223.17608  24675226.31907
 -25232162.57109 -19661415.36409  20368161.25209  20368162.18509
 -19559385.88208 -15241065.89408  21503089.79308  21503090.81508
 93 07 09 05 23 00.0000000  0  8 31 21 02 07 14 28 15 01
 -15457599.49708 -12044877.44508  22092116.04008  22092117.21508
 -14839760.68808 -11563436.30108  22745372.70008  22745374.35008
  -8385795.94708  -6534381.71908  23934799.72808  23934802.03508
        -0.37717        -0.53917  25446986.94317  25446989.85117
  -7351045.32908  -5728083.29908  23971865.11408  23971868.06508
   1763420.36808   1374089.35407  24721686.77008  24721690.04107
 -25313341.23409 -19724671.44509  20352713.44709  20352714.37609
 -19568984.02408 -15248544.95108  21501263.31208  21501264.36608
 93 07 09 05 24 00.0000000  0  8 31 21 02 07 14 28 15 01
 -15277242.08708 -11904339.26308  22126436.92408  22126438.19108
 -14651792.77408 -11416967.84508  22781141.84408  22781143.46508
  -8343060.33008  -6501081.26608  23942932.09808  23942934.46408
   -215070.74707   -167587.68907  25406060.01107  25406063.18007
  -7559867.57808  -5890801.81408  23932127.44208  23932130.33808
   2007685.60008   1564425.72108  24768168.92908  24768172.41108
 -25392736.27709 -19786537.68909  20337605.04009  20337605.95009
 -19576123.27708 -15254107.99808  21499904.77908  21499905.71808
 93 07 09 05 25 00.0000000  0  8 31 21 02 07 14 28 15 01
 -15095288.79608 -11762557.55408  22161061.57208  22161062.81908
 -14462817.37208 -11269714.34408  22817102.69608  22817104.34308
  -8297929.95108  -6465914.75808  23951520.12608  23951522.39808
   -429543.68607   -334709.39107  25365247.39907  25365250.32807
  -7768031.86408  -6053007.63308  23892514.93408  23892517.83208
   2252148.67408   1754916.24908  24814688.94208  24814692.54408
 -25470259.09309 -19846945.05909  20322852.92909  20322853.84009
 -19580766.34808 -15257725.96308  21499021.21408  21499022.20108
 93 07 09 05 26 00.0000000  0  8 31 02 07 21 14 28 15 01
 -14911849.23308 -11619617.72908  22195969.00808  22195970.25708
  -8250586.57408  -6429023.83608  23960529.14508  23960531.52208
   -643439.03307   -501380.95707  25324544.21807  25324547.00907
 -14272980.08808 -11121789.21608  22853227.58308  22853229.22208
  -7975580.67508  -6214733.87208  23853019.57508  23853022.42508
   2496746.55407   1945511.78808  24861234.27307  24861238.01408
 -25546012.55209 -19905973.71009  20308437.48809  20308438.41509
 -19583006.90408 -15259471.83208  21498594.84908  21498595.81708
 93 07 09 05 27 00.0000000  0  8 01 02 07 31 21 14 28 15
 -19582846.34708 -15259346.70508  21498625.30908  21498626.32808
  -8201096.86308  -6390460.44608  23969946.79308  23969949.20908
   -856641.19407   -667512.43607  25283972.98007  25283976.07407
 -14727002.28008 -11475581.23708  22231144.31508  22231145.54208
 -14082262.19408 -10973177.90708  22889520.04208  22889521.72008
  -8182465.49708  -6375942.70608  23813650.70808  23813653.46008
   2741540.76007   2136260.30308  24907817.18107  24907821.05808
 -25619961.08209 -19963595.92309  20294365.53709  20294366.46009
 93 07 09 05 28 00.0000000  0  8 01 02 07 31 21 14 28 15
 -19580294.01508 -15257357.86008  21499111.06208  21499112.03208
  -8149390.36308  -6350169.70408  23979786.32008  23979788.74508
  -1069093.37607   -833059.49108  25243544.84807  25243547.83908
 -14540762.85908 -11330459.72108  22266584.60608  22266585.87608
 -13890530.43708 -10823776.60508  22926005.36608  22926007.14308
  -8388650.52508  -6536606.25108  23774414.86608  23774417.65208
   2986565.25507   2327188.26207  24954443.85807  24954447.66607
 -25692019.68109 -20019745.46009  20280653.22009  20280654.11409
 93 07 09 05 29 00.0000000  0  8 01 02 07 31 21 14 28 15
 -19575488.25108 -15253613.10108  21500025.50008  21500026.49208
  -8095589.17108  -6308246.72408  23990024.32408  23990026.80708
  -1280998.18507   -998180.02707  25203220.64907  25203223.57807
 -14353314.06808 -11184395.82808  22302254.94908  22302256.21808
 -13697992.96108 -10673747.48208  22962644.10608  22962645.85708
  -8594352.14408  -6696893.11108  23735271.05308  23735273.81108
   3231582.72507   2518110.79707  25001069.47507  25001073.14207
 -25762356.55809 -20074553.39609  20267268.54309  20267269.45609
 93 07 09 05 30 00.0000000  0  8 01 02 07 31 21 14 28 15
 -19568208.69908 -15247940.71408  21501410.77808  21501411.72708
  -8039567.50108  -6264593.52208  24000684.89108  24000687.48608
  -1492217.29107  -1162766.22307  25163026.60507  25163029.45907
 -14164486.53008 -11037257.59308  22338187.75308  22338189.03908
 -13504711.90808 -10523138.93008  22999424.33908  22999426.07508
  -8799483.42808  -6856735.54708  23696235.81408  23696238.45408
   3476635.53508   2709060.91707  25047701.69108  25047704.97607
 -25830861.82509 -20127934.10609  20254232.41909  20254233.33709
 93 07 09 05 31 00.0000000  0  8 01 02 07 31 21 14 28 15
 -19559310.00008 -15241006.64808  21503104.13108  21503105.07208
  -7982301.21108  -6219970.48608  24011582.39508  24011584.85808
  -1703615.97707  -1327492.35607  25122798.79507  25122801.57507
 -13975170.43308 -10889738.65208  22374213.44208  22374214.77908
 -13311676.80208 -10372722.02508  23036157.75108  23036159.52308
  -9004986.56308  -7016867.73708  23657129.71208  23657132.41608
   3720786.14108   2899308.04707  25094161.96308  25094165.47007
 -25898442.95209 -20180594.70409  20241372.13109  20241373.04509
 93 07 09 05 32 00.0000000  0  8 01 02 07 31 21 14 28 15
 -19548970.02508 -15232949.51208  21505071.77508  21505072.71308
  -7923992.32908  -6174535.04108  24022678.22108  24022680.59508
  -1915302.35908  -1492442.70508  25082516.35908  25082519.30008
 -13785598.26708 -10742020.16908  22410287.93808  22410289.32308
 -13118979.29508 -10222568.20908  23072826.94508  23072828.72908
  -9210950.96108  -7177359.34308  23617935.97208  23617938.55108
   3963884.93407   3088735.57207  25140422.21107  25140425.96107
 -25965218.08809 -20232627.26209  20228665.24509  20228666.13209
 93 07 09 05 33 00.0000000  0  8 01 02 07 31 21 14 28 15
 -19534511.35608 -15221682.99808  21507823.17108  21507824.09908
  -7861875.75708  -6126132.55708  24034498.71008  24034500.97708
  -2124528.66807  -1655476.08007  25042701.51107  25042704.56607
 -13593070.36708 -10591998.52708  22446924.83008  22446926.20708
 -12923845.29708 -10070515.80608  23109959.79008  23109961.44908
  -9414569.31108  -7336022.88308  23579188.58308  23579191.32608
   4208667.16807   3279474.87207  25187002.82607  25187006.76107
 -26028402.82009 -20281862.09909  20216641.54809  20216642.46209
 93 07 09 05 34 00.0000000  0  8 01 02 07 31 21 14 28 15
 -19517015.83208 -15208050.10908  21511152.42908  21511153.37008
  -7796868.57708  -6075477.64608  24046869.13908  24046871.41808
  -2332332.84608  -1817401.28807  25003157.88408  25003160.40407
 -13398491.92108 -10440379.05808  22483951.96708  22483953.32308
 -12727285.76208  -9917352.61508  23147363.90508  23147365.50208
  -9616812.45008  -7493614.80608  23540702.92908  23540705.48108
   4454132.89007   3470746.72407  25233713.26907  25233717.25607
 -26088981.40709 -20329066.17709  20205113.81909  20205114.72909
 93 07 09 05 35 00.0000000  0  8 01 02 07 31 21 14 28 15
 -19496913.60808 -15192386.02708  21514977.75208  21514978.69508
  -7729286.64208  -6022816.43908  24059729.54208  24059732.06008
  -2539104.34808  -1978521.89107  24963810.52208  24963813.28907
 -13202284.96308 -10287490.61108  22521289.00208  22521290.46508
 -12529643.58708  -9763345.78508  23184973.93908  23184975.66108
  -9818061.22008  -7650431.90208  23502406.43908  23502408.98508
   4699932.63407   3662278.84807  25280487.49807  25280491.72407
 -26147379.27409 -20374570.99209  20194001.05809  20194001.97009
 93 07 09 05 36 00.0000000  0  8 01 02 07 31 21 14 28 15
 -19474474.22108 -15174900.78008  21519247.81308  21519248.74008
  -7659512.92108  -5968447.35708  24073007.07708  24073009.64608
  -2745088.37208  -2139028.76108  24924612.77608  24924615.65608
 -13004931.31008 -10133708.65608  22558844.14208  22558845.64508
 -12331195.73208  -9608711.16608  23222737.32808  23222739.10708
 -10018659.58808  -7806742.18508  23464233.71108  23464236.28608
   4945727.52507   3853807.19307  25327260.67207  25327264.84507
 -26203941.09809 -20418645.11509  20183237.70209  20183238.58409
 93 07 09 05 37 00.0000000  0  7 01 02 07 31 21 14 15
 -19449667.33608 -15155570.73108  21523968.41608  21523969.35708
  -7587773.96008  -5912546.92308  24086658.59608  24086661.20308
  -2950264.39808  -2298906.07007  24885569.22408  24885571.66807
 -12806607.39008  -9979170.63908  22596584.01108  22596585.54308
 -12132074.91908  -9453552.14808  23260628.85908  23260630.67008
 -10218709.26808  -7962624.91408  23426165.43208  23426167.95908
 -26258714.92809 -20461326.01309  20172814.58409  20172815.46909
 93 07 09 05 38 00.0000000  0  8 01 02 07 31 21 14 09 15
 -19422555.66208 -15134444.74508  21529127.59008  21529128.46408
  -7514226.03508  -5855236.90708  24100654.37308  24100656.91708
  -3154653.97908  -2458170.58507  24846674.97208  24846677.29907
 -12607295.93408  -9823863.14808  22634511.86808  22634513.41308
 -11932436.34308  -9297989.66908  23298618.77208  23298620.54508
 -10418272.61108  -8118128.70108  23388189.76108  23388192.20208
         0.23518        -0.29618  24749294.27818  24749296.51318
 -26311754.77509 -20502655.74109  20162721.40309  20162722.27609
 93 07 09 05 39 00.0000000  0  8 01 02 07 31 21 14 09 15
 -19393126.26108 -15111512.73508  21534727.80008  21534728.67508
  -7438743.74108  -5796419.57808  24115018.21908  24115020.62308
  -3358174.10508  -2616757.51708  24807946.21808  24807949.02708
 -12406837.20708  -9667661.65108  22672658.08408  22672659.66308
 -11732220.13208  -9141977.10808  23336718.76708  23336720.60608
 -10617245.08008  -8273172.06908  23350326.36108  23350328.86808
     50111.21308     39047.21408  24758830.05908  24758832.44208
 -26362967.91309 -20542562.06509  20152975.86509  20152976.71909
 93 07 09 05 40 00.0000000  0  8 01 02 07 31 21 14 09 15
 -19361300.74508 -15086713.62208  21540783.95408  21540784.90208
  -7361180.04808  -5735980.38608  24129778.26408  24129780.53708
  -3560737.05808  -2774598.64808  24769399.78908  24769402.30908
 -12205157.77808  -9510508.98508  22711036.38008  22711038.06908
 -11531373.39108  -8985473.21908  23374938.67608  23374940.52108
 -10815560.82508  -8427703.68608  23312588.05708  23312590.49108
    102415.74008     79803.99108  24768783.38708  24768785.75008
 -26412242.84409 -20580958.10209  20143599.13509  20143600.00109
 93 07 09 05 41 00.0000000  0  8 01 02 07 31 21 14 09 15
 -19327189.38408 -15060133.33208  21547275.14208  21547276.10708
  -7281746.36608  -5674084.06008  24144893.90708  24144896.35708
  -3762555.31608  -2931859.52407  24730994.73408  24730997.22707
 -12002450.26508  -9352555.22808  22749610.44008  22749612.07408
 -11330084.12608  -8828624.50308  23413242.69508  23413244.56008
 -11013296.19408  -8581783.09008  23274960.14408  23274962.55008
    156783.64608    122168.60808  24779129.43008  24779131.71608
 -26459694.99509 -20617933.78109  20134569.25809  20134570.13309
 93 07 09 05 42 00.0000000  0  8 01 02 07 31 21 14 09 15
 -19290753.62508 -15031741.83008  21554208.63608  21554209.54508
  -7200391.73408  -5610690.90508  24160375.06508  24160377.58408
  -3963528.34308  -3088461.77308  24692750.97508  24692753.39608
 -11798647.28808  -9193747.84208  22788392.93308  22788394.53808
 -11128219.01408  -8671327.09408  23451656.49708  23451658.28708
 -11210208.52008  -8735221.16008  23237488.85208  23237491.21808
    213321.57508    166224.06408  24789888.37908  24789890.55808
 -26505202.06309 -20653393.82109  20125909.54509  20125910.42309
 93 07 09 05 43 00.0000000  0  8 01 02 07 31 21 14 09 15
 -19252056.95608 -15001588.57908  21561572.37608  21561573.33408
  -7117018.56708  -5545724.87208  24176240.60108  24176243.16408
  -4163515.79808  -3244296.04808  24654694.47708  24654697.04708
 -11593778.21708  -9034109.74708  22827378.33608  22827380.05708
 -10925654.02308  -8513484.32208  23490203.43508  23490205.21808
 -11406255.55708  -8887984.98608  23200182.33908  23200184.70708
    272062.57608    211996.26608  24801066.49508  24801068.39308
 -26548714.67909 -20687299.73809  20117629.35209  20117630.22409
 93 07 09 05 44 00.0000000  0  8 01 02 07 31 21 14 09 15
 -19211012.48008 -14969605.87108  21569382.88508  21569383.85208
  -7031528.28108  -5479109.13208  24192508.90908  24192511.45208
  -4362363.41108  -3399242.08408  24616854.86808  24616857.20908
 -11387807.09408  -8873612.90308  22866573.43108  22866575.17708
 -10722288.45408  -8355017.72908  23528902.62408  23528904.44208
 -11601474.46408  -9040103.53108  23163033.25208  23163035.70308
    333050.51408    259519.30008  24812671.98808  24812674.10808
 -26590174.05609 -20719605.72309  20109739.87809  20109740.74309
 93 07 09 05 45 00.0000000  0  8 01 02 07 31 21 14 09 15
 -19167648.54808 -14935815.79608  21577634.75308  21577635.74508
  -6944125.02008  -5411002.76808  24209141.33008  24209143.96008
  -4560270.63208  -3553455.40208  24579194.41308  24579196.81108
 -11180849.82908  -8712347.63108  22905956.18708  22905957.93108
 -10518306.20008  -8196070.58108  23567719.16308  23567721.11708
 -11796078.23208  -9191742.73008  23126001.44508  23126003.73108
    396090.70708    308641.56708  24824667.90108  24824670.20308
 -26629758.33309 -20750450.59409  20102207.21609  20102208.08709
 93 07 09 05 46 00.0000000  0  8 01 02 07 31 21 14 09 15
 -19121819.30208 -14900104.69508  21586355.78508  21586356.74208
  -6854703.22808  -5341323.52308  24226157.88408  24226160.26908
  -4757196.90108  -3706904.30808  24541720.24008  24541722.84408
 -10972778.32008  -8550214.11508  22945550.87808  22945552.74008
 -10313687.57908  -8036627.55908  23606656.80808  23606658.80108
 -11989932.90608  -9342798.22708  23089112.03708  23089114.34308
    461270.21708    359430.79808  24837071.30808  24837073.19408
 -26667363.59309 -20779753.38609  20095051.18809  20095052.02009
 93 07 09 05 47 00.0000000  0  8 01 02 07 31 21 14 09 15
 -19073614.46308 -14862542.49008  21595528.81908  21595529.79208
  -6763291.73908  -5270093.85308  24243552.80808  24243555.47408
  -4953113.57108  -3859566.53008  24504438.73808  24504440.98108
 -10763729.67508  -8387319.21108  22985331.80108  22985333.70408
 -10108587.79108  -7876809.61908  23645686.01908  23645688.25308
 -12183095.33108  -9493314.32108  23052354.31308  23052356.62108
    528543.61108    411851.68407  24849872.60408  24849874.23307
 -26703020.14109 -20807537.69609  20088265.96809  20088266.80009
 93 07 09 05 48 00.0000000  0  8 01 02 07 31 21 14 09 15
 -19023115.39508 -14823192.57508  21605138.55208  21605139.50008
  -6669953.85908  -5197363.11608  24261314.49208  24261317.05008
  -5147952.53408  -4011389.01108  24467361.81908  24467364.36208
 -10553742.34408  -8223692.85608  23025291.03508  23025293.00708
  -9903040.24808  -7716642.75008  23684800.50808  23684802.66208
 -12375533.12708  -9643265.77008  23015734.60608  23015736.81408
    597924.82707    465914.96907  24863074.90307  24863076.85007
 -26736697.33709 -20833779.65509  20081857.39709  20081858.23909
 93 07 09 05 49 00.0000000  0  8 01 02 07 31 21 14 09 15
 -18970360.99808 -14782085.25808  21615177.34208  21615178.29708
  -6574773.09908  -5123196.33308  24279426.84508  24279429.45308
  -5341639.92408  -4162314.11308  24430504.21408  24430506.71108
 -10342764.46508  -8059294.65508  23065438.91908  23065440.88708
  -9696988.45208  -7556082.96408  23724010.96608  23724012.89108
 -12567134.01308  -9792565.07208  22979274.04408  22979276.27208
    669440.95807    521641.70307  24876684.12707  24876685.75707
 -26768350.17409 -20858444.19609  20075834.04709  20075834.86809
 93 07 09 05 50 00.0000000  0  8 01 02 07 31 21 14 09 15
 -18915293.07008 -14739175.18708  21625656.43408  21625657.34908
  -6477748.20908  -5047592.58108  24297889.98008  24297892.75108
  -5534098.81408  -4312281.97808  24393880.51808  24393882.76208
 -10130821.34408  -7894144.29008  23105770.41708  23105772.38108
  -9490381.09108  -7395090.32008  23763327.13508  23763329.11108
 -12757793.30908  -9941130.67008  22942992.76408  22942994.94108
    743090.63107    579030.95507  24890699.03507  24890700.47007
 -26797963.96509 -20881519.87309  20070198.71009  20070199.55309
 93 07 09 05 51 00.0000000  0  7 01 02 07 31 21 14 15
 -18857726.41608 -14694318.05208  21636611.01308  21636611.98108
  -6378709.29508  -4970419.45208  24316736.57308  24316739.35108
  -5725207.24808  -4461197.53008  24357513.73608  24357516.15008
  -9917857.33308  -7728198.41108  23146296.27308  23146298.16108
  -9283078.62608  -7233555.95808  23802775.47108  23802777.60008
 -12947479.25508 -10088937.81208  22906896.67408  22906898.80808
 -26825425.85009 -20902918.74209  20064972.89209  20064973.72909
 93 07 09 05 52 00.0000000  0  7 01 02 07 31 21 14 15
 -18797954.52208 -14647742.54908  21647985.22208  21647986.15408
  -6277915.16408  -4891878.65108  24335917.27608  24335919.92908
  -5915275.21408  -4609302.32208  24321344.85508  24321347.26708
  -9704130.81008  -7561658.37108  23186967.14608  23186969.13208
  -9075334.13308  -7071677.15708  23842307.96208  23842310.09108
 -13136500.99808 -10236227.39308  22870926.98208  22870929.16708
 -26850993.68709 -20922841.72709  20060107.48409  20060108.31509
 93 07 09 05 53 00.0000000  0  8 01 02 07 31 21 14 25 15
 -18735942.01808 -14599421.12208  21659785.76808  21659786.73808
  -6175249.76608  -4811879.71908  24355453.71808  24355456.34808
  -6104238.49808  -4756546.31308  24285386.16808  24285388.52308
  -9489569.28608  -7394467.67808  23227796.99208  23227798.90908
  -8867059.90508  -6909385.55908  23881941.13608  23881943.36208
 -13324705.97408 -10382880.52508  22835112.70008  22835114.81208
        -0.08318        -0.14917  25340494.42018  25340496.60117
 -26874562.82609 -20941207.27209  20055622.40709  20055623.23509
 93 07 09 05 54 00.0000000  0  8 01 02 07 31 21 14 25 15
 -18671693.49508 -14549357.34108  21672011.84708  21672012.79708
  -6070733.08208  -4730438.20908  24375342.71608  24375345.32708
  -6292026.12008  -4902874.23508  24249651.40008  24249653.76008
  -9274180.07308  -7226632.03308  23268784.13108  23268786.17908
  -8658307.03508  -6746721.02908  23921665.71408  23921667.43908
 -13512005.26208 -10528827.91608  22799470.67908  22799472.77808
   -195786.65608   -152561.02007  25303237.42108  25303239.53107
 -26896108.39509 -20957996.02309  20051522.42409  20051523.23209
 93 07 09 05 55 00.0000000  0  8 01 02 07 31 21 14 25 15
 -18605176.79908 -14497526.15308  21684669.62908  21684670.53808
  -5964409.63708  -4647588.84108  24395575.54808  24395578.12408
  -6478543.33308  -5048212.20608  24214158.31108  24214160.59708
  -9057927.12408  -7058123.36408  23309935.83508  23309937.87308
  -8449132.18008  -6583727.76908  23961470.47308  23961472.35808
 -13698378.48808 -10674053.70308  22764005.06308  22764007.02808
   -391323.69808   -304927.46707  25266027.88508  25266029.85507
 -26915605.89209 -20973188.87409  20047812.16309  20047812.95509
 93 07 09 05 56 00.0000000  0  8 01 02 07 31 21 14 25 15
 -18536409.62408 -14443941.34708  21697755.53208  21697756.47708
  -5856340.05908  -4563378.88007  24416140.51408  24416143.15807
  -6663800.68308  -5192568.49408  24178904.81108  24178906.98408
  -8840820.55308  -6888949.51908  23351249.97708  23351251.96608
  -8239542.73108  -6420411.24508  24001353.75608  24001356.22308
 -13883894.12708 -10818611.24408  22728702.46308  22728704.53208
   -586654.42908   -457133.16907  25228857.54108  25228859.49407
 -26933056.36609 -20986786.63509  20044491.42709  20044492.22809
 93 07 09 05 57 00.0000000  0  8 01 14 02 07 31 21 25 15
 -18465407.60908 -14388615.11108  21711266.75508  21711267.72708
 -14068540.89408 -10962491.74108  22693565.29908  22693567.29508
  -5746522.98408  -4477807.21207  24437038.07308  24437040.75507
  -6847827.24208  -5335965.71308  24143885.63108  24143887.91708
  -8622878.99808  -6719125.05108  23392722.96508  23392725.11008
  -8029566.89408  -6256793.76507  24041310.84508  24041312.48507
   -781783.21308   -609181.48307  25191725.67008  25191727.70707
 -26948456.77209 -20998786.93909  20041560.84309  20041561.61009
 93 07 09 05 58 00.0000000  0  8 01 14 02 07 31 21 25 15
 -18392162.37108 -14331540.91208  21725204.86508  21725205.79008
 -14252298.29308 -11105679.22108  22658597.39908  22658599.36308
  -5634943.71508  -4390862.41107  24458270.89008  24458273.46507
  -7030558.11208  -5478353.30608  24109113.15208  24109115.31208
  -8404091.37008  -6548641.31508  23434356.87908  23434359.11608
  -7819147.31908  -6092830.44708  24081352.45508  24081354.77808
   -976644.49507   -761021.34607  25154644.58007  25154646.79207
 -26961769.76109 -21009160.69009  20039027.45109  20039028.22809
 93 07 09 05 59 00.0000000  0  8 01 14 02 07 31 21 25 15
 -18316725.46608 -14272758.92408  21739560.03108  21739560.99808
 -14435202.56608 -11248201.93308  22623791.71108  22623793.80608
  -5521612.18808  -4302552.22307  24479837.21608  24479839.83507
  -7211889.47908  -5619650.38708  24074606.88108  24074608.99808
  -8184499.02308  -6377530.49508  23476144.07008  23476146.26708
  -7608227.31308  -5928477.14408  24121489.32108  24121490.99208
  -1171149.34907   -912583.43008  25117631.30307  25117633.77808
 -26972969.29709 -21017887.60409  20036896.25609  20036897.04509
 93 07 09 06 00 00.0000000  0  8 01 14 02 07 31 21 25 15
 -18239079.43408 -14212255.53808  21754335.59808  21754336.59508
 -14617310.66008 -11390104.24308  22589137.62008  22589139.62208
  -5406620.10408  -4212948.07107  24501719.49908  24501722.58807
  -7391802.47408  -5759842.24408  24040370.36108  24040372.53808
  -7964201.90108  -6205870.50408  23518065.27008  23518067.38808
  -7396825.86108  -5763748.79808  24161717.48408  24161719.76208
  -1365253.31107  -1063833.09508  25080694.31207  25080696.80808
 -26982073.90609 -21024982.10509  20035163.68809  20035164.49809
 93 07 09 06 01 00.0000000  0  8 01 14 02 07 31 21 25 15
 -18159170.00508 -14149988.45808  21769541.91108  21769542.85008
 -14798517.62508 -11531304.37808  22554655.04908  22554656.98408
  -5289922.78208  -4122015.14807  24523926.20008  24523929.15907
  -7570353.54708  -5898972.87308  24006393.30408  24006395.29208
  -7743228.52408  -6033683.59608  23560115.15008  23560117.43508
  -7184938.02308  -5598641.30308  24202038.49708  24202040.36908
  -1558890.60407  -1214719.13608  25043846.56707  25043848.93608
 -26989075.42809 -21030437.83309  20033831.36009  20033832.14909
 93 07 09 06 02 00.0000000  0  8 14 01 02 07 31 21 25 15
 -14979889.88008 -11672633.32208  22520140.91408  22520142.87208
 -18078205.52108 -14086899.25808  21784948.92408  21784949.92108
  -5172683.75108  -4030660.17907  24546236.42608  24546239.20907
  -7748784.95808  -6038010.26308  23972438.80608  23972440.96608
  -7522809.02008  -5861928.28208  23602059.71108  23602061.98308
  -6973809.33208  -5434125.48908  24242215.25708  24242217.23008
  -1753286.68408  -1366196.45808  25006854.26808  25006856.41508
 -26995198.91709 -21035209.38009  20032666.13009  20032666.88109
 93 07 09 06 03 00.0000000  0  8 14 01 02 07 31 21 25 15
 -15160901.66408 -11813681.38008  22485695.49908  22485697.46208
 -17995771.29708 -14022664.80008  21800635.58608  21800636.60008
  -5054372.79408  -3938469.88207  24568750.13708  24568752.85607
  -7926521.50908  -6176506.19308  23938616.69008  23938618.71008
  -7302500.36008  -5690259.35408  23643983.27108  23643985.65808
  -6763037.86908  -5269887.93408  24282323.23108  24282325.12008
  -1948029.14908  -1517943.69008  24969795.97108  24969798.06908
 -26999977.16309 -21038932.69009  20031756.85709  20031757.59009
 93 07 09 06 04 00.0000000  0  8 14 01 02 07 31 21 25 15
 -15339248.61208 -11952652.94708  22451757.14008  22451759.04008
 -17909550.25508 -13955479.56908  21817042.93808  21817043.91708
  -4932650.75308  -3843621.60407  24591913.11608  24591915.76707
  -8101111.29708  -6312550.10408  23905393.22108  23905395.30608
  -7079939.66508  -5516835.58208  23686335.22708  23686337.59508
  -6550301.27108  -5104119.16808  24322805.83608  24322808.25508
  -2140764.40308  -1668126.85708  24933119.49208  24933121.57308
 -27001020.57609 -21039745.73809  20031558.29809  20031559.02109
 93 07 09 06 05 00.0000000  0  8 14 01 02 07 31 21 25 15
 -15516025.81608 -12090401.32308  22418117.50308  22418119.38608
 -17820624.06208 -13886186.43108  21833965.03708  21833965.99508
  -4808734.41008  -3747063.48207  24615493.72308  24615496.61307
  -8273614.27008  -6446967.91608  23872566.98608  23872569.05508
  -6856096.49108  -5342412.47508  23728931.28608  23728933.77908
  -6336637.93008  -4937628.14707  24363464.58208  24363466.22907
  -2332473.46708  -1817510.38808  24896638.38008  24896640.28408
 -26999334.70109 -21038432.06909  20031879.10209  20031879.84909
 93 07 09 06 06 00.0000000  0  8 14 01 02 07 31 21 25 15
 -15691729.14908 -12227312.91608  22384682.18608  22384684.00008
 -17729466.67608 -13815154.70608  21851311.71308  21851312.68108
  -4683229.69008  -3649267.66207  24639376.49808  24639379.31807
  -8444497.27608  -6580123.42108  23840048.92208  23840051.03908
  -6631405.41508  -5167328.67408  23771688.57608  23771691.12008
  -6122465.62508  -4770740.65408  24404220.10308  24404222.59408
  -2523526.67708  -1966382.88207  24860281.93408  24860283.75807
 -26995376.22709 -21035347.54609  20032632.36309  20032633.13909
 93 07 09 06 07 00.0000000  0  7 14 01 07 31 21 25 15
 -15866488.39208 -12363488.85808  22351426.53008  22351428.37508
 -17636145.33708 -13742436.78108  21869070.15008  21869071.11508
  -8613880.15508  -6712109.98708  23807816.33508  23807818.36008
  -6406063.70608  -4991737.87208  23814569.95008  23814572.43708
  -5907937.75508  -4603576.07707  24445043.41808  24445045.18107
  -2714023.24708  -2114821.65507  24824031.58408  24824033.04707
 -26989286.41309 -21030602.23709  20033791.21109  20033791.98609
 93 07 09 06 08 00.0000000  0  8 14 01 29 07 31 21 25 15
 -16040294.31508 -12498921.94108  22318352.30908  22318354.09308
 -17540685.48508 -13668052.48808  21887235.56008  21887236.52308
         0.20317         0.03917  25276324.82817  25276328.73917
  -8781784.95208  -6842944.80608  23775865.14908  23775867.06308
  -6180245.37008  -4815775.68608  23857541.75708  23857544.27708
  -5693181.02107  -4436232.97508  24485909.93707  24485912.34208
  -2904063.60608  -2262904.96207  24787867.99208  24787869.55807
 -26981151.64909 -21024263.46109  20035339.22109  20035339.98909
 93 07 09 06 09 00.0000000  0  8 14 01 29 07 31 21 25 15
 -16213195.06108 -12633649.69608  22285450.33208  22285452.11508
 -17443201.84808 -13592091.22408  21905786.05608  21905787.05608
   -229400.55307   -178753.67207  25232671.12307  25232675.07207
  -8948258.41508  -6972664.29108  23744186.04308  23744188.09808
  -5953982.86908  -4639467.40608  23900598.15708  23900600.57308
  -5478245.72608  -4268750.98508  24526811.05608  24526813.18308
  -3093647.40608  -2410632.50207  24751791.15508  24751792.94207
 -26971036.26009 -21016381.33409  20037264.11709  20037264.85909
 93 07 09 06 10 00.0000000  0  8 14 01 29 07 31 21 25 15
 -16385179.84208 -12767663.71308  22252722.59108  22252724.33608
 -17343769.10508 -13514611.17508  21924707.52408  21924708.50608
   -458785.78407   -357495.25707  25189020.46607  25189024.39607
  -9113309.90708  -7101275.76108  23712777.89108  23712779.86508
  -5727270.38508  -4462808.46808  23943740.19608  23943742.85408
  -5263013.99707  -4101037.76207  24567767.93907  24567769.47207
  -3282706.71008  -2557951.33207  24715814.17708  24715815.97007
 -26958893.75109 -21006919.63409  20039574.75409  20039575.50309
 93 07 09 06 11 00.0000000  0  8 14 01 29 07 31 21 25 15
 -16556220.95108 -12900942.40508  22220174.49608  22220176.24508
 -17242381.43308 -13435607.81108  21944000.99308  21944001.94308
   -688171.77807   -536237.42307  25145369.66107  25145373.56507
  -9276914.41408  -7228759.71708  23681644.76108  23681646.76008
  -5500218.04608  -4285884.72508  23986946.94308  23986949.51008
  -5047426.24808  -3933047.25308  24608793.08408  24608795.45708
  -3471225.42808  -2704848.89507  24679940.28408  24679942.18307
 -26944683.91009 -20995847.03709  20042278.82809  20042279.56509
 93 07 09 06 12 00.0000000  0  8 14 01 29 07 31 21 25 15
 -16726251.78308 -13033433.87008  22187818.66108  22187820.36908
 -17139084.42208 -13355116.64808  21963657.77908  21963658.71508
   -917622.53507   -715030.03307  25101706.47007  25101710.34707
  -9438988.78708  -7355051.35608  23650803.12808  23650804.95808
  -5272866.55908  -4108727.86608  24030210.64708  24030213.25508
  -4831622.22308  -3764888.21407  24649859.20008  24649860.57207
  -3659264.97108  -2851373.07408  24644157.53208  24644159.32608
 -26928428.13409 -20983180.19409  20045372.19009  20045372.92309
 93 07 09 06 13 00.0000000  0  8 14 01 29 07 31 21 25 15
 -16895158.04508 -13165049.05408  22155676.76408  22155678.47008
 -17033802.15208 -13273078.53308  21983692.34308  21983693.30408
  -1146996.01707   -893762.42107  25058057.95607  25058061.85907
  -9599362.54508  -7480017.84908  23620284.89208  23620286.77708
  -5045008.78308  -3931176.51708  24073570.67908  24073573.39008
  -4615660.48507  -3596606.06607  24690954.93807  24690956.95007
  -3846723.64108  -2997444.62008  24608485.26808  24608487.00408
 -26910060.81909 -20968867.99709  20048867.38009  20048868.10409
 93 07 09 06 14 00.0000000  0  8 14 29 07 31 21 25 15 01
 -17062871.44608 -13295734.74008  22123761.89008  22123763.57308
  -1376106.17407  -1072289.62507  25014459.60107  25014463.50907
  -9757914.75208  -7603564.93408  23590113.33008  23590115.21908
  -4816506.88208  -3753123.26208  24117053.16808  24117056.06708
  -4399490.82508  -3428162.07708  24732091.12708  24732092.99108
  -4033378.34408  -3142889.66808  24572965.83508  24572967.62008
 -26889479.77509 -20952830.82109  20052783.78109  20052784.51909
 -16926329.72808 -13189333.80508  22004143.66108  22004144.65208
 93 07 09 06 15 00.0000000  0  8 14 29 07 31 21 25 15 01
 -17229722.77608 -13425748.69108  22092011.15208  22092012.82408
  -1605220.88607  -1250820.38207  24970860.31607  24970864.27207
  -9914921.28808  -7725907.61808  23560235.95408  23560237.69408
  -4587715.79708  -3574844.67108  24160590.93508  24160593.80408
  -4183324.06307  -3259720.43106  24773225.44707  24773226.82206
  -4219402.23908  -3287843.18008  24537566.74908  24537568.32608
 -26866940.69209 -20935267.89909  20057072.83709  20057073.55509
 -16816909.06508 -13104070.96508  22024965.74408  22024966.73108
 93 07 09 06 16 00.0000000  0  8 14 29 07 31 21 25 15 01
 -17395672.68008 -13555060.23108  22060431.84308  22060433.46508
  -1834276.99507  -1429305.47407  24927272.31707  24927276.14707
 -10070356.67608  -7847026.01408  23530657.49108  23530659.38508
  -4358627.18808  -3396334.23108  24204185.25208  24204187.99908
  -3966975.31808  -3091136.74207  24814395.93108  24814397.49207
  -4404698.91708  -3432230.06308  24502305.88308  24502307.28908
 -26842335.76709 -20916095.23609  20061754.99809  20061755.72509
 -16705554.64508 -13017301.30208  22046155.81708  22046156.80908
 93 07 09 06 17 00.0000000  0  8 14 07 29 31 21 25 15 01
 -17560622.87708 -13683592.78008  22029042.76808  22029044.38108
 -10224200.32108  -7966904.09308  23501381.85508  23501383.81308
  -2063206.44807  -1607691.85708  24883708.35707  24883712.10108
  -4129247.54108  -3217597.00308  24247834.87608  24247837.66608
  -3750319.03707  -2922313.56308  24855623.69507  24855625.80308
  -4589295.65408  -3576071.54508  24467178.20308  24467179.62308
 -26815615.65609 -20895274.37509  20066839.66209  20066840.38809
 -16592344.45808 -12929085.58508  22067698.99008  22067699.97708
 93 07 09 06 18 00.0000000  0  8 14 07 29 31 21 25 15 01
 -17724433.39608 -13811237.26608  21997870.64808  21997872.27908
 -10376325.94908  -8085443.46508  23472433.26908  23472434.97108
  -2291903.97807  -1785897.50408  24840188.41807  24840192.23408
  -3899551.07108  -3038612.90808  24291544.74108  24291547.56008
  -3533307.51608  -2753213.68407  24896919.56708  24896921.01107
  -4773169.87008  -3719350.02008  24432187.86408  24432189.40208
 -26786733.37709 -20872768.70609  20072335.79609  20072336.49409
 -16477206.49508 -12839367.70408  22089608.99908  22089610.03908
 93 07 09 06 19 00.0000000  0  8 14 07 29 31 21 25 15 01
 -17887113.78608 -13938001.13308  21966913.51708  21966915.17908
 -10526646.83908  -8202576.56108  23443828.06508  23443829.91508
  -2520344.74608  -1963903.08708  24796717.54508  24796721.20208
  -3669552.47108  -2859393.38408  24335312.11408  24335314.97108
  -3316060.95608  -2583930.37707  24938260.37708  24938261.79907
  -4956309.36308  -3862055.98108  24397337.38608  24397339.04708
 -26755712.67409 -20848596.73009  20078238.85109  20078239.55009
 -16360103.46208 -12748118.60608  22111892.93208  22111894.00108
 93 07 09 06 20 00.0000000  0  8 14 07 29 31 21 25 15 01
 -18048602.56808 -14063836.47508  21936183.09508  21936184.68308
 -10675084.88108  -8318242.48708  23415581.26308  23415583.08408
  -2748422.94908  -2141626.16508  24753315.61508  24753319.26808
  -3439132.38608  -2679845.43708  24379159.69008  24379162.65408
  -3098627.79007  -2414501.83507  24979635.96007  24979637.96307
  -5138590.94108  -4004093.42208  24362650.26608  24362651.91408
 -26722485.98109 -20822705.80109  20084561.66609  20084562.39509
 -16241017.81508 -12655324.61108  22134554.17808  22134555.27708
 93 07 09 06 21 00.0000000  0  8 14 07 29 31 21 25 15 01
 -18209021.29508 -14188838.01408  21905656.38908  21905657.96308
 -10821824.29608  -8432584.83108  23387657.63708  23387659.38708
  -2976319.91208  -2319207.99808  24709948.03408  24709951.63708
  -3208389.50508  -2500045.96608  24423068.71308  24423071.82008
  -2881197.66207  -2245075.67107  25021011.71707  25021013.29407
  -5320113.01008  -4145539.05408  24328107.64908  24328109.00508
 -26687210.80609 -20795218.65409  20091274.33409  20091275.04509
 -16120101.15708 -12561103.86808  22157563.92508  22157565.02408
 93 07 09 06 22 00.0000000  0  8 14 07 29 31 21 25 15 01
 -18368302.98508 -14312953.55308  21875346.12408  21875347.67708
 -10966788.51608  -8545543.89508  23360071.77008  23360073.62608
  -3204022.20308  -2496638.12208  24666617.53608  24666621.01508
  -2977323.36808  -2319994.61508  24467039.21808  24467042.31308
  -2663611.51607  -2075527.78707  25062416.96407  25062418.40807
  -5500740.37708  -4286287.55708  24293735.39108  24293736.75708
 -26649815.20809 -20766079.22909  20098390.47509  20098391.18709
 -15997232.52908 -12465362.11008  22180945.06908  22180946.10708
 93 07 09 06 23 00.0000000  0  8 14 07 29 31 21 25 15 01
 -18526480.45508 -14436208.65608  21845245.88708  21845247.47108
 -11109968.42908  -8657112.59908  23332825.57808  23332827.30908
  -3431482.67908  -2673879.82708  24623333.16508  24623336.49108
  -2746114.58108  -2139832.08107  24511036.90708  24511039.95307
  -2445822.22707  -1905821.63707  25103860.55107  25103862.14607
  -5680427.82708  -4426303.65708  24259542.02408  24259543.32208
 -26610299.30209 -20735287.61709  20105910.09709  20105910.81809
 -15872445.26808 -12368125.30608  22204691.32208  22204692.33208
 93 07 09 06 24 00.0000000  0  8 14 07 29 31 21 25 15 01
 -18683525.51808 -14558581.36708  21815361.17808  21815362.71008
 -11251369.56708  -8767295.24708  23305917.76508  23305919.50508
  -3658645.69108  -2850889.72608  24580105.20608  24580108.58108
  -2514831.87408  -1959611.95207  24555048.64208  24555051.71207
  -2227902.17407  -1736013.54007  25145328.95007  25145330.57207
  -5859193.96008  -4565601.84308  24225523.74408  24225525.13308
 -26568664.56109 -20702844.96209  20113832.91109  20113833.65209
 -15745863.28508 -12269490.02108  22228779.05608  22228780.07408
 93 07 09 06 25 00.0000000  0  8 14 07 29 31 21 25 15 01
 -18839354.34908 -14680006.37308  21785707.89508  21785709.37908
 -11390974.34808  -8876078.14408  23279351.81008  23279353.41508
  -3885455.71608  -3027624.56607  24536944.51408  24536947.71607
  -2283324.12708  -1779216.47707  24599103.14808  24599106.41207
  -2009821.27207  -1566080.13907  25186828.32307  25186829.79507
  -6037019.62608  -4704167.17108  24191684.70708  24191685.98308
 -26524888.64009 -20668733.85409  20122163.21009  20122163.90809
 -15617550.42308 -12169506.00108  22253196.22208  22253197.22608
 93 07 09 06 26 00.0000000  0  8 14 29 07 31 21 25 15 01
 -18994005.80308 -14800513.93908  21756278.58208  21756280.03908
  -4111917.94908  -3204088.40708  24493850.02708  24493853.18008
 -11528684.90808  -8983385.03108  23253146.23408  23253147.84208
  -2051486.17508  -1598563.71307  24643220.58508  24643223.86507
  -1791508.72807  -1395966.23007  25228371.70707  25228373.15507
  -6213882.07708  -4841981.95708  24158028.70808  24158030.02708
 -26478977.47509 -20632958.92109  20130899.81909  20130900.50109
 -15487450.07508 -12068129.14008  22277953.57008  22277954.59608
 93 07 09 06 27 00.0000000  0  8 14 29 07 31 21 25 15 01
 -19147547.86408 -14920157.03708  21727060.40208  21727061.85108
  -4338061.42508  -3380303.82008  24450816.07708  24450819.32608
 -11664420.60908  -9089153.05508  23227316.56208  23227318.25608
  -1819428.98808  -1417740.10507  24687379.96808  24687383.14307
  -1573067.22907  -1225751.84407  25269939.52907  25269940.83207
  -6389798.65608  -4979059.71208  24124552.85908  24124554.11308
 -26430947.51509 -20595532.98209  20140039.62209  20140040.31609
 -15355491.74308 -11965304.49908  22303064.43108  22303065.46808
 93 07 09 06 28 00.0000000  0  8 14 29 07 31 21 25 15 01
 -19299958.69808 -15038918.67208  21698057.63008  21698059.05208
  -4563872.67408  -3556260.37608  24407845.36308  24407848.44608
 -11798233.13808  -9193422.51308  23201852.84308  23201854.41308
  -1587262.25308  -1236831.14007  24731560.06208  24731563.15207
  -1354702.85707  -1055597.61407  25311492.69407  25311494.06707
  -6564755.30908  -5115389.45508  24091259.50008  24091260.82408
 -26380811.66609 -20556466.09409  20149580.16109  20149580.87309
 -15221754.45708 -11861093.65508  22328513.82308  22328514.88908
 93 07 09 06 29 00.0000000  0  8 14 07 29 31 21 25 15 01
 -19451137.06408 -15156719.92808  21669289.30708  21669290.71408
 -11930081.78208  -9296161.67108  23176762.86008  23176764.45808
  -4789238.53808  -3731869.86208  24364959.44708  24364962.54208
  -1354937.56308  -1055799.11307  24775770.04408  24775773.25307
  -1136329.67807   -885436.46907  25353047.54107  25353048.80707
  -6738602.30808  -5250854.52608  24058177.44708  24058178.59808
 -26328493.67609 -20515698.83709  20159535.94709  20159536.65109
 -15086218.68208 -11755481.39508  22354305.44508  22354306.51308
 93 07 09 06 30 00.0000000  0  8 14 29 07 31 21 25 15 01
 -19601098.11808 -15273572.63408  21640752.55208  21640753.94808
  -5014185.28408  -3907152.77208  24322153.25808  24322156.38608
 -12059967.68008  -9397371.42108  23152046.46008  23152047.98708
  -1122483.65308   -874666.38907  24820004.65508  24820008.01607
   -917820.53307   -715169.43607  25394628.35607  25394629.35407
  -6911320.74008  -5385440.19008  24025310.12508  24025311.23108
 -26274044.22609 -20473270.71009  20169897.36009  20169898.03609
 -14948921.20308 -11648496.38508  22380432.30408  22380433.40008
 93 07 09 06 31 00.0000000  0  8 14 07 29 31 21 25 15 01
 -19749846.35408 -15389480.28908  21612446.62408  21612448.01408
 -12187865.38708  -9497031.93708  23127708.28708  23127709.80408
  -5238712.39908  -4082108.70908  24279427.10308  24279430.07908
   -889978.74908   -693493.92907  24864248.91808  24864252.37407
   -699116.98707   -544750.93207  25436246.15307  25436247.18507
  -7082969.69008  -5519192.48008  23992646.38608  23992647.47508
 -26217487.29509 -20429200.37909  20180659.78609  20180660.48009
 -14809899.98108 -11540168.19108  22406887.19608  22406888.24608
 93 07 09 06 32 00.0000000  0  7 14 07 29 31 25 15 01
 -19897409.68408 -15504464.63108  21584366.24408  21584367.67408
 -12313794.77208  -9595158.70308  23103744.68408  23103746.32108
  -5462842.47108  -4256755.27008  24236776.37408  24236779.36108
   -657510.82208   -512350.27307  24908486.23608  24908489.75507
  -7253576.39208  -5652132.64908  23960180.74708  23960181.88108
 -26158825.45209 -20383489.85909  20191822.76709  20191823.46809
 -14669248.51008 -11430569.67508  22433652.30508  22433653.36708
 93 07 09 06 33 00.0000000  0  8 14 29 07 31 12 25 15 01
 -20043718.37508 -15618471.33808  21556524.62008  21556526.01808
  -5686520.60308  -4431049.65508  24194211.62808  24194214.57108
 -12437718.61008  -9691722.69908  23080162.72008  23080164.36408
   -425049.92308   -331212.09007  24952722.21108  24952725.81507
        -0.55818        -0.12118  24674598.86118  24674601.80618
  -7422999.25008  -5784150.29608  23927940.50308  23927941.71608
 -26098001.32109 -20336094.43709  20203397.22709  20203397.89809
 -14526950.18408 -11319687.91608  22460730.79708  22460731.89608
 93 07 09 06 34 00.0000000  0  7 14 07 29 31 25 15 01
 -20188702.57308 -15731445.98408  21528934.97408  21528936.37508
 -12559560.13408  -9786664.12008  23056976.93308  23056978.51008
  -5909662.22908  -4604925.99608  24151749.04008  24151751.82808
   -192493.52308   -149999.49207  24996976.40208  24996979.94407
  -7591156.78208  -5915181.98808  23895941.13508  23895942.20808
 -26034988.09809 -20286993.23709  20215388.23709  20215388.94809
 -14382867.70608 -11207415.88408  22488148.79608  22488149.95708
 93 07 09 06 35 00.0000000  0  8 14 29 07 31 13 25 15 01
 -20333683.07208 -15844417.72608  21501346.07608  21501347.42108
  -6133598.21308  -4779421.31008  24109135.25608  24109138.00608
 -12680571.68408  -9880958.80908  23033949.34608  23033950.89508
     38812.14408     30238.49907  25040992.57108  25040996.22107
        -0.20717        -0.40417  25242272.01617  25242275.85217
  -7759410.40708  -6046288.58208  23863923.61308  23863924.55108
 -25971152.82009 -20237251.47009  20227535.69009  20227536.42309
 -14238268.06308 -11094740.87608  22515665.24108  22515666.39408
 93 07 09 06 36 00.0000000  0  8 14 29 07 31 13 25 15 01
 -20478174.95008 -15957008.74108  21473850.05608  21473851.34508
  -6357795.50408  -4954120.27008  24066471.74708  24066474.37408
 -12800229.49208  -9974198.62908  23011179.16708  23011180.77408
    269303.51607    209841.97307  25084853.78307  25084857.56907
   -240394.28307   -187320.28007  25196526.39807  25196530.19707
  -7927239.09908  -6177064.10408  23831986.82308  23831987.84608
 -25905985.72709 -20186471.92509  20239936.56409  20239937.31309
 -14092701.86708 -10981312.70108  22543365.59908  22543366.77508
 93 07 09 06 37 00.0000000  0  8 14 29 07 31 13 25 15 01
 -20619790.98708 -16067358.84808  21446901.53108  21446902.80408
  -6579793.47908  -5127105.46408  24024226.74008  24024229.38008
 -12916157.47608 -10064532.08608  22989118.73608  22989120.38608
    501370.16007    390672.93007  25129014.65207  25129018.51907
   -478721.98907   -373030.04307  25151174.13307  25151177.89107
  -8092146.33008  -6305563.14608  23800605.76808  23800606.80908
 -25837054.17909 -20132759.04509  20253053.81209  20253054.58409
 -13943903.63508 -10865366.04508  22571680.95108  22571682.13308
 93 07 09 06 38 00.0000000  0  8 14 29 07 31 13 25 15 01
 -20759494.68908 -16176218.84508  21420316.74108  21420318.01608
  -6800535.19608  -5299111.77508  23982220.78808  23982223.26908
 -13029396.26908 -10152770.07508  22967570.08908  22967571.73708
    734068.88407    571996.37707  25173295.83507  25173299.80407
   -715963.83607   -557893.73307  25106028.34107  25106032.12607
  -8255150.51308  -6432579.30308  23769587.06208  23769587.99308
 -25765364.88009 -20076897.26509  20266695.86309  20266696.58209
 -13792921.22408 -10747717.43608  22600411.98508  22600413.19708
 93 07 09 06 39 00.0000000  0  8 14 29 07 31 13 25 15 01
 -20897674.61708 -16283891.46008  21394021.91208  21394023.18208
  -7020467.14508  -5470487.09108  23940368.99208  23940371.47508
 -13140402.19508 -10239268.17408  22946446.38808  22946447.97808
    966990.51907    753493.56207  25217619.57407  25217623.33607
   -952533.85307   -742233.85207  25061010.56807  25061014.18707
  -8416746.51408  -6558498.21208  23738836.37808  23738837.35708
 -25691358.46409 -20019229.94209  20280778.79309  20280779.55909
 -13640166.82108 -10628688.05408  22629480.12408  22629481.41108
 93 07 09 06 40 00.0000000  0  8 14 29 07 31 13 25 15 01
 -21034615.78008 -16390598.79708  21367962.85008  21367964.09908
  -7239884.97208  -5641461.79408  23898615.02708  23898617.30208
 -13249363.90308 -10324173.36608  22925711.50508  22925713.20508
   1199880.70707    934966.27707  25261937.34607  25261940.89307
  -1188654.02307   -926223.41707  25016078.30407  25016081.98307
  -8577150.30208  -6683488.04508  23708312.41108  23708313.47308
 -25615283.39209 -19959950.68709  20295255.41009  20295256.19509
 -13485859.36408 -10508448.52208  22658843.83708  22658845.15708
 93 07 09 06 41 00.0000000  0  8 14 29 07 31 13 25 15 01
 -21170436.80308 -16496433.31408  21342116.89308  21342118.13008
  -7458848.81808  -5812082.76908  23856947.34808  23856949.55008
 -13356251.31708 -10407462.22808  22905371.69108  22905373.27908
   1432595.23208   1116302.13207  25306221.48908  25306225.06907
  -1424352.98208  -1109884.81407  24971226.21408  24971229.72107
  -8736318.09708  -6807514.81408  23678023.81808  23678024.80508
 -25537195.07509 -19899102.66209  20310115.13609  20310115.93509
 -13330074.94308 -10387058.09308  22688488.61808  22688489.95308
 93 07 09 06 42 00.0000000  0  8 14 29 07 31 13 25 15 01
 -21304965.90308 -16601261.17808  21316516.85608  21316518.07908
  -7677178.93308  -5982209.90908  23815400.26108  23815402.59908
 -13460919.48008 -10489021.81108  22885453.92408  22885455.41208
   1665179.10308   1297536.24806  25350480.97308  25350484.46106
  -1659471.63008  -1293094.18907  24926484.67308  24926488.04907
  -8894010.75708  -6930392.11108  23648015.82908  23648016.66308
 -25456962.85909 -19836584.07109  20325382.82909  20325383.59409
 -13172755.66908 -10264471.67008  22718425.50508  22718426.83808
 93 07 09 06 43 00.0000000  0  8 14 29 07 31 13 25 15 01
 -21438339.80808 -16705188.88208  21291136.65908  21291137.89108
  -7895115.55108  -6152030.45008  23773928.21708  23773930.46108
 -13563656.80308 -10569076.84208  22865903.56308  22865905.16708
   1897316.61908   1478422.59206  25394655.27208  25394658.75506
  -1894262.02808  -1476047.60907  24881805.43608  24881809.02107
  -9050522.26808  -7052349.04408  23618232.62108  23618233.59508
 -25374865.11509 -19772611.81809  20341005.53009  20341006.31509
 -13014184.73008 -10140909.93508  22748600.62208  22748601.93408
 93 07 09 06 44 00.0000000  0  8 14 29 07 31 13 25 15 01
 -21570330.58208 -16808038.80508  21266019.59808  21266020.80808
  -8112461.40308  -6321390.66008  23732568.46808  23732570.80708
 -13664265.58308 -10647473.27008  22846758.47108  22846759.99708
   2129121.42307   1659049.67907  25438766.18707  25438770.15807
  -2128577.89508  -1658631.29607  24837216.44508  24837219.80207
  -9205718.83608  -7173281.35408  23588699.66608  23588700.42808
 -25290783.92209 -19707094.02509  20357005.63909  20357006.46709
 -12854208.74608 -10016253.35508  22779043.09708  22779044.43808
 93 07 09 06 45 00.0000000  0  8 14 29 07 31 13 25 15 01
 -21701018.75908 -16909873.73608  21241150.43508  21241151.67708
  -8329229.32008  -6490300.54108  23691318.89908  23691321.02908
 -13762726.04708 -10724195.68908  22828021.94608  22828023.44908
   2360649.02807   1839460.79007  25482824.32207  25482828.30807
  -2362404.61908  -1840833.83007  24792720.59508  24792724.03907
  -9359586.52608  -7293178.20008  23559419.46208  23559420.23408
 -25204734.01609 -19640042.17009  20373380.42009  20373381.19209
 -12692865.39608  -9890531.30408  22809745.70408  22809746.97608
 93 07 09 06 46 00.0000000  0  7 14 29 07 13 25 15 01
 -21830461.58108 -17010738.23808  21216518.26708  21216519.48708
  -8545417.28508  -6658758.52108  23650179.52608  23650181.66708
 -13859001.44308 -10799215.45908  22809701.20908  22809702.76108
  -2595658.49908  -2022590.04507  24748334.01308  24748337.20107
  -9512027.58808  -7411963.36708  23530410.87608  23530411.74708
 -25116661.52409 -19571414.27308  20390140.06909  20390140.88808
 -12530128.50408  -9763723.37208  22840713.54108  22840714.78008
 93 07 09 06 47 00.0000000  0  8 14 29 07 12 13 25 15 01
 -21958701.90908 -17110665.74108  21192114.94808  21192116.15108
  -8760994.96908  -6826740.97708  23609156.35508  23609158.41808
 -13953118.78508 -10872553.62908  22791791.34308  22791792.84308
         0.42418        -0.05217  25019330.42718  25019333.56517
  -2828319.54308  -2203884.26007  24704059.77608  24704063.13807
  -9663089.85508  -7529674.15008  23501664.50608  23501665.33508
 -25026577.88509 -19501219.24908  20407282.52809  20407283.33508
 -12365995.37408  -9635827.46308  22871947.06408  22871948.32608
 93 07 09 06 48 00.0000000  0  8 14 29 07 12 13 25 15 01
 -22085731.10008 -17209649.51508  21167942.05808  21167943.24308
  -8975848.95108  -6994159.51408  23568270.96808  23568272.97008
 -14045077.20008 -10944209.52108  22774292.19808  22774293.71208
    145265.06008    113193.11207  25046973.57208  25046976.35007
  -3060365.44008  -2384699.04607  24659902.79808  24659906.08407
  -9812807.08908  -7646336.86008  23473174.37308  23473175.18008
 -24934488.82309 -19429461.56508  20424806.52609  20424807.33408
 -12200523.86008  -9506888.65308  22903435.35508  22903436.60708
 93 07 09 06 49 00.0000000  0  8 14 29 07 12 13 25 15 01
 -22211402.03108 -17307574.89608  21144027.65708  21144028.83708
  -9189886.64408  -7160941.98508  23527540.76508  23527542.83708
 -14134795.34508 -11014119.74908  22757219.50208  22757220.95508
    292571.63108    227977.43907  25075005.25108  25075007.88407
  -3291686.51708  -2564949.08207  24615883.71908  24615887.07907
  -9960995.60508  -7761808.36108  23444974.92008  23444975.77508
 -24840315.01908 -19356079.40808  20442727.22008  20442728.04308
 -12033636.29608  -9376846.42008  22935193.00508  22935194.23008
 93 07 09 06 50 00.0000000  0  8 14 29 07 12 13 25 15 01
 -22335568.30308 -17404327.80308  21120399.59708  21120400.78308
  -9403131.96708  -7327107.03908  23486961.39208  23486963.40708
 -14222119.85008 -11082164.80608  22740602.19008  22740603.68808
    441964.01708    344387.02007  25103433.46608  25103436.48107
  -3522191.57308  -2744563.34007  24572020.12008  24572023.40707
 -10107476.11608  -7875948.96008  23417100.49408  23417101.30308
 -24743995.67208 -19281025.40108  20461056.18908  20461057.02508
 -11865221.21008  -9245613.91108  22967241.33208  22967242.55608
 93 07 09 06 51 00.0000000  0  8 14 29 07 12 13 25 15 01
 -22458398.97509 -17500039.98308  21097025.64009  21097026.82708
  -9615758.85908  -7492790.21008  23446499.79908  23446501.77208
 -14307144.21608 -11148417.54708  22724422.53008  22724424.02408
    593231.89808    462258.00507  25132219.04808  25132221.85507
  -3752044.94808  -2923669.69507  24528280.09608  24528283.67607
 -10252388.14408  -7988867.35008  23389524.60808  23389525.48208
 -24645726.17408 -19204451.78508  20479756.26608  20479757.06608
 -11695463.74508  -9113335.40108  22999545.06508  22999546.39408
 93 07 09 06 52 00.0000000  0  8 14 29 07 12 13 25 15 01
 -22579853.29109 -17594679.67708  21073913.62409  21073914.83108
  -9827592.49608  -7657855.26608  23406189.11708  23406190.95708
 -14389803.20308 -11212827.13508  22708693.10208  22708694.49408
    746457.27608    581654.33707  25161376.88108  25161379.67107
  -3981118.02308  -3102168.01707  24484688.95808  24484692.10507
 -10395645.94808  -8100496.72608  23362263.54908  23362264.11908
 -24545409.69308 -19126283.12008  20498845.89708  20498846.71208
 -11524342.14408  -8979993.92908  23032108.41508  23032109.75008
 93 07 09 06 53 00.0000000  0  8 14 29 07 12 13 25 15 01
 -22700022.19709 -17688317.75308  21051046.19209  21051047.35308
 -10038696.00208  -7822351.38908  23366017.26608  23366019.23508
 -14470321.16408 -11275568.39508  22693370.84508  22693372.31408
    901505.56708    702471.16707  25190881.52508  25190884.32007
  -4209498.59808  -3280126.73107  24441229.24908  24441232.80507
 -10537379.68908  -8210938.54108  23335292.44808  23335293.16308
 -24443164.52608 -19046611.59308  20518302.51108  20518303.35508
 -11352047.77808  -8845738.61108  23064894.99608  23064896.32708
 93 07 09 06 54 00.0000000  0  8 14 29 07 12 13 25 15 01
 -22818729.42609 -17780816.86908  21028456.97209  21028458.13708
 -10248973.35208  -7986203.73508  23326002.77808  23326004.64208
 -14548665.03008 -11336615.55508  22678462.65008  22678464.13708
   1058398.91808    824725.65407  25220737.48808  25220740.44307
  -4437115.52908  -3457490.44607  24397915.37308  24397918.53407
 -10677595.40308  -8320197.46408  23308610.19608  23308610.88408
 -24338952.73608 -18965407.61608  20538133.37308  20538134.19808
 -11178558.63708  -8710552.30808  23097908.92208  23097910.18808
 93 07 09 06 55 00.0000000  0  8 14 29 07 12 13 25 15 01
 -22935867.50709 -17872093.26508  21006166.30409  21006167.45908
 -10458350.64708  -8149354.72408  23286159.51708  23286161.33208
 -14624665.34408 -11395836.57708  22664000.29808  22664001.70508
   1217173.34708    948445.93307  25250951.14508  25250954.24707
  -4663885.12808  -3634193.89107  24354762.32108  24354765.60207
 -10816286.63908  -8428268.51108  23282217.99908  23282218.76008
 -24232722.95108 -18882631.18208  20558348.24108  20558349.12508
 -11003766.38008  -8574350.59008  23131170.79708  23131172.12408
 93 07 09 06 56 00.0000000  0  8 29 07 12 13 14 25 15 01
 -10666866.87008  -8311834.77208  23246480.08508  23246481.84308
 -14698281.17708 -11453199.56508  22649991.67008  22649993.06908
   1377800.45908   1073609.81807  25281517.58308  25281520.71507
  -4889786.92808  -3810221.17807  24311774.60908  24311777.84807
 -23051582.42609 -17962260.71308  20984146.51009  20984147.61808
 -10953424.36308  -8535129.00708  23256121.49508  23256122.24008
 -24124487.39008 -18798291.81408  20578944.81408  20578945.66408
 -10827701.72308  -8437157.38408  23164674.85408  23164676.20108
 93 07 09 06 57 00.0000000  0  8 29 07 12 13 14 25 15 01
 -10874593.86908  -8473699.83508  23206950.90708  23206952.62108
 -14769662.83908 -11508821.64108  22636408.12408  22636409.55808
   1540192.93008   1200149.35907  25312419.96208  25312422.90807
  -5114860.55208  -3985603.09807  24268944.45708  24268947.55107
 -23166075.71309 -18051476.22908  20962359.16609  20962360.26908
 -11088979.97408  -8640756.71508  23230326.16408  23230326.95808
 -24014318.25808 -18712445.76608  20599909.30908  20599910.16908
 -10650476.87608  -8299060.13908  23198399.65208  23198400.99308
 93 07 09 06 58 00.0000000  0  8 29 07 12 13 14 25 15 01
 -11081324.58208  -8634788.58008  23167611.28608  23167612.98508
 -14838615.99308 -11562551.37708  22623286.79108  22623288.21308
   1704493.67908   1328175.84107  25343685.39008  25343688.30107
  -5338915.00008  -4160190.80207  24226308.25008  24226311.44907
 -23279106.85509 -18139552.43108  20940850.04409  20940851.13708
 -11222650.68608  -8744915.65608  23204889.47008  23204890.08608
 -23902056.47408 -18624969.07808  20621272.03008  20621272.91308
 -10471939.84408  -8159940.42108  23232374.12708  23232375.50908
 93 07 09 06 59 00.0000000  0  8 29 07 12 13 14 25 15 01
 -11287237.92408  -8795240.41608  23128427.19408  23128428.82408
 -14905201.91208 -11614436.51608  22610615.88508  22610617.33008
   1870506.50608   1457536.43807  25375276.72208  25375279.79807
  -5562095.96208  -4334097.89107  24183838.13308  24183841.25807
 -23390686.75209 -18226497.77708  20919617.04909  20919618.15208
 -11354540.57908  -8847686.94108  23179791.57308  23179792.31808
 -23787883.22308 -18536002.93208  20642998.48808  20642999.40208
 -10292212.45808  -8019893.14108  23266575.19808  23266576.53808
 93 07 09 07 00 00.0000000  0  8 29 07 12 13 14 25 15 01
 -11492408.31808  -8955113.33208  23089384.42608  23089386.08308
 -14969447.16908 -11664497.76608  22598390.38008  22598391.76508
   2038166.41608   1588180.41807  25407181.28508  25407184.34807
  -5784419.24008  -4507336.73907  24141531.34408  24141534.36407
 -23500843.19709 -18312333.95908  20898654.94009  20898656.07408
 -11484755.70408  -8949153.23308  23155012.33008  23155012.86108
 -23671848.47608 -18445586.28908  20665079.18208  20665080.06108
 -10111337.77808  -7878951.89408  23300994.57408  23300995.90008
 93 07 09 07 01 00.0000000  0  8 29 07 12 13 14 25 15 01
 -11696672.50008  -9114280.12608  23050514.14908  23050515.77908
 -15031228.80808 -11712639.30908  22586633.83708  22586635.22108
   2207618.27907   1720220.77907  25439426.94507  25439430.02307
  -6005691.33408  -4679756.38507  24099424.61408  24099427.69607
 -23609521.14809 -18397018.05808  20877974.22409  20877975.35408
 -11613190.90308  -9049232.57608  23130572.01008  23130572.69808
 -23553793.14008 -18353595.14808  20687544.39208  20687545.34108
  -9929284.21708  -7737092.02008  23335638.12908  23335639.57708
 93 07 09 07 02 00.0000000  0  8 29 07 12 13 14 25 15 01
 -11900008.17408  -9272723.39908  23011820.57708  23011822.20508
 -15090564.92208 -11758875.24208  22575342.60008  22575344.05208
   2378774.83108   1853589.43907  25471997.19008  25472000.19907
  -6225949.18608  -4851385.79307  24057510.66408  24057513.78907
 -23716855.84609 -18480655.47808  20857549.09509  20857550.18908
 -11739882.21808  -9147953.02508  23106463.29708  23106463.97508
 -23433787.07408 -18260083.96308  20710380.81208  20710381.75808
  -9746186.81108  -7594418.73908  23370480.50408  23370481.89608
 93 07 09 07 03 00.0000000  0  8 29 07 12 13 14 25 15 01
 -12102320.42208  -9430369.20308  22973321.68808  22973323.34108
 -15147359.21008 -11803130.53308  22564534.95208  22564536.35508
   2551637.96607   1988287.85507  25504891.85307  25504895.08207
  -6445140.37308  -5022184.02307  24015800.10208  24015803.04007
 -23822782.26509 -18563195.53008  20837391.97409  20837393.04808
 -11864706.84108  -9245218.91408  23082710.10208  23082710.63908
 -23311814.22708 -18165040.22108  20733591.50608  20733592.42208
  -9561959.09308  -7450864.68708  23405537.88708  23405539.22908
 93 07 09 07 04 00.0000000  0  8 29 07 12 13 14 25 15 01
 -12303570.26408  -9587187.16908  22935025.05208  22935026.71908
 -15201732.56308 -11845499.38008  22554188.09708  22554189.52308
   2726168.44607   2124285.57807  25538103.98007  25538107.27707
  -6663254.14808  -5192142.70507  23974294.22008  23974297.02007
 -23927199.81409 -18644559.81408  20817521.93009  20817523.01408
 -11987645.69408  -9341015.35308  23059315.47908  23059316.10708
 -23187898.79908 -18068482.76608  20757171.83408  20757172.78708
  -9376575.52108  -7306409.96708  23440815.14108  23440816.46808
 93 07 09 07 05 00.0000000  0  8 29 07 12 13 14 25 15 01
 -12503777.06708  -9743192.37508  22896926.88708  22896928.43108
 -15253787.66008 -11886061.79308  22544282.30708  22544283.77408
   2902361.55207   2261578.79107  25571632.56807  25571635.75707
  -6880244.96208  -5361226.38507  23933002.22508  23933005.21207
 -24029973.62409 -18724643.26708  20797964.67309  20797965.74508
 -12108716.73908  -9435356.38808  23036276.47208  23036276.92308
 -23062030.52608 -17970403.63008  20781123.81008  20781124.75608
  -9190045.76208  -7161062.11508  23476310.53308  23476311.93308
 93 07 09 07 06 00.0000000  0  8 29 07 12 13 14 25 15 01
 -12703075.20308  -9898489.52308  22859001.62508  22859003.22808
 -15303588.52208 -11924867.65808  22534805.49208  22534806.93808
   3080084.11507   2400063.76707  25605452.07207  25605455.35007
  -7096196.19608  -5529499.95707  23891908.06908  23891910.79007
 -24131210.82609 -18803529.36108  20778699.86109  20778700.94108
 -12228062.34208  -9528352.91708  23013565.73608  23013566.12508
 -22934327.36808 -17870894.71808  20805424.91008  20805425.86008
  -9002532.97508  -7014948.26408  23511993.13408  23511994.50408
 93 07 09 07 07 00.0000000  0  8 29 07 12 13 14 25 15 01
 -12901345.41008 -10052985.69108  22821272.04008  22821273.61408
 -15350916.21608 -11961746.38408  22525799.37608  22525800.85608
   3259392.97407   2539784.83507  25639573.46407  25639576.82507
  -7310999.80808  -5696879.32507  23851032.09408  23851035.06807
 -24230891.89609 -18881202.88708  20759731.14909  20759732.23608
 -12345549.75508  -9619901.52208  22991208.61208  22991209.08208
 -22804717.74008 -17769900.23008  20830088.84108  20830089.79008
  -8813944.80508  -6867996.44208  23547880.26008  23547881.63608
 93 07 09 07 08 00.0000000  0  8 29 07 12 13 14 25 15 01
 -13098597.41308 -10206688.44508  22783736.00008  22783737.59708
 -15395791.24908 -11996713.94708  22517259.92008  22517261.39808
   3440239.20907   2680703.82807  25673987.48907  25673990.92107
  -7524654.44708  -5863363.33907  23810374.99808  23810377.77007
 -24329136.61509 -18957757.18508  20741035.73109  20741036.79808
 -12461093.91908  -9709935.86908  22969221.21408  22969221.64708
 -22673236.69808 -17667447.50808  20855108.86508  20855109.88808
  -8624303.09208  -6720223.68308  23583967.91308  23583969.24708
 93 07 09 07 09 00.0000000  0  8 29 07 12 13 14 25 15 01
 -13294802.74408 -10359575.61308  22746399.38508  22746400.92408
 -15438197.47908 -12029757.76908  22509190.30308  22509191.78708
   3622643.72507   2822837.12307  25708697.89507  25708701.41407
  -7737088.21808  -6028896.07008  23769950.02408  23769952.92908
 -24425984.74509 -19033223.22208  20722606.13109  20722607.18708
 -12574637.72808  -9798411.52908  22947614.49108  22947615.08108
 -22539848.18508 -17563508.45008  20880491.87408  20880492.85608
  -8433601.94008  -6571625.36908  23620257.10708  23620258.52608
 93 07 09 07 10 00.0000000  0  8 29 07 12 13 14 25 15 01
 -13490047.30808 -10511714.14008  22709245.53908  22709247.00608
 -15478174.42208 -12060908.64008  22501582.92808  22501584.43608
   3806483.98007   2966089.21207  25743681.74907  25743685.02307
  -7948372.46308  -6193533.05008  23729743.91808  23729746.65108
 -24521500.17609 -19107650.78608  20704430.15609  20704431.17508
 -12686365.23108  -9885471.87908  22926353.52908  22926353.85708
 -22404660.04708 -17458167.07908  20906217.37208  20906218.39808
  -8242031.34108  -6422349.57708  23656711.75708  23656713.15008
 93 07 09 07 11 00.0000000  0  8 29 07 12 13 14 25 15 01
 -13684154.16108 -10662966.14308  22672308.17908  22672309.55608
 -15515621.77208 -12090088.39908  22494456.94708  22494458.46808
   3991827.51307   3110512.59007  25778951.55907  25778954.85307
  -8158387.70108  -6357181.21408  23689779.29608  23689782.14908
 -24615460.31109 -19180866.43808  20686550.11609  20686551.12008
 -12796116.21908  -9970992.09908  22905468.52308  22905469.12708
 -22267591.56108 -17351360.52808  20932300.68008  20932301.69308
  -8049552.24908  -6272365.84308  23693339.27708  23693340.68108
 93 07 09 07 12 00.0000000  0  8 29 07 12 13 14 25 15 01
 -13877033.56108 -10813261.69208  22635604.38008  22635605.78608
 -15550585.95408 -12117333.22208  22487803.53708  22487805.02808
   4178658.07407   3256094.68607  25814504.26707  25814507.65407
  -8367098.96208  -6519813.27408  23650062.77208  23650065.58108
 -24707795.87009 -19252816.19808  20668979.22509  20668980.22508
 -12903768.45408 -10054876.94208  22884982.93808  22884983.28808
 -22128643.91708 -17243089.66808  20958741.58108  20958742.61108
  -7856138.03208  -6121653.46308  23730144.76708  23730146.18108
 93 07 09 07 13 00.0000000  0  8 15 29 07 12 13 14 25 01
 -21987886.33908 -17133408.47008  20985526.85308  20985527.88608
 -14068747.62808 -10962649.18808  22599122.30408  22599123.75708
 -15583114.47008 -12142680.12408  22481613.54908  22481615.02308
   4366892.84207   3402770.97307  25850324.37207  25850327.76607
  -8574537.58108  -6681453.66808  23610588.47708  23610591.28508
 -24798585.48009 -19323561.33608  20651702.47209  20651703.45808
 -13009384.35908 -10137175.02708  22864884.84208  22864885.38008
  -7661769.41708  -5970197.40608  23767131.87808  23767133.23608
 93 07 09 07 14 00.0000000  0  8 15 29 07 12 13 14 25 01
 -21845362.56208 -17022351.01308  21012648.27608  21012649.35808
 -14259353.11008 -11111172.84408  22562851.23608  22562852.60508
 -15613172.38808 -12166101.88608  22475893.78108  22475895.22608
   4556474.15507   3550496.60706  25886400.46807  25886403.94106
  -8780710.66108  -6842107.91508  23571355.02008  23571357.82408
 -24887829.80009 -19393102.33808  20634719.90909  20634720.87408
 -13113074.58808 -10217972.59408  22845153.27908  22845153.51208
  -7466470.08208  -5818016.10008  23804296.09808  23804297.47108
 93 07 09 07 15 00.0000000  0  7 15 29 07 13 14 25 01
 -21702299.43008 -16910873.28808  21039872.30408  21039873.37408
 -14450114.62308 -11259818.08208  22526550.49708  22526551.81008
 -15641979.42408 -12188548.93808  22470411.93108  22470413.35408
  -8986807.88408  -7002703.07708  23532135.94108  23532138.69008
 -24976765.98809 -19462403.23308  20617795.86509  20617796.80908
 -13216050.64408 -10298213.66708  22825557.57208  22825558.11408
  -7271549.33508  -5666129.78708  23841388.31608  23841389.61508
 93 07 09 07 16 00.0000000  0  7 15 29 07 13 25 01 14
 -21558150.11408 -16798549.19108  21067303.06708  21067304.06808
 -14640507.65808 -11408176.19208  22490319.80808  22490321.09308
 -15669087.46008 -12209672.09408  22465253.43608  22465254.96408
  -9192243.89308  -7162782.99308  23493042.69908  23493045.46708
 -13317737.84708 -10377450.42508  22806207.04308  22806207.42608
  -7076529.89808  -5514166.57108  23878499.23708  23878500.67208
 -25064940.12409 -19531110.32008  20601016.85709  20601017.77508
 93 07 09 07 17 00.0000000  0  7 15 29 07 13 25 01 14
 -21410492.27208 -16683491.18508  21095401.43708  21095402.52508
 -14828042.94708 -11554307.48508  22454633.03208  22454634.23208
 -15692039.01408 -12227556.43508  22460885.84908  22460887.33608
  -9394556.60708  -7320429.17908  23454543.83708  23454546.53508
 -13415729.91408 -10453807.86208  22787559.82808  22787560.42308
  -6878955.45508  -5360212.44808  23916096.36108  23916097.87108
 -25149929.31609 -19597335.64708  20584843.95609  20584844.87008
 93 07 09 07 18 00.0000000  0  7 15 29 07 13 25 01 14
 -21260400.09808 -16566536.28108  21123963.07108  21123964.17508
 -15013697.96408 -11698973.62908  22419303.87208  22419305.15908
 -15711814.08208 -12242965.59108  22457122.85608  22457124.34408
  -9594782.58508  -7476449.33108  23416442.00208  23416444.68408
 -13511043.05608 -10528077.84108  22769422.26208  22769422.73808
  -6679832.63608  -5205051.79208  23953988.25908  23953989.55608
 -25232661.52509 -19661802.29508  20569100.56709  20569101.48608
 93 07 09 07 19 00.0000000  0  7 15 29 07 13 25 01 14
 -21108345.11308 -16448051.94108  21152898.22208  21152899.32508
 -15197886.77508 -11842497.26308  22384253.84608  22384255.09808
 -15728833.97508 -12256227.86108  22453884.08908  22453885.59108
  -9793355.74808  -7631181.57808  23378654.74008  23378657.38508
 -13604030.80308 -10600535.80408  22751727.33708  22751727.95808
  -6479679.29008  -5049088.10208  23992076.14108  23992077.53808
 -25313526.82409 -19724814.21108  20553712.33409  20553713.26208
 93 07 09 07 20 00.0000000  0  7 15 29 07 13 25 01 14
 -20954599.01408 -16328249.83208  21182155.18208  21182156.24708
 -15380890.47708 -11985097.44708  22349429.31808  22349430.51408
 -15743398.07108 -12267576.52108  22451112.56608  22451114.13708
  -9990507.70308  -7784806.38808  23341137.82408  23341140.47808
 -13694889.18508 -10671334.51408  22734437.42908  22734437.83708
  -6278751.11408  -4892520.66908  24030311.54308  24030312.84508
 -25392833.37309 -19786611.50308  20538620.86109  20538621.77908
 93 07 09 07 21 00.0000000  0  7 15 29 07 13 25 01 14
 -20799229.48608 -16207182.74908  21211721.08408  21211722.17908
 -15562785.78808 -12126833.94708  22314815.75308  22314816.96408
 -15755578.89708 -12277068.09308  22448794.76708  22448796.24308
 -10186268.25908  -7937346.99908  23303885.79208  23303888.48808
 -13783669.97008 -10740514.33408  22717542.91808  22717543.53408
  -6077108.31508  -4735396.40208  24068682.83708  24068684.17408
 -25470678.01409 -19847269.64608  20523807.46709  20523808.38708
 93 07 09 07 22 00.0000000  0  7 15 29 07 13 25 01 14
 -20642241.24008 -16084854.29408  21241594.97108  21241596.13008
 -15743571.65008 -12267705.94608  22280413.18508  22280414.38708
 -15765327.36108 -12284664.31508  22446939.63808  22446941.18408
 -10380603.15608  -8088776.70208  23266905.00408  23266907.64308
 -13870372.47108 -10808074.71608  22701044.18408  22701044.57308
  -5874775.61408  -4577734.50808  24107185.38508  24107186.76408
 -25547067.35009 -19906793.78908  20509271.11809  20509272.03308
 93 07 09 07 23 00.0000000  0  7 15 29 07 13 25 01 14
 -20483652.53708 -15961278.70508  21271773.42708  21271774.53808
 -15923212.70508 -12407685.88108  22246228.66408  22246229.75708
 -15772682.07008 -12290395.27108  22445539.93608  22445541.47708
 -10573490.84608  -8239078.71708  23230199.68608  23230202.26408
 -13955008.93808 -10874025.22108  22684938.37508  22684938.98508
  -5671863.04308  -4419620.78208  24145798.35108  24145799.67708
 -25622007.36809 -19965188.59608  20495010.42809  20495011.34908
 93 07 09 07 24 00.0000000  0  7 15 29 07 13 25 01 14
 -20323442.60508 -15836439.85308  21302260.37208  21302261.55208
 -16101626.95308 -12546709.87108  22212277.41808  22212278.47008
 -15777626.76408 -12294248.29908  22444599.04208  22444600.53408
 -10764870.80108  -8388205.88308  23193781.19908  23193783.74508
 -14037602.22408 -10938383.62108  22669221.45408  22669221.72608
  -5468397.66408  -4261076.26708  24184516.51008  24184517.86708
 -25695451.02309 -20022417.39408  20481034.56809  20481035.47908
 93 07 09 07 25 00.0000000  0  7 15 29 07 13 25 01 14
 -20161590.19608 -15710321.17008  21333059.91608  21333061.09708
 -16278766.87908 -12684740.88708  22178568.73308  22178569.75308
 -15780094.15208 -12296170.96208  22444129.61008  22444131.11508
 -10954683.32008  -8536111.67508  23157661.02808  23157663.52008
 -14118115.74608 -11001121.41608  22653900.17108  22653900.70808
  -5264311.19008  -4102047.78308  24223352.82008  24223354.09308
 -25767329.18809 -20078426.33608  20467356.54109  20467357.44408
 93 07 09 07 26 00.0000000  0  7 15 29 07 13 25 01 14
 -19998099.82608 -15582926.11108  21364171.13408  21364172.30908
 -16454620.14908 -12821769.31308  22145104.93308  22145105.94808
 -15780058.64308 -12296143.32008  22444136.41108  22444137.96408
 -11142892.72408  -8682768.29408  23121845.93408  23121848.38408
 -14196475.42408 -11062180.90808  22638988.75308  22638989.16808
  -5059546.62408  -3942490.94508  24262318.12308  24262319.39108
 -25837615.95609 -20133195.22208  20453981.40609  20453982.30708
 93 07 09 07 27 00.0000000  0  7 29 07 13 25 15 01 14
 -16629232.83508 -12957831.05508  22111877.06608  22111878.08208
 -15777599.36108 -12294227.02208  22444604.38408  22444605.95108
 -11329515.03508  -8828188.20308  23086332.79308  23086335.32608
 -14272624.97608 -11121518.19908  22624498.08608  22624498.67608
 -19833026.95808 -15454297.93408  21395583.50208  21395584.62808
  -4854076.55808  -3782384.37208  24301417.72608  24301419.23308
 -25906346.77709 -20186751.70208  20440902.45009  20440903.35208
 93 07 09 07 28 00.0000000  0  7 29 07 13 25 15 14 01
 -16802568.60008 -13092897.78908  22078892.33308  22078893.34208
 -15772722.13008 -12290426.61608  22445532.51108  22445534.03908
 -11514511.75108  -8972341.42208  23051129.01208  23051131.50808
 -14346535.46908 -11179110.75308  22610433.31408  22610433.74608
 -19666372.33408 -15324437.24708  21427296.86108  21427298.02108
 -25973491.69809 -20239072.41708  20428125.15109  20428126.05208
  -4647947.48808  -3621764.28908  24340642.66208  24340643.88408
 93 07 09 07 29 00.0000000  0  7 29 07 13 25 15 14 01
 -16974551.60608 -13226910.43208  22046164.98608  22046165.98808
 -15765370.21308 -12284697.88608  22446931.51408  22446933.02208
 -11697823.26808  -9115181.49808  23016245.96508  23016248.44208
 -14418247.92908 -11234990.56708  22596786.85608  22596787.34008
 -19498116.58108 -15193328.90408  21459314.87908  21459316.07808
 -26039039.14809 -20290148.35308  20415651.84209  20415652.73608
  -4441232.23908  -3460687.41808  24379979.29608  24379980.68108
 93 07 09 07 30 00.0000000  0  7 29 07 13 25 15 14 01
 -17145176.06408 -13359864.46008  22013696.13708  22013697.13308
 -15755555.28308 -12277049.92608  22448799.37108  22448800.93108
 -11879439.96708  -9256700.93908  22981685.45508  22981687.91508
 -14487772.34008 -11289165.40908  22583556.62308  22583557.07408
 -19328289.94808 -15060996.50308  21491631.83408  21491633.01808
 -26102992.71809 -20339982.29508  20403481.86709  20403482.78008
  -4233962.09108  -3299178.14907  24419421.47808  24419422.59207
 93 07 09 07 31 00.0000000  0  7 29 07 13 25 15 14 01
 -17314437.21408 -13491756.17808  21981486.72308  21981487.68108
 -15743209.38308 -12267429.78608  22451148.79208  22451150.33708
 -12059286.79108  -9396841.25708  22947461.71108  22947464.11308
 -14555021.35408 -11341567.22608  22570759.64808  22570760.11708
 -19156858.22308 -14927413.40908  21524254.23408  21524255.48408
 -26165271.27109 -20388511.01808  20391630.66309  20391631.58008
  -4026042.16308  -3137162.57008  24458987.27808  24458988.42108
 93 07 09 07 32 00.0000000  0  7 29 07 13 14 25 15 01
 -17482382.07108 -13622622.21608  21949527.82008  21949528.81008
 -15728427.69508 -12255911.63308  22453961.64608  22453963.23008
 -12237376.18408  -9535612.14608  22913572.33908  22913574.76008
 -26225931.43509 -20435778.66308  20380087.32809  20380088.24708
 -14619983.42308 -11392187.00108  22558397.83408  22558398.31608
 -18983873.57008 -14792620.24008  21557172.17208  21557173.47808
  -3817561.25108  -2974709.88707  24498659.92408  24498660.88707
 93 07 09 07 33 00.0000000  0  8 29 07 18 13 14 25 15 01
 -17649033.96808 -13752480.73708  21917815.03908  21917815.93508
 -15711369.93808 -12242619.91608  22457207.62408  22457209.18308
        -0.12817        -0.57217  25280411.81717  25280415.35417
 -12413767.82208  -9673060.11208  22880006.05008  22880008.51308
 -26285096.33009 -20481881.17508  20368828.69609  20368829.58308
 -14682763.05208 -11441106.18708  22546451.22708  22546451.66108
 -18809434.89308 -14656694.08308  21590366.82308  21590368.04508
  -3608726.10008  -2811981.15708  24538399.96408  24538401.02908
 93 07 09 07 34 00.0000000  0  8 29 07 18 13 14 25 15 01
 -17814132.66708 -13881128.98108  21886397.70008  21886398.57408
 -15691815.58308 -12227382.79508  22460928.72808  22460930.35908
   -236245.59707   -184087.86407  25235455.84407  25235459.25307
 -12588261.22708  -9809028.94408  22846801.08008  22846803.45808
 -26342569.73609 -20526665.64208  20357891.84709  20357892.75308
 -14743208.67108 -11488206.64808  22534948.76308  22534949.21408
 -18633381.72808 -14519509.85608  21623868.65308  21623869.90208
  -3399358.07808  -2648837.17708  24578241.21908  24578242.49508
 93 07 09 07 35 00.0000000  0  8 29 07 18 13 14 25 15 01
 -17977641.27308 -14008538.21408  21855283.02708  21855283.89708
 -15669596.56508 -12210069.30808  22465156.83108  22465158.46408
   -472229.28007   -367971.16307  25190549.52407  25190553.13407
 -12760749.87608  -9943435.62808  22813977.48308  22813979.89708
 -26398196.33309 -20570011.03609  20347306.46809  20347307.38809
 -14801209.83708 -11533402.36108  22523911.55408  22523911.93008
 -18455648.83608 -14381016.77108  21657690.16808  21657691.43508
  -3189333.32008  -2485181.52908  24618207.80008  24618208.76908
 93 07 09 07 36 00.0000000  0  8 29 07 18 13 14 25 15 01
 -18139801.25308 -14134896.55008  21824424.94708  21824425.78908
 -15644846.61808 -12190783.66908  22469866.69808  22469868.28208
   -707990.59307   -551681.16407  25145685.49707  25145689.22507
 -12931389.54908 -10076401.55008  22781505.77508  22781508.21008
 -26452169.30709 -20612067.88509  20337035.69209  20337036.57609
 -14856976.59508 -11576856.95508  22513299.41608  22513299.93108
 -18276432.18208 -14241367.51808  21691793.99108  21691795.33908
  -2978832.21508  -2321154.67708  24658264.82708  24658266.02408
 93 07 09 07 37 00.0000000  0  8 29 07 18 13 14 25 15 01
 -18300531.97808 -14260141.18508  21793838.80208  21793839.66908
 -15617607.35808 -12169558.30008  22475050.18208  22475051.79408
   -943484.16808   -735182.54207  25100872.65108  25100875.95107
 -13100143.69008 -10207898.21908  22749392.88908  22749395.25008
 -26504545.36409 -20652880.38509  20327068.85909  20327069.73209
 -14910475.18408 -11618544.15508  22503119.06008  22503119.40808
 -18095735.64208 -14100565.09708  21726179.50608  21726180.85708
  -2767799.57808  -2156713.61908  24698422.90608  24698423.87508
 93 07 09 07 38 00.0000000  0  8 29 07 18 13 14 25 15 01
 -18459778.34308 -14384229.18008  21763535.19008  21763536.03608
 -15587926.39908 -12146430.30908  22480698.14908  22480699.84808
  -1178817.97108   -918559.47907  25056090.02908  25056093.26207
 -13266985.85908 -10337905.04708  22717643.84508  22717646.15908
 -26555363.34009 -20692478.79509  20317398.54709  20317399.41209
 -14961650.32208 -11658420.89308  22493380.74008  22493381.13008
 -17913572.27308 -13958619.69008  21760844.05708  21760845.47908
  -2556210.14108  -1991838.60308  24738686.94408  24738688.08008
 93 07 09 07 39 00.0000000  0  8 29 07 18 13 14 25 15 01
 -18617579.65008 -14507191.14808  21733506.44908  21733507.24108
 -15555850.61508 -12121436.22008  22486802.05708  22486803.72308
  -1414079.72308  -1101880.22507  25011320.88808  25011324.41107
 -13431903.33608 -10466412.11008  22686261.03308  22686263.40508
 -26604570.92309 -20730822.35209  20308034.64909  20308035.51609
 -15010507.28708 -11696491.23608  22484083.53608  22484083.91308
 -17729969.96608 -13815553.03508  21795782.51108  21795783.93608
  -2344132.19108  -1826583.05008  24779043.99708  24779045.27808
 93 07 09 07 40 00.0000000  0  8 29 07 18 13 14 25 15 01
 -18773947.72308 -14629036.29808  21703750.66808  21703751.44908
 -15521383.23308 -12094578.54508  22493360.96308  22493362.70708
  -1649248.96008  -1285128.86507  24966569.73208  24966573.17607
 -13594867.62308 -10593397.21508  22655249.93108  22655252.26908
 -26652030.04209 -20767803.47409  20299003.47709  20299004.33709
 -15057051.17508 -11732759.20908  22475226.53708  22475226.86308
 -17544939.87308 -13671373.84508  21830992.71208  21830994.02908
  -2131668.87708  -1661027.10308  24819474.31908  24819475.25008
 93 07 09 07 41 00.0000000  0  8 29 07 18 13 14 25 15 01
 -18928793.88408 -14749695.56108  21674284.30408  21674285.03508
 -15484474.14808 -12065818.24608  22500384.60108  22500386.31608
  -1884178.46708  -1468190.73007  24921864.12608  24921867.26807
 -13755811.18508 -10718807.71708  22624623.28208  22624625.65108
 -26697660.48409 -20803359.64609  20290320.23709  20290321.10809
 -15101217.44508 -11767174.46908  22466821.94108  22466822.48108
 -17358454.96308 -13526061.01508  21866479.62408  21866481.03208
  -1918847.79308  -1495192.56408  24859973.07808  24859974.43908
 93 07 09 07 42 00.0000000  0  8 29 07 18 13 14 25 15 01
 -19082138.53108 -14869184.81708  21645103.70208  21645104.43908
 -15445142.57608 -12035170.29108  22507869.22208  22507870.82908
  -2118802.56208  -1651014.67007  24877216.44408  24877219.78707
 -13914733.48808 -10842643.21008  22594381.35408  22594383.65608
 -26741614.07009 -20837609.17309  20281956.15509  20281957.01009
 -15142933.46108 -11799680.45908  22458883.68008  22458884.02308
 -17170555.30108 -13379645.76408  21902235.83808  21902237.30208
  -1705689.86407  -1329095.32507  24900535.01107  24900536.07007
 93 07 09 07 43 00.0000000  0  8 29 07 18 13 14 25 15 01
 -19233986.61508 -14987507.92108  21616207.92708  21616208.61408
 -15403406.16308 -12002648.43308  22515811.42408  22515813.01308
  -2353153.04608  -1833625.32308  24832621.07108  24832624.54908
 -14071617.16008 -10964890.16208  22564527.33408  22564529.65308
 -26784016.16009 -20870649.74809  20273887.30209  20273888.16309
 -15182192.23708 -11830271.70408  22451412.98108  22451413.46008
 -16981262.79708 -13232145.19708  21938257.04108  21938258.53308
  -1492170.40708  -1162716.43808  24941166.64908  24941168.23508
 93 07 09 07 44 00.0000000  0  8 29 07 18 13 14 25 15 01
 -19384259.90308 -15104603.91608  21587611.81108  21587612.51808
 -15359195.57408 -11968198.64908  22524224.44408  22524226.01608
  -2587181.42308  -2015985.00408  24788086.94708  24788090.18408
 -14226363.30408 -11085471.51208  22535080.05008  22535082.34308
 -26824756.90709 -20902395.76109  20266134.54309  20266135.40009
 -15219004.63408 -11858956.67908  22444407.83108  22444408.38108
 -16790517.52708 -13083512.58208  21974554.69208  21974556.13808
  -1278219.41908   -996001.34707  24981880.33008  24981880.52407
 93 07 09 07 45 00.0000000  0  8 29 07 18 13 14 25 15 01
 -19533028.34608 -15220527.29708  21559302.10508  21559302.79308
 -15312677.59708 -11931950.90508  22533076.43008  22533078.06008
  -2821023.30307  -2198199.35607  24743588.08707  24743591.44807
 -14379081.61708 -11204472.73208  22506018.68208  22506020.96008
 -26863850.87009 -20932858.56609  20258695.15609  20258695.98909
 -15253561.69408 -11885884.24908  22437831.84408  22437832.21908
 -16598469.96408 -12933865.19308  22011100.17808  22011101.70608
  -1063972.89207   -829055.97008  25022649.33307  25022651.68708
 93 07 09 07 46 00.0000000  0  8 29 07 18 13 14 25 15 01
 -19680264.58208 -15335256.76908  21531283.84608  21531284.51408
 -15263791.08108 -11893857.55408  22542379.36608  22542381.02408
  -3054618.99808  -2380221.86608  24699136.39008  24699139.71308
 -14529708.54608 -11321844.30908  22477355.29308  22477357.55808
 -26901195.71209 -20961958.41709  20251588.73009  20251589.53709
 -15285844.43508 -11911039.62308  22431688.59808  22431689.12208
 -16405097.81108 -12783185.70108  22047897.69808  22047899.29008
   -849349.02908   -661816.58907  25063491.98508  25063491.50807
 93 07 09 07 47 00.0000000  0  8 29 07 18 13 14 25 15 01
 -19825899.55308 -15448738.50208  21503570.36108  21503571.02108
 -15212379.75608 -11853796.81708  22552162.56308  22552164.25408
  -3287817.81108  -2561935.11108  24654759.94008  24654763.38408
 -14678126.85808 -11437494.89008  22449112.11708  22449114.46308
 -26936753.48409 -20989665.77209  20244822.23709  20244823.07209
 -15315707.74908 -11934309.71008  22426005.75708  22426006.27008
 -16210322.24908 -12631412.65508  22084962.37008  22084963.88808
   -634330.68807   -494269.81408  25104407.72307  25104409.80508
 93 07 09 07 48 00.0000000  0  8 29 07 18 13 14 25 15 01
 -19969980.17008 -15561009.04508  21476152.70408  21476153.37608
 -15158520.46008 -11811828.58208  22562411.74908  22562413.45208
  -3520666.02508  -2743375.15508  24610450.39008  24610453.41008
 -14824356.86508 -11551440.30108  22421285.46008  22421287.74008
 -26970616.23609 -21016052.29709  20238378.39709  20238379.20709
 -15343148.98708 -11955692.47608  22420783.89808  22420784.14008
 -16014204.28408 -12478593.54808  22122282.45508  22122284.04608
   -419039.23208   -326510.18707  25145376.66708  25145376.93107
 93 07 09 07 49 00.0000000  0  8 29 07 18 13 14 25 15 01
 -20112439.10008 -15672015.95208  21449043.61408  21449044.28008
 -15102329.92008 -11768043.78808  22573104.49108  22573106.25208
  -3753181.08108  -2924555.65708  24566204.16708  24566207.45308
 -14968383.36608 -11663668.69808  22393878.05408  22393880.37008
 -27002808.92709 -21041137.51109  20232252.33109  20232253.14109
 -15368116.59308 -11975147.72108  22416032.65808  22416032.95208
 -15816767.64508 -12324746.91108  22159853.47408  22159855.05208
   -203407.67808   -158485.57407  25186410.01308  25186411.32307
 93 07 09 07 50 00.0000000  0  8 29 07 18 13 14 25 15 01
 -20253268.35608 -15781752.97608  21422244.77908  21422245.36008
 -15043894.92708 -11722510.07208  22584224.30408  22584226.00308
  -3985342.72308  -3105460.71008  24522025.08108  24522028.51908
 -15110198.90108 -11774174.27108  22366891.42908  22366893.77208
 -27033343.32509 -21064930.53109  20226441.76809  20226442.58509
 -15390631.38108 -11992691.67908  22411748.25108  22411748.65108
 -15618044.88408 -12169898.11008  22197669.24408  22197670.84708
     12624.85208      9851.38207  25227519.58008  25227520.06807
 93 07 09 07 51 00.0000000  0  8 29 07 18 13 14 25 15 01
 -20392468.69908 -15890220.69508  21395755.69008  21395756.27608
 -14983162.22408 -11675185.93408  22595781.38008  22595783.10108
  -4217116.41108  -3286063.55207  24477920.26908  24477923.05307
 -15249783.66608 -11882941.58308  22340329.28708  22340331.60508
 -27062200.46209 -21087416.59209  20220950.43909  20220951.24609
 -15410780.59208 -12008392.34208  22407913.92308  22407914.33508
 -15418054.20408 -12014061.29808  22235726.21608  22235727.90408
    228925.24308    178397.19607  25268680.12208  25268681.33007
 93 07 09 07 52 00.0000000  0  8 29 07 18 13 14 25 15 01
 -20529928.74708 -15997332.33208  21369597.85408  21369598.35508
 -14919990.00108 -11625960.86908  22607802.62808  22607804.41908
  -4448420.09208  -3466300.07508  24433904.33308  24433907.63908
 -15387032.86608 -11989888.97908  22314211.66708  22314213.95208
 -27089242.40009 -21108488.20409  20215804.51609  20215805.30109
 -15428459.42608 -12022168.04908  22404549.81608  22404550.15508
 -15216730.57608 -11857185.84108  22274036.92908  22274038.68908
    445410.48308    347086.86507  25309876.18608  25309876.94007
 93 07 09 07 53 00.0000000  0  8 29 07 18 13 14 25 15 01
 -20665844.95708 -16103240.99008  21343733.80708  21343734.28608
 -14854536.69908 -11574958.34208  22620258.10408  22620259.88308
  -4679462.41508  -3646332.91308  24389938.54608  24389941.48408
 -15522107.36508 -12095141.80508  22288507.80408  22288510.05408
 -27114674.54709 -21128305.45409  20210964.99509  20210965.75509
 -15443714.45208 -12034055.07108  22401646.88708  22401647.27708
 -15014274.09808 -11699427.65808  22312563.20608  22312564.96208
    661895.48607    515776.40907  25351071.62107  25351073.02107
 93 07 09 07 54 00.0000000  0  8 29 07 18 13 14 25 15 01
 -20800193.99408 -16207928.47108  21318167.95208  21318168.43808
 -14786759.45208 -11522144.94708  22633155.69508  22633157.49008
  -4910133.19008  -3826076.28207  24346042.93208  24346045.97307
 -15654920.02008 -12198632.15208  22263234.38508  22263236.64508
 -27138469.32909 -21146846.83409  20206436.95209  20206437.72109
 -15456419.59508 -12043955.18108  22399229.08808  22399229.54608
 -14810635.94408 -11540748.68408  22351314.34508  22351316.05808
    878531.81208    684583.87707  25392296.69908  25392297.09107
 93 07 09 07 55 00.0000000  0  8 29 07 18 13 14 25 15 01
 -20932883.28908 -16311322.65808  21292917.98208  21292918.45508
 -14716596.37808 -11467472.46808  22646507.25808  22646509.01908
  -5140270.34708  -4005403.79308  24302249.36508  24302252.46108
 -15785349.91208 -12300265.81508  22238414.39508  22238416.60708
 -27160496.22609 -21164010.63309  20202245.38809  20202246.13809
 -15466572.84808 -12051866.79408  22397296.96008  22397297.42908
 -14605733.95208 -11381084.91408  22390306.01208  22390307.70408
   1095492.95007    853644.50608  25433582.70307  25433584.34708
 93 07 09 07 56 00.0000000  0  8 29 07 18 13 14 25 15 01
 -21063890.26208 -16413405.93308  21267988.10608  21267988.61108
 -14644146.87008 -11411018.35508  22660293.88308  22660295.76808
  -5369926.09908  -4184356.19808  24258546.95108  24258549.98108
 -15913418.98308 -12400059.87208  22214043.67908  22214045.82308
 -27180754.30309 -21179796.13409  20198390.39609  20198391.12109
 -15474377.72308 -12057948.50308  22395811.68508  22395812.04908
 -14399630.27708 -11220484.75308  22429526.32208  22429528.15508
   1312754.47607   1022938.95207  25474926.11807  25474927.70707
 93 07 09 07 57 00.0000000  0  8 29 07 18 13 14 25 15 01
 -21193172.57908 -16514145.30708  21243386.46308  21243386.94308
 -14569433.52408 -11352800.21608  22674511.33408  22674513.15508
  -5599133.03208  -4362958.85808  24214930.47408  24214933.51408
 -16039109.28508 -12498000.33308  22190125.58708  22190127.73308
 -27199242.07209 -21194202.18009  20194872.27909  20194873.04909
 -15479883.88708 -12062238.99808  22394764.00908  22394764.29708
 -14192343.12408 -11058962.43308  22468971.82308  22468973.74508
   1530250.76307   1192416.62506  25516314.79007  25516315.13106
 93 07 09 07 58 00.0000000  0  8 29 07 18 13 14 25 15 01
 -21320746.24708 -16613553.29808  21219109.93508  21219110.33208
 -14492454.78208 -11292816.82608  22689160.03608  22689161.83808
  -5827903.53108  -4541221.40208  24171396.56308  24171399.73908
 -16162392.88708 -12594065.44308  22166665.45308  22166667.63608
 -27215977.83909 -21207243.02109  20191687.58009  20191688.31409
 -15482973.73608 -12064646.68108  22394175.95108  22394176.33308
 -13983883.89808 -10896526.77008  22508640.36008  22508642.13708
   1747898.31407   1362012.22307  25557731.28807  25557732.68807
 93 07 09 07 59 00.0000000  0  8 29 07 18 13 14 25 15 01
 -21446662.78108 -16711669.99608  21195148.70708  21195149.11308
 -14413191.01908 -11231052.91308  22704243.54808  22704245.38708
  -6056200.54808  -4719115.05608  24127953.22308  24127956.11608
 -16283283.79808 -12688266.12108  22143660.66008  22143662.76608
 -27230972.50609 -21218927.16509  20188834.15309  20188834.87809
 -15483524.50108 -12065075.85008  22394071.20708  22394071.57708
 -13774303.72908 -10733217.64008  22548522.15908  22548524.02208
   1965629.98207   1531673.02208  25599164.31707  25599165.88808
 93 07 09 08 00 00.0000000  0  8 29 07 18 13 14 25 15 01
 -21570879.24008 -16808461.95108  21171511.05408  21171511.47708
 -14331608.16308 -11167481.91208  22719768.30108  22719770.17808
  -6283926.25008  -4896563.49308  24084618.23408  24084621.33708
 -16401706.13508 -12780543.22908  22121125.58008  22121127.73908
 -27244112.52009 -21229166.11909  20186333.67309  20186334.39009
 -15481470.89008 -12063475.62208  22394461.85908  22394462.32008
 -13563564.06808 -10569005.02308  22588624.68308  22588626.64708
   2183554.58707   1701484.32707  25640634.42407  25640635.35007
 93 07 09 08 01 00.0000000  0  8 29 07 18 13 14 25 15 01
 -21693462.34908 -16903981.18908  21148184.24908  21148184.61408
 -14247920.30508 -11102270.65808  22735693.71308  22735695.52708
  -6511212.99308  -5073669.91208  24041366.91708  24041369.76208
 -16517726.45408 -12870948.64108  22099047.62908  22099049.76608
 -27255517.93509 -21238053.45109  20184163.28709  20184163.99409
 -15477034.33708 -12060018.54908  22395306.24108  22395306.62908
 -13351770.03908 -10403970.84308  22628927.83208  22628929.80808
   2401571.89907   1871367.93807  25682121.75407  25682122.67607
 93 07 09 08 02 00.0000000  0  8 29 07 18 13 14 25 15 01
 -21814298.84508 -16998139.44308  21125189.73808  21125190.13908
 -14162154.41008 -11035440.14908  22752014.40208  22752016.21608
  -6738038.14008  -5250416.61108  23998203.52408  23998206.47308
 -16631307.38008 -12959453.22008  22077433.87108  22077435.93108
 -27265261.15509 -21245645.55309  20182309.16309  20182309.88609
 -15470285.39608 -12054759.59308  22396590.41108  22396590.82508
 -13138920.42108 -10238114.10408  22669431.84308  22669433.79808
   2619626.26007   2041280.24507  25723615.77807  25723617.37507
 93 07 09 08 03 00.0000000  0  8 29 07 18 13 14 25 15 01
 -21933334.23008 -17090894.22408  21102538.01108  21102538.40608
 -14074211.37608 -10966913.17408  22768749.46608  22768751.36808
  -6964286.11708  -5426713.56808  23955149.72108  23955152.54508
 -16742392.29708 -13046012.86508  22056295.11108  22056297.23608
 -27273399.60709 -21251987.18909  20180760.45609  20180761.19609
 -15461129.61308 -12047625.18008  22398332.70508  22398333.08208
 -12924995.55308 -10071419.49908  22710140.46408  22710142.55508
   2837666.49107   2211181.55807  25765107.91207  25765109.11307
 93 07 09 08 04 00.0000000  0  8 29 07 18 13 25 14 15 01
 -22050624.10908 -17182288.87208  21080218.45508  21080218.79608
 -13983954.85308 -10896583.48108  22785924.79908  22785926.69608
  -7189904.28208  -5602519.79108  23912216.15908  23912218.87808
 -16850942.98808 -13130597.78808  22035638.52808  22035640.72108
 -15449401.67308 -12038486.51008  22400564.45708  22400564.83108
 -27279840.73009 -21257006.22309  20179534.71009  20179535.44209
 -12709993.19908  -9903885.29608  22751054.17308  22751056.24008
   3055724.02607   2381096.36907  25806602.94007  25806604.26707
 93 07 09 08 05 00.0000000  0  7 29 07 18 13 25 15 14
 -22166212.89308 -17272358.01008  21058222.58208  21058222.94608
 -13891471.14908 -10824518.32108  22803523.88108  22803525.84308
  -7414936.92008  -5777869.74708  23869393.52108  23869396.33508
 -16956949.60308 -13213200.30908  22015466.11208  22015468.27808
 -15435125.71708 -12027362.37608  22403280.96808  22403281.37108
 -12493939.67608  -9735532.00208  22792167.91408  22792169.75308
 -27284454.74009 -21260601.54209  20178656.70409  20178657.41309
 93 07 09 08 06 00.0000000  0  7 29 07 18 13 14 25 15
 -22280021.08508 -17361039.66908  21036565.51708  21036565.85008
 -13796856.96208 -10750793.05008  22821528.46508  22821530.40308
  -7639394.62708  -5952771.75308  23826680.58208  23826683.33108
 -17060385.08408 -13293799.35108  21995782.94508  21995785.08708
 -27287196.96409 -21262738.34709  20178134.90209  20178135.62109
 -15418405.20808 -12014333.38708  22406462.73308  22406463.10008
 -12276844.57108  -9566367.05808  22833479.75108  22833481.75008
 93 07 09 08 07 00.0000000  0  8 29 07 18 13 14 25 15 20
 -22392040.86708 -17448327.75708  21015248.87508  21015249.19408
 -13700134.78308 -10675425.18408  22839934.10908  22839936.02108
  -7863280.62008  -6127228.22008  23784076.40608  23784079.02808
 -17161284.69808 -13372422.39208  21976582.36908  21976584.56508
 -27288206.26809 -21263524.77509  20177942.77309  20177943.48209
 -15399342.23108 -11999479.10208  22410090.37308  22410090.66808
 -12058779.46008  -9396446.29008  22874976.18208  22874978.42008
        -0.15918         0.14017  24871485.84218  24871487.44817
 93 07 09 08 08 00.0000000  0  8 07 18 13 29 14 25 15 20
 -13601199.20308 -10598332.58208  22858760.84208  22858762.80408
  -8086452.14708  -6301128.01908  23741608.11208  23741610.80208
 -17259591.35108 -13449024.93608  21957875.19308  21957877.37208
 -22502244.63808 -17534200.76308  20994277.75708  20994278.08008
 -27287525.23609 -21262994.10309  20178072.36609  20178073.06109
 -15377828.46308 -11982715.09708  22414184.32208  22414184.64008
 -11839722.28208  -9225752.49908  22916661.51408  22916663.69408
    -39407.14608    -30706.61807  24863987.13608  24863988.21607
 93 07 09 08 09 00.0000000  0  8 07 18 13 29 14 25 15 20
 -13500181.36108 -10519617.45008  22877984.00908  22877986.02508
  -8308922.33508  -6474481.30608  23699273.42808  23699275.99308
 -17355323.72408 -13523621.55608  21939657.92908  21939660.08408
 -22610749.95708 -17618750.31308  20973629.87008  20973630.13608
 -27285157.88109 -21261149.37009  20178522.84609  20178523.50409
 -15353839.87508 -11964022.69208  22418749.17608  22418749.54608
 -11619726.99908  -9054327.70008  22958525.31808  22958527.40608
    -76542.99207    -59643.68608  24856920.28007  24856922.60908
 93 07 09 08 10 00.0000000  0  8 07 18 13 29 14 25 15 20
 -13397207.53808 -10439378.17208  22897579.32508  22897581.33208
  -8530819.05508  -6647387.73908  23657047.79808  23657050.40208
 -17448461.66908 -13596196.54308  21921934.28808  21921936.46608
 -22717552.85708 -17701973.28208  20953305.87008  20953306.12808
 -27281048.23409 -21257947.02009  20179304.80609  20179305.48209
 -15327341.66208 -11943374.73908  22423791.56508  22423792.02908
 -11398808.41508  -8882183.42708  23000564.81008  23000566.84508
   -111396.99007    -86802.58607  24850287.56907  24850289.89607
 93 07 09 08 11 00.0000000  0  8 07 18 13 29 14 25 15 20
 -13292210.04308 -10357562.01208  22917559.73808  22917561.78508
  -8752194.00508  -6819887.56808  23614921.34508  23614923.86308
 -17538961.76108 -13666716.06608  21904712.66908  21904714.89008
 -22822569.50308 -17783804.35708  20933321.83608  20933322.07608
 -27275171.31709 -21253367.59009  20180423.15009  20180423.80609
 -15298324.93008 -11920764.30508  22429313.29608  22429313.67008
 -11176956.30708  -8709311.75608  23042781.95808  23042784.01408
   -143934.55107   -112156.61007  24844096.06307  24844097.03007
 93 07 09 08 12 00.0000000  0  8 07 18 13 29 14 25 15 20
 -13185084.53808 -10274087.65908  22937945.11908  22937947.14508
  -8972911.91608  -6991875.47808  23572920.08208  23572922.64008
 -17626802.68408 -13735163.51508  21887997.10008  21887999.25708
 -22925741.31708 -17864197.90608  20913688.87908  20913689.07308
 -27267560.19909 -21247436.84609  20181871.57509  20181872.26009
 -15266974.38608 -11896335.30708  22435279.06808  22435279.40608
 -10954183.58908  -8535722.72808  23085174.20008  23085176.38208
   -174145.30607   -135697.41807  24838347.06907  24838348.91607
 93 07 09 08 13 00.0000000  0  8 07 18 13 29 14 25 15 20
 -13075859.45508 -10188977.27208  22958729.89008  22958732.08008
  -9192851.51908  -7163256.86508  23531067.04808  23531069.33508
 -17711970.00108 -13801527.62508  21871790.26308  21871792.40108
 -23027052.28308 -17943141.47008  20894409.94008  20894410.11308
 -27258215.26309 -21240155.07209  20183649.81909  20183650.50809
 -15233376.24708 -11870154.92708  22441672.58908  22441672.98308
 -10730509.90008  -8361431.64908  23127737.93908  23127740.18708
   -202023.41508   -157420.54607  24833042.41708  24833043.85607
 93 07 09 08 14 00.0000000  0  8 07 18 13 29 14 25 15 20
 -12964637.77708 -10102311.10008  22979894.85008  22979896.85008
  -9412060.33508  -7334068.80708  23489352.75208  23489355.24508
 -17794464.26008 -13865808.83508  21856092.11408  21856094.24408
 -23126585.25908 -18020699.58208  20875469.45408  20875469.60808
 -27247113.69009 -21231504.47009  20185762.37209  20185763.04609
 -15197390.81208 -11842114.32608  22448520.39808  22448520.75308
 -10505968.45708  -8186464.39008  23170466.94308  23170469.15708
   -227579.85807   -177334.69907  24828178.36807  24828180.35607
 93 07 09 08 15 00.0000000  0  8 07 18 13 29 14 25 15 20
 -12851496.68308 -10014149.28508  23001424.95208  23001427.05108
  -9630523.99708  -7504300.11408  23447780.42008  23447782.82608
 -17874242.16508 -13927973.40108  21840910.82008  21840912.99608
 -23224321.90408 -18096857.94408  20856870.75608  20856870.89708
 -27234247.10409 -21221478.54709  20188210.84909  20188211.49009
 -15158862.73708 -11812092.44908  22455852.06108  22455852.37908
 -10280551.38008  -8010814.82308  23213362.44508  23213364.63508
   -250781.50708   -195413.87807  24823763.89208  24823765.68907
 93 07 09 08 16 00.0000000  0  8 07 18 13 29 14 25 15 20
 -12736443.22008  -9924497.30408  23023318.91008  23023321.04508
  -9848176.65908  -7673899.45108  23406362.55308  23406364.88208
 -17951301.09608 -13988019.28908  21826246.96608  21826249.11508
 -23320196.97308 -18171565.75108  20838626.16708  20838626.28508
 -27219659.43409 -21210111.51209  20190986.72009  20190987.38109
 -15117830.93308 -11780119.61908  22463660.15208  22463660.47208
 -10054286.64408  -7834504.75008  23256419.18408  23256421.41808
   -271634.09708   -211662.65607  24819795.84308  24819797.56407
 93 07 09 08 17 00.0000000  0  8 07 18 13 29 14 25 15 20
 -12619420.99908  -9833311.23608  23045587.50208  23045589.70808
 -10064982.29808  -7842838.75908  23365105.65208  23365107.90608
 -18025625.93708 -14045934.71108  21812103.40408  21812105.54908
 -23414178.24608 -18244797.85908  20820742.20908  20820742.35408
 -27203293.63009 -21197358.95609  20194101.04309  20194101.73109
 -15074350.95908 -11746239.13108  22471934.22708  22471934.51108
  -9827192.11808  -7657548.07308  23299633.92708  23299636.18008
   -290134.07207   -226078.21307  24816274.89907  24816275.56607
 93 07 09 08 18 00.0000000  0  8 07 18 13 29 14 25 15 20
 -12500432.10008  -9740592.68108  23068230.49508  23068232.58808
 -10281083.49908  -8011229.12008  23323982.68108  23323985.08008
 -18097283.39708 -14101771.65708  21798467.43408  21798469.49808
 -23506390.47808 -18316651.49208  20803194.77908  20803194.90408
 -27185200.53909 -21183260.41309  20197543.99809  20197544.69609
 -15028506.84608 -11710516.46508  22480657.97308  22480658.36108
  -9599365.18408  -7480020.68308  23342988.06708  23342990.35408
   -306356.26508   -238718.98307  24813188.89508  24813190.02107
 93 07 09 08 19 00.0000000  0  8 07 18 13 29 14 25 15 20
 -12380691.37208  -9647288.30508  23091016.50408  23091018.62808
 -10497703.83708  -8180024.06208  23282761.21408  23282763.56108
 -18167429.48408 -14156430.91308  21785119.07508  21785121.10508
 -23598065.83909 -18388086.82008  20785749.48609  20785749.60608
 -27166561.26109 -21168736.27609  20201090.94709  20201091.63009
 -14981490.54208 -11673880.38908  22489605.00808  22489605.29208
  -9371992.34008  -7302847.14308  23386255.69508  23386258.14208
   -321465.38507   -250492.28608  24810312.63407  24810315.60808
 93 07 09 08 20 00.0000000  0  8 07 18 13 29 14 25 15 20
 -12259829.39208  -9553110.21608  23114015.73208  23114017.99908
 -10714378.82408  -8348861.55708  23241529.30108  23241531.33708
 -18235539.93008 -14209503.95208  21772158.04608  21772160.08508
 -23688662.27909 -18458681.40008  20768509.55409  20768509.66608
 -27146887.95209 -21153406.44109  20204834.56709  20204835.28409
 -14932808.17708 -11635946.07408  22498868.91408  22498869.21208
  -9144581.30508  -7125643.81808  23429530.65208  23429533.10508
   -334947.47307   -260997.62307  24807746.92607  24807749.05407
 93 07 09 08 21 00.0000000  0  8 13 07 18 29 14 25 15 20
 -18299168.29308 -14259084.45508  21760049.97008  21760051.93508
 -12135472.06208  -9456208.47808  23137680.25908  23137682.45108
 -10928630.69208  -8515810.94108  23200758.35308  23200760.61608
 -23775688.73409 -18526494.19008  20751948.90409  20751949.01808
 -27123718.76209 -21135352.49109  20209243.54009  20209244.26809
 -14879981.48708 -11594782.40608  22508921.41008  22508921.77108
  -8914717.16208  -6946529.01108  23473272.40708  23473274.88908
   -344366.46908   -268337.18507  24805955.73908  24805955.15707
 93 07 09 08 22 00.0000000  0  8 13 07 18 29 14 25 15 20
 -18359303.50708 -14305943.03108  21748606.55108  21748608.59708
 -12008600.75208  -9357347.79508  23161823.04808  23161825.19408
 -11141308.21008  -8681533.56108  23160286.95908  23160289.13708
 -23860110.26808 -18592277.16208  20735883.94608  20735884.07108
 -27098072.92809 -21115368.71809  20214123.69109  20214124.40309
 -14823994.56408 -11551156.21308  22519575.39608  22519575.70308
  -8683419.24008  -6766296.96008  23517286.98308  23517289.53908
   -350720.53708   -273288.49207  24804746.85708  24804748.49507
 93 07 09 08 23 00.0000000  0  8 13 07 18 25 29 14 15 20
 -18416436.65208 -14350462.33208  21737734.46308  21737736.45708
 -11879648.75308  -9256865.79708  23186361.96508  23186364.20808
 -11352750.11808  -8846293.37008  23120050.87508  23120053.02808
 -14765464.48508 -11505548.32708  22530713.24708  22530713.60208
 -23942424.01408 -18656417.70908  20720220.11908  20720220.25508
 -27070492.36009 -21093877.39509  20219372.17309  20219372.89209
  -8451207.48408  -6585352.83708  23561475.44908  23561477.97608
   -354509.28907   -276240.71408  24804024.53607  24804028.14808
 93 07 09 08 24 00.0000000  0  8 13 07 18 25 29 14 15 20
 -18470803.93008 -14392826.41508  21727388.71608  21727390.71408
 -11748840.61108  -9154937.44708  23211253.92908  23211256.20208
 -11563297.54908  -9010356.21808  23079985.03608  23079987.19108
 -14704704.45108 -11458202.82408  22542275.58708  22542275.80708
 -24022895.88908 -18719122.99008  20704906.81308  20704906.90508
 -27041198.37709 -21071050.96409  20224946.71709  20224947.43609
  -8218346.92708  -6403903.17108  23605787.47408  23605789.92008
   -355978.12608   -277385.24508  24803746.04208  24803749.04208
 93 07 09 08 25 00.0000000  0  8 13 07 18 25 29 14 15 20
 -18522505.08208 -14433112.99708  21717550.21508  21717552.28908
 -11616346.56908  -9051695.43008  23236466.89708  23236468.99108
 -11773228.83908  -9173938.92508  23040036.22508  23040038.23708
 -14641792.61208 -11409180.56308  22554247.26208  22554247.52708
 -24101628.33109 -18780472.89408  20689924.51209  20689924.57308
 -27010265.10009 -21046947.11709  20230833.12209  20230833.84609
  -7984966.89908  -6222048.69908  23650198.34508  23650200.72408
   -355235.61608   -276806.68007  24803887.07608  24803888.38507
 93 07 09 08 26 00.0000000  0  8 13 07 18 25 29 14 15 20
 -18571473.69108 -14471270.32808  21708231.79208  21708233.83708
 -11482203.61208  -8947168.54008  23261993.41408  23261995.70008
 -11982480.46708  -9336992.00408  23000216.94008  23000219.05708
 -14576602.15008 -11358382.79008  22566652.44908  22566652.75408
 -24178576.72709 -18840432.66609  20675281.68809  20675281.78709
 -26977674.90409 -21021552.15809  20237034.74309  20237035.48309
  -7751029.04808  -6039759.55508  23694715.39108  23694717.76508
   -352225.94308   -274461.48507  24804459.33108  24804459.90307
 93 07 09 08 27 00.0000000  0  8 13 07 18 29 14 25 15 20
 -18617693.79508 -14507285.97008  21699436.38508  21699438.44508
 -11346461.25108  -8841395.35008  23287824.39208  23287826.70508
 -12190894.59408  -9499392.52608  22960556.98608  22960559.10808
 -24253763.29509 -18899019.57209  20660974.13809  20660974.23809
 -26943473.43309 -20994901.64909  20243543.03109  20243543.77409
 -14509115.14008 -11305795.50508  22579494.88208  22579495.20308
  -7516543.76108  -5857043.84908  23739336.46208  23739339.05708
   -346940.46108   -270342.92307  24805465.78708  24805466.04007
 93 07 09 08 28 00.0000000  0  8 13 07 18 25 29 14 15 20
 -18661140.69408 -14541140.67508  21691168.70808  21691170.74308
 -11209113.67508  -8734371.36608  23313960.85008  23313963.07108
 -12398378.47308  -9661068.16308  22921073.98708  22921076.01308
 -14439379.40708 -11251455.96208  22592765.16208  22592765.40308
 -24327208.22509 -18956249.35809  20646997.97309  20646998.07109
 -26907667.11909 -20967000.58409  20250356.80809  20250357.55309
  -7281514.15808  -5673904.02308  23784061.09508  23784063.77208
   -339364.88608   -264439.83907  24806907.06908  24806907.18007
 93 07 09 08 29 00.0000000  0  8 13 07 18 25 29 14 15 20
 -18701759.56208 -14572791.72508  21683439.20208  21683441.21008
 -11070080.82908  -8626034.17308  23340417.91208  23340420.14608
 -12604943.05008  -9822027.47608  22881765.96308  22881768.00108
 -14367396.37508 -11195365.26308  22606462.99108  22606463.17208
 -24398855.39509 -19012078.30109  20633363.98109  20633364.08409
 -26870101.06209 -20937728.29409  20257505.42709  20257506.14609
  -7045913.16208  -5490318.96808  23828894.71408  23828897.20708
   -329452.13308   -256715.60506  24808793.21208  24808793.50906
 93 07 09 08 30 00.0000000  0  8 13 07 18 25 29 14 15 20
 -18739534.36508 -14602226.61908  21676250.86708  21676252.88008
 -10929330.61008  -8516358.78408  23367201.83608  23367204.17208
 -12810628.83608  -9982302.03408  22842625.23908  22842627.36708
 -14293131.69008 -11137496.66508  22620595.14308  22620595.42908
 -24468566.34309 -19066398.49609  20620098.43309  20620098.50709
 -26830750.29809 -20907065.37709  20264993.54709  20264994.26509
  -6809751.17208  -5306296.74008  23873835.00508  23873837.31608
   -317195.96508   -247165.32606  24811126.10808  24811125.55106
 93 07 09 08 31 00.0000000  0  8 13 07 18 25 29 14 15 20
 -18774480.99708 -14629457.74908  21669600.74008  21669602.72508
 -10786892.57708  -8405368.20508  23394307.05208  23394309.47208
 -13015450.56208 -10141903.30408  22803648.93608  22803650.91508
 -14216558.43808 -11077829.18208  22635166.55908  22635166.84308
 -24536345.87909 -19119213.67109  20607200.39309  20607200.41309
 -26789701.06409 -20875078.93909  20272804.94809  20272805.62309
  -6573068.93508  -5121869.08008  23918874.16908  23918876.57808
   -302620.16808   -235807.51707  24813899.98408  24813899.45407
 93 07 09 08 32 00.0000000  0  8 13 07 18 25 29 14 15 20
 -18806550.09708 -14654446.64708  21663498.18308  21663500.16808
 -10642763.34808  -8293059.82108  23421733.93608  23421736.40908
 -13219335.32508 -10300774.45408  22764850.86408  22764852.78008
 -14137669.97008 -11016357.64808  22650178.41608  22650178.76708
 -24602202.78709 -19170530.70609  20594668.23909  20594668.24909
 -26746962.98809 -20841776.52509  20280937.74709  20280938.39809
  -6335842.19808  -4937017.14808  23964016.86908  23964019.43608
   -285684.39208   -222610.83407  24817121.64408  24817124.36207
 93 07 09 08 33 00.0000000  0  8 13 07 18 25 29 14 15 20
 -18835814.39208 -14677249.97908  21657929.37908  21657931.36208
 -10497095.35808  -8179552.39808  23449453.84408  23449456.20508
 -13422353.17008 -10458970.09908  22726217.84608  22726219.74808
 -14056606.53308 -10953191.32308  22665604.30508  22665604.62808
 -24666263.31809 -19220447.95309  20582477.89109  20582477.86909
 -26702608.39109 -20807214.48409  20289378.14909  20289378.81809
  -6098168.61708  -4751817.06908  24009244.56508  24009247.38908
   -266469.95308   -207638.63107  24820778.24408  24820780.79207
 93 07 09 08 34 00.0000000  0  8 13 07 18 25 29 14 15 20
 -18862200.95208 -14697810.92608  21652908.17908  21652910.14908
 -10349897.16708  -8064852.63908  23477464.78808  23477467.23408
 -13624403.79508 -10616412.07108  22687768.76308  22687770.68208
 -13973319.45608 -10888292.30408  22681453.41408  22681453.72008
 -24728446.90009 -19268902.64609  20570644.69609  20570644.64009
 -26656555.34709 -20771328.97409  20298141.69109  20298142.36309
  -5860000.71708  -4566231.79608  24054566.62808  24054569.27808
   -244912.50208   -190840.62607  24824881.56808  24824880.95207
 93 07 09 08 35 00.0000000  0  8 13 07 18 25 29 14 15 20
 -18885682.10508 -14716107.92708  21648439.86708  21648441.82108
 -10201187.32508  -7948974.94308  23505763.41908  23505765.98808
 -13825403.18408 -10773034.90308  22649519.71508  22649521.62608
 -13887687.93908 -10821566.45408  22697748.50108  22697748.73908
 -24788755.48809 -19315896.31309  20559168.35209  20559168.29909
 -26608703.87609 -20734042.08109  20307247.59709  20307248.25009
  -5621334.21308  -4380257.95208  24099983.44108  24099985.99908
   -220991.67308   -172200.95807  24829432.66108  24829434.76707
 93 07 09 08 36 00.0000000  0  8 13 07 18 25 29 14 15 20
 -18906294.66408 -14732169.65808  21644517.44208  21644519.33808
 -10051058.70108  -7831991.74708  23534332.01008  23534334.54208
 -14025343.41108 -10928832.39208  22611472.42008  22611474.24608
 -13799808.51408 -10753088.96608  22714471.37808  22714471.72008
 -24847277.95809 -19361498.17509  20548031.84509  20548031.77709
 -26559044.32309 -20695346.29709  20316697.39509  20316698.02909
  -5382228.87108  -4193942.17808  24145483.70508  24145486.43808
   -194753.06008   -151755.34508  24834425.80608  24834428.66508
 93 07 09 08 37 00.0000000  0  8 13 07 18 25 29 14 15 20
 -18923990.22108 -14745958.40708  21641150.08208  21641152.02808
  -9899488.58308  -7713885.27408  23563174.94508  23563177.52108
 -14224221.38608 -11083802.15408  22573627.01508  22573628.92208
 -13709786.14208 -10682941.66608  22731602.03108  22731602.34208
 -24903964.11809 -19405669.16909  20537244.82109  20537244.69709
 -26507592.75809 -20655254.15809  20326488.31709  20326488.97409
  -5142658.40308  -4007263.97908  24191072.44908  24191075.37008
   -166156.89508   -129472.60807  24839867.34708  24839868.09107
 93 07 09 08 38 00.0000000  0  8 13 07 18 25 29 14 15 20
 -18938740.46908 -14757452.10308  21638343.21508  21638345.16008
  -9746373.92008  -7594575.26608  23592311.75908  23592314.38108
 -14422051.11008 -11237955.09808  22535981.20008  22535983.10708
 -13617595.69508 -10611104.97208  22749145.27008  22749145.60708
 -24958673.96409 -19448300.19609  20526833.84609  20526833.74009
 -26454428.91609 -20613827.77309  20336604.99909  20336605.68009
  -4902617.08208  -3820218.90108  24236750.97808  24236753.78108
   -135181.43907   -105335.81507  24845761.31007  24845764.20307
 93 07 09 08 39 00.0000000  0  8 13 07 18 25 29 14 15 20
 -18950572.80408 -14766672.11108  21636091.61808  21636093.55008
  -9591674.26008  -7474030.22008  23621750.37508  23621752.94308
 -14618856.19308 -11391309.61408  22498530.40708  22498532.27108
 -13523143.37108 -10537505.78208  22767119.04808  22767119.33508
 -25011403.90109 -19489388.42809  20516799.62409  20516799.52609
 -26399598.41809 -20571102.66709  20347038.89209  20347039.57409
  -4662154.58808  -3632845.63108  24282509.64008  24282512.43408
   -101862.63708    -79373.11007  24852102.48308  24852103.33607
 93 07 09 08 40 00.0000000  0  8 13 07 18 29 14 25 15 20
 -18959492.35408 -14773622.41808  21634394.27708  21634396.21508
  -9435483.30008  -7352323.10208  23651472.42408  23651475.19408
 -14814655.91808 -11543880.71308  22461270.91508  22461272.62208
 -25062213.27309 -19528980.09809  20507130.86409  20507130.73809
 -26343014.78409 -20527011.46609  20357806.33409  20357806.97609
 -13426469.78808 -10462175.71208  22785515.35208  22785515.71108
  -4421296.92008  -3445164.41408  24328343.38108  24328346.04108
    -66213.62007    -51594.65507  24858885.23607  24858886.85707
 93 07 09 08 41 00.0000000  0  7 13 07 18 25 29 14 15
 -18965478.89108 -14778287.26008  21633255.10908  21633256.97908
  -9277825.46408  -7229472.99208  23681474.01208  23681476.46808
 -15009380.22008 -11695613.80708  22424215.94408  22424217.71408
 -13327697.94808 -10385210.64008  22804311.07008  22804311.21408
 -25111091.96109 -19567067.34509  20497829.53509  20497829.42509
 -26284613.01509 -20481503.53209  20368919.84109  20368920.44009
  -4180043.63008  -3257174.90908  24374252.25008  24374255.08908
 93 07 09 08 42 00.0000000  0  8 13 07 18 25 29 14 15 24
 -18968554.40708 -14780683.78108  21632669.87608  21632671.74608
  -9118708.79008  -7105486.10308  23711752.92208  23711755.55508
 -15202926.38208 -11846428.86908  22387385.25008  22387387.01108
 -13226793.21508 -10306583.58408  22823512.58608  22823512.77008
 -25158002.03509 -19603620.61009  20488902.82109  20488902.68709
 -26224518.35709 -20434676.51009  20380355.42409  20380356.03709
  -3938437.68007  -3068910.59807  24420228.26507  24420231.26107
        -0.23217        -0.06817  25475464.04217  25475467.50717
 93 07 09 08 43 00.0000000  0  8 07 18 13 29 14 25 15 24
  -8958198.43408  -6980413.22408  23742297.09508  23742299.84708
 -15395283.50408 -11996317.41208  22350780.84608  22350782.53308
 -18968732.54708 -14780822.60808  21632635.99508  21632637.85308
 -25202956.98209 -19638650.42109  20480348.19209  20480348.03309
 -26162849.16409 -20386622.64908  20392090.76109  20392091.36008
 -13123657.74208 -10226218.27808  22843138.63808  22843138.96608
  -3696511.51007  -2880396.76008  24466265.44907  24466268.37608
   -217730.81508   -169660.19207  25434031.69808  25434034.19307
 93 07 09 08 44 00.0000000  0  8 18 07 13 25 29 14 15 24
 -15586572.46308 -12145373.62808  22314379.69908  22314381.33608
  -8796353.97008  -6854300.79808  23773095.06608  23773098.12208
 -18965985.13908 -14778681.78808  21633158.77108  21633160.71908
 -13018291.23508 -10144114.49008  22863189.18408  22863189.46808
 -25246052.68609 -19672231.43509  20472147.29909  20472147.15109
 -26099531.35709 -20337284.07408  20404139.69309  20404140.27608
  -3454256.90508  -2691626.99208  24512365.02308  24512368.01708
   -435000.89607   -338961.47607  25392686.18607  25392689.15607
 93 07 09 08 45 00.0000000  0  8 18 07 13 25 29 14 15 24
 -15776816.99708 -12293616.00408  22278177.27908  22278178.87408
  -8633185.99408  -6727157.08108  23804145.41108  23804147.97908
 -18960279.46008 -14774235.82008  21634244.57108  21634246.47208
 -12910792.43008 -10060349.17408  22883645.45908  22883645.80508
 -25287285.44509 -19704360.81309  20464300.89009  20464300.77009
 -26034403.37409 -20286534.94608  20416533.19309  20416533.76308
  -3211658.36608  -2502589.22408  24558530.05308  24558533.08608
   -651824.94507   -507915.10007  25351425.56207  25351429.04507
 93 07 09 08 46 00.0000000  0  8 18 07 13 25 29 14 15 24
 -15965994.26208 -12441026.75608  22242177.97408  22242179.54208
  -8468769.96908  -6599040.83908  23835432.47108  23835435.52308
 -18951699.64808 -14767550.26808  21635877.26808  21635879.15208
 -12801262.93408  -9975001.50708  22904488.30108  22904488.58308
 -25326691.09509 -19735066.47509  20456802.21409  20456802.01909
 -25967540.74609 -20234434.11608  20429256.59309  20429257.15308
  -2968817.52708  -2313362.67908  24604741.09708  24604744.17808
   -868279.53507   -676580.84807  25310235.77707  25310238.88307
 93 07 09 08 47 00.0000000  0  8 18 07 13 25 29 14 15 24
 -16153919.04608 -12587461.55208  22206417.04808  22206418.56008
  -8303084.37608  -6469935.29708  23866961.50108  23866964.58008
 -18940188.10208 -14758580.25208  21638067.87208  21638069.71808
 -12689585.22208  -9887979.89708  22925739.83408  22925740.13308
 -25364150.51609 -19764255.65709  20449674.00209  20449673.84609
 -25898957.13409 -20180992.41208  20442307.65909  20442308.22208
  -2725694.08407  -2123915.95607  24651005.97207  24651008.99107
  -1084253.85007   -844872.43307  25269137.16107  25269140.02107
 93 07 09 08 48 00.0000000  0  8 18 07 13 25 29 14 15 24
 -16340566.26008 -12732900.84808  22170899.21408  22170900.72708
  -8136170.61408  -6339872.80108  23898724.39108  23898727.18308
 -18925744.35308 -14747325.40908  21640816.43708  21640818.35308
 -12575757.27808  -9799282.78908  22947400.60908  22947400.85608
 -25399612.42309 -19791888.28409  20442925.71809  20442925.59709
 -25828684.99309 -20126234.87308  20455679.95109  20455680.49208
  -2482305.03207  -1934262.26107  24697321.29807  24697324.40707
  -1299672.74007  -1012731.14007  25228143.96807  25228147.14007
 93 07 09 08 49 00.0000000  0  8 18 07 13 25 29 14 15 24
 -16525996.50608 -12877391.85608  22135612.82408  22135614.38508
  -7968064.29708  -6208880.99508  23930713.94008  23930716.80408
 -18908393.49208 -14733805.27508  21644118.18008  21644120.09408
 -12459907.21208  -9709010.02008  22969445.96608  22969446.35808
 -25433141.27509 -19818014.64009  20436545.38609  20436545.25209
 -25756693.34909 -20070137.54908  20469379.59509  20469380.17008
  -2238691.73907  -1744433.75807  24743679.58607  24743682.29707
  -1514532.52207  -1180154.21707  25187257.67807  25187260.69307
 93 07 09 08 50 00.0000000  0  8 18 07 13 25 15 29 14 24
 -16710259.37808 -13020973.20908  22100548.74908  22100550.23408
  -7798745.89808  -6076944.71008  23962934.33908  23962937.41608
 -18888164.24208 -14718042.24608  21647967.73608  21647969.62208
 -12342182.28208  -9617276.30508  22991848.38208  22991848.67008
  -1994898.34508  -1554464.87307  24790072.08508  24790074.89707
 -25464919.78009 -19842777.08409  20430498.09609  20430497.97709
 -25683015.42509 -20012726.21308  20483400.07109  20483400.64508
  -1728886.98607  -1347183.50807  25146467.25407  25146470.09407
 93 07 09 08 51 00.0000000  0  8 18 13 07 25 29 14 15 24
 -16893367.44608 -13163654.71908  22065704.31408  22065705.82908
 -18865020.36008 -14700008.09008  21652371.87908  21652373.79908
  -7628174.91808  -5944032.43708  23995393.11808  23995395.89508
 -12222492.97708  -9524011.92608  23014624.55008  23014624.76608
 -25494882.29509 -19866124.48109  20424796.38909  20424796.28109
 -25607664.11509 -19954010.92008  20497738.99609  20497739.54508
  -1750904.39008  -1364339.73007  24836502.63808  24836505.68707
  -1942744.39007  -1513825.51207  25105771.36807  25105774.18207
 93 07 09 08 52 00.0000000  0  8 18 13 07 25 29 14 15 24
 -17075247.32508 -13305379.18608  22031093.63108  22031095.12108
 -18838933.58708 -14679680.75308  21657336.06508  21657337.97608
  -7456374.97108  -5810162.50808  24028085.44908  24028088.66508
 -12100711.30608  -9429117.10908  23037798.82608  23037799.21008
 -25522810.68009 -19887886.83209  20419481.79509  20419481.66209
 -25530616.82609 -19893974.07208  20512400.64909  20512401.21908
  -1506695.08308  -1174046.82008  24882974.18608  24882977.36708
  -2156059.44508  -1680044.88707  25065178.82808  25065181.70307
 93 07 09 08 53 00.0000000  0  8 18 13 07 25 29 14 15 24
 -17255804.75408 -13446073.17108  21996734.57508  21996736.04708
 -18809881.92808 -14657043.13108  21662864.42008  21662866.34908
  -7283385.89808  -5675366.01008  24061004.46308  24061007.52508
 -11976807.30508  -9332568.50808  23061376.90908  23061377.16608
 -25548624.75409 -19908001.64309  20414569.51209  20414569.36609
 -25451836.78209 -19832586.99108  20527391.96209  20527392.52808
  -1262261.32107   -983579.04308  24929488.44207  24929491.61908
  -2368687.02407  -1845728.58607  25024716.99707  25024719.93607
 93 07 09 08 54 00.0000000  0  8 18 13 07 25 29 14 15 24
 -17435113.90808 -13585794.46508  21962613.12308  21962614.55408
 -18777993.99508 -14632195.43108  21668932.51608  21668934.45508
  -7109323.34108  -5539733.02508  24094127.48708  24094130.31808
 -11850979.41908  -9234520.77108  23085321.22808  23085321.42208
 -25572625.45809 -19926703.45909  20410002.30809  20410002.15209
 -25371431.67509 -19769933.62908  20542692.54109  20542693.09508
  -1017745.10207   -793047.05608  24976018.27907  24976021.64108
  -2580660.18108  -2010902.33107  24984379.77208  24984382.34507
 93 07 09 08 55 00.0000000  0  8 18 13 07 25 29 14 15 24
 -17613220.99208 -13724579.07708  21928720.30608  21928721.71708
 -18743247.30108 -14605120.13408  21675544.61508  21675546.59308
  -6934129.71008  -5403218.66908  24127466.09608  24127469.31008
 -11723223.60508  -9134970.77608  23109632.35608  23109632.57408
 -25594847.78809 -19944019.53409  20405773.51909  20405773.36609
 -25289420.46609 -19706028.76708  20558298.70409  20558299.24408
   -773137.68807   -602444.03008  25022565.54507  25022568.91908
  -2791996.90208  -2175580.13907  24944163.61008  24944166.26307
 93 07 09 08 56 00.0000000  0  8 18 13 25 07 29 14 15 24
 -17790069.65508 -13862383.10608  21895067.16108  21895068.52808
 -18705562.10008 -14575755.08308  21682715.92208  21682717.88208
 -11593458.22508  -9033854.88408  23134325.78208  23134326.00908
  -6757803.63608  -5265821.92208  24161019.67308  24161022.87408
 -25615103.79409 -19959803.43009  20401918.94709  20401918.73809
 -25205735.04009 -19640819.32608  20574223.42609  20574223.95108
   -528370.26607   -411716.25407  25069143.40107  25069146.59707
  -3002687.48708  -2339754.44907  24904070.44608  24904073.04307
 93 07 09 08 57 00.0000000  0  8 18 13 25 07 29 14 15 24
 -17965594.98408 -13999155.96708  21861665.72908  21861667.04208
 -18664975.52808 -14544129.25208  21690439.33108  21690441.31508
 -11461761.87008  -8931234.29908  23159386.61508  23159386.97908
  -6580510.60908  -5127671.65208  24194757.91208  24194760.95708
 -25633364.79109 -19974032.77109  20398443.96609  20398443.75909
 -25120363.63109 -19574296.12908  20590469.09709  20590469.63408
   -283492.67207   -220902.57207  25115742.07307  25115745.15807
  -3212754.34308  -2503442.80007  24864095.90808  24864098.37207
 93 07 09 08 58 00.0000000  0  8 18 13 25 07 29 14 15 24
 -18139765.74908 -14134873.30608  21828521.97608  21828523.31308
 -18621508.20208 -14510258.67308  21698710.96808  21698712.93808
 -11328147.18708  -8827118.93108  23184812.74008  23184812.96408
  -6402298.79808  -4988805.48608  24228670.23208  24228673.79508
 -25649710.62409 -19986769.77909  20395333.45909  20395333.23809
 -25033288.24509 -19506445.17808  20607038.97809  20607039.54008
    -38535.09407    -30026.57407  25162355.90207  25162359.02007
  -3422168.05908  -2666622.17207  24824245.56008  24824248.37007
 93 07 09 08 59 00.0000000  0  8 18 13 25 07 29 14 15 24
 -18312627.71208 -14269570.81908  21795627.33308  21795628.64308
 -18575163.80508 -14474146.20108  21707530.04008  21707532.01908
 -11192613.54808  -8721508.28108  23210603.95308  23210604.12908
  -6223107.29708  -4849175.88708  24262769.61208  24262772.79908
 -25664212.26109 -19998069.74709  20392573.93609  20392573.72409
 -24944544.22709 -19437293.98808  20623926.41509  20623926.92208
    206488.07407    160900.55807  25208982.38507  25208985.45607
  -3630865.97208  -2829243.78907  24784531.76208  24784534.15007
 93 07 09 09 00 00.0000000  0  8 18 13 25 07 29 14 15 24
 -18484197.09508 -14403261.12208  21762978.69708  21762979.94308
 -18525962.96708 -14435807.92308  21716892.65508  21716894.67608
 -11055199.25408  -8614432.17908  23236752.92208  23236753.07008
  -6042917.43208  -4708768.32908  24297058.60408  24297062.23108
 -25676917.08609 -20007969.60509  20390156.21609  20390156.04009
 -24854170.89909 -19366873.17208  20641123.75609  20641124.28208
    451545.52507    351854.37207  25255615.28407  25255618.40907
  -3838829.79008  -2991293.39107  24744957.22508  24744959.84107
 93 07 09 09 01 00.0000000  0  8 18 13 25 07 29 14 15 24
 -18654381.22908 -14535872.03908  21730593.70108  21730594.88608
 -18473904.65408 -14395243.04208  21726799.04108  21726801.08308
 -10915988.42108  -8505956.18508  23263243.83908  23263244.07508
  -5861755.30708  -4567603.22808  24331532.80708  24331536.27708
 -25687807.60509 -20016455.69609  20388083.81509  20388083.62109
 -24762156.43909 -19295173.57608  20658633.56909  20658634.13208
    696629.88407    542829.13407  25302253.41407  25302256.48907
  -4045974.66608  -3152704.85908  24705538.99408  24705541.47308
 93 07 09 09 02 00.0000000  0  8 18 13 25 07 29 14 15 24
 -18823167.73808 -14667393.89308  21698474.55308  21698475.70908
 -18418970.51208 -14352437.24608  21737252.72508  21737254.70508
 -10774991.40908  -8396088.33308  23290074.73708  23290074.99108
  -5679664.63808  -4425714.49508  24366183.59808  24366186.84108
 -25696791.26909 -20023455.92509  20386374.25509  20386374.06909
 -24668469.98109 -19222171.13408  20676461.51309  20676462.05408
    941750.39907    733832.08307  25348898.29207  25348901.35807
  -4252281.71708  -3313463.43408  24666279.69208  24666282.23508
