     2              OBSERVATION DATA    GPS                 RINEX VERSION / TYPE
srx v1.3 (5/19/93)  STARR               93/12/15 18:29:20   PGM / RUN BY / DATE
wedg                                                        MARKER NAME
0                   TURBOROGUE          93.05.25            REC # / TYPE / VERS
 -3421425.0352 -1254202.2863  5217388.6922                  APPROX POSITION XYZ
    60                                                      INTERVAL
     1     1     0                                          WAVELENGTH FACT L1/2
     4    L1    L2    P1    P2                              # / TYPES OF OBSERV
SNR is mapped to signal strength [0,1,4-9]                  COMMENT
 SNR:   >500  >100   >50   >10    >5    >0   bad   n/a      COMMENT
 sig:      9     8     7     6     5     4     1     0      COMMENT
  1993    07    04    18    01   00.000000                  TIME OF FIRST OBS
  1993    07    04    23    59   00.000000                  TIME OF LAST OBS
    18                                                      # OF SATELLITES
    01   211   211   211   211                              PRN / # OF OBS
    02     1     1     1     1                              PRN / # OF OBS
    03   204   204   204   204                              PRN / # OF OBS
    07   105   105   105   105                              PRN / # OF OBS
    12   237   237   237   237                              PRN / # OF OBS
    13   191   191   191   191                              PRN / # OF OBS
    14    46    46    46    46                              PRN / # OF OBS
    16   123   123   123   123                              PRN / # OF OBS
    17   124   124   124   124                              PRN / # OF OBS
    18    59    59    59    59                              PRN / # OF OBS
    20   338   338   338   338                              PRN / # OF OBS
    21    36    36    36    36                              PRN / # OF OBS
    22   117   117   117   117                              PRN / # OF OBS
    24   231   231   231   231                              PRN / # OF OBS
    25   245   245   245   245                              PRN / # OF OBS
    26    50    50    50    50                              PRN / # OF OBS
    28     6     6     6     6                              PRN / # OF OBS
    29    78    78    78    78                              PRN / # OF OBS
                                                            END OF HEADER
 93 07 04 18 01 00.0000000  0  1 26
        -0.29118        -0.37918  23014237.97118  23014239.39518
 93 07 04 18 02 00.0000000  0  2 07 26
        -0.89118        -0.07518  21532541.44818  21532542.30118
    103483.89308     80636.45808  23033930.46208  23033932.00808
 93 07 04 18 03 00.0000000  0  4 07 26 21 02
    -47485.13908    -37000.83708  21523505.60108  21523506.44408
    208797.20308    162698.60008  23053971.24608  23053972.77108
        -0.41018         0.40718  23978924.30518  23978927.40218
        -0.19218         0.18018  23852899.23018  23852901.76118
 93 07 04 18 04 00.0000000  0  3 07 26 21
    -81558.33008    -63551.41508  21517021.74008  21517022.56108
    326089.98108    254095.39808  23076291.42608  23076293.01508
      3161.13608      2463.87008  23979526.08908  23979528.97208
 93 07 04 18 05 00.0000000  0  3 07 26 21
    -75917.31408    -59155.86108  21518095.19108  21518096.02208
    481762.22908    375398.26808  23105915.02708  23105916.69408
     45802.20108     35690.58308  23987640.51308  23987643.46108
 93 07 04 18 06 00.0000000  0  4 07 26 21 12
    -65752.98608    -51235.65408  21520029.36408  21520030.20208
    640686.23608    499234.98608  23136157.53408  23136159.06808
     92709.63608     72241.71608  23996566.80508  23996569.58408
        -0.25519        -0.97518  20821935.41719  20821937.17718
 93 07 04 18 07 00.0000000  0  4 07 26 21 12
    -38809.84308    -30241.04008  21525156.39908  21525157.23508
    815037.03208    635092.57108  23169335.33608  23169337.00008
    156191.42708    121707.90808  24008647.01608  24008649.97508
   -109872.27909    -85615.53608  20801027.43009  20801029.19908
 93 07 04 18 08 00.0000000  0  4 07 26 21 12
     44569.43708     34729.77208  21541023.16908  21541023.95708
   1044377.03608    813798.86008  23212977.36808  23212979.22308
    275908.89008    214994.11808  24031428.62508  24031431.51408
   -164217.19909   -127962.22808  20790685.95309  20790687.75408
 93 07 04 18 09 00.0000000  0  4 07 26 21 12
    167587.55608    130587.99408  21564432.82308  21564433.62008
   1311892.22208   1022252.03608  23263884.06508  23263885.87508
    435016.95508    338974.29808  24061706.03908  24061708.88308
   -179771.41609   -140082.40508  20787726.04809  20787727.83508
 93 07 04 18 10 00.0000000  0  4 07 26 21 12
    320690.74308    249889.12208  21593567.39508  21593568.28008
   1608053.79908   1253027.07008  23320241.94508  23320243.77908
    623931.03308    486179.97708  24097655.29508  24097657.99508
   -166017.82609   -129365.33108  20790343.26209  20790345.08108
 93 07 04 18 11 00.0000000  0  4 07 26 21 12
    458836.80808    357535.34708  21619855.73408  21619856.65708
   1887869.39008   1471064.96308  23373489.10708  23373490.91408
    797631.14608    621530.58408  24130709.47708  24130712.36408
   -167984.76209   -130898.02008  20789968.99009  20789970.81108
 93 07 04 18 12 00.0000000  0  4 07 26 21 12
    580571.10908    452393.20408  21643021.06108  21643021.98708
   2149909.81708   1675252.09608  23423354.04308  23423355.91108
    954792.77008    743994.05408  24160616.20008  24160619.38408
   -187128.56409   -145815.26708  20786326.03409  20786327.83808
 93 07 04 18 13 00.0000000  0  1 07
    691237.89608    538627.02408  21664080.29908  21664081.22208
 93 07 04 18 15 00.0000000  0  3 07 13 20
        -0.84118        -0.02718  21705070.76418  21705071.69818
         0.09818         0.17018  21404752.72518  21404754.45218
        -0.43318         0.41217  24874371.45418  24874374.85017
 93 07 04 18 16 00.0000000  0  3 07 13 20
    103833.70708     80909.96208  21724829.82208  21724830.75708
    -93949.43008    -73207.24208  21386874.68008  21386876.43008
   -189577.32907   -147721.82206  24838295.94807  24838299.01906
 93 07 04 18 17 00.0000000  0  4 07 13 20 21
    191259.93608    149034.24508  21741466.31608  21741467.30008
   -204000.06308   -158960.97008  21365932.74608  21365934.51208
   -397400.24607   -309661.73207  24798748.36307  24798751.70007
         0.18318         0.12618  24292040.24018  24292043.34318
 93 07 04 18 18 00.0000000  0  4 07 13 20 21
    276546.49908    215491.25308  21757696.00108  21757696.96708
   -315891.66508   -246149.21808  21344640.43508  21344642.21408
   -609216.84007   -474713.53307  24758440.93107  24758444.65807
    118963.42908     92698.64108  24314678.19408  24314681.44908
 93 07 04 18 19 00.0000000  0  4 07 13 20 21
    362546.48708    282504.18608  21774061.34908  21774062.34408
   -426745.21708   -332528.59508  21323545.71308  21323547.44208
   -822154.01508   -640638.50708  24717920.50408  24717924.19208
    238384.77108    185754.10508  24337403.48308  24337406.61708
 93 07 04 18 20 00.0000000  0  7 07 13 20 12 01 26 21
    450371.80308    350939.45608  21790773.92208  21790774.98708
   -535405.52308   -417198.94808  21302868.30808  21302870.08208
  -1035062.34308   -806540.98008  24677405.29908  24677408.96008
        -0.29419        -0.33118  20714594.91719  20714596.70018
        -0.78818        -0.76518  24264605.85518  24264608.31018
        -0.59018        -0.80218  23774510.91218  23774513.30818
    359448.37408    280089.26307  24360441.04408  24360444.44307
 93 07 04 18 21 00.0000000  0  7 07 13 20 01 12 26 21
    539696.32508    420542.96008  21807771.81108  21807772.86508
   -642218.52908   -500429.82108  21282542.46608  21282544.20308
  -1248295.28807   -972696.38908  24636828.17607  24636831.83308
   -172261.16008   -134229.50508  24231825.82008  24231828.22208
    -57720.57309    -44977.13908  20703611.06809  20703612.86908
    216334.06808    168571.42408  23815678.40008  23815680.81208
    481709.75408    375357.76507  24383706.88908  24383710.10507
 93 07 04 18 22 00.0000000  0  7 07 13 20 12 01 26 21
    630639.19508    491407.48908  21825077.76608  21825078.77108
   -747083.61308   -582142.86408  21262587.34008  21262589.07108
  -1461757.75107  -1139030.68607  24596207.58307  24596211.10107
   -114475.29809    -89201.59908  20692811.01609  20692812.81808
   -343839.60908   -267926.91908  24199175.51408  24199177.91008
    432688.92208    337159.36508  23856849.59208  23856852.01108
    605169.42708    471559.97307  24407200.54908  24407203.82407
 93 07 04 18 23 00.0000000  0  7 07 13 20 01 12 26 21
    723208.03908    563539.01208  21842693.08808  21842694.10408
   -849966.23308   -662311.13208  21243009.44908  21243011.15708
  -1675421.44808  -1305521.78608  24555548.88208  24555552.30008
   -514628.15008   -401008.81308  24166675.35808  24166677.88708
   -170239.48209   -132654.20708  20682199.47709  20682201.24408
    649126.98308    505812.14008  23898036.58608  23898039.16208
    729836.42608    568702.95907  24430923.85808  24430927.26107
 93 07 04 18 24 00.0000000  0  7 07 13 20 12 01 26 21
    817429.82908    636958.54108  21860623.02608  21860624.07008
   -950760.18108   -740851.86308  21223828.96408  21223830.71608
  -1889184.89608  -1472090.61708  24514871.10708  24514874.51608
   -224915.40309   -175258.81708  20671794.99209  20671796.75608
   -684381.33208   -533283.94008  24134372.31208  24134374.86608
    865724.65408    674589.27708  23939253.78708  23939256.53208
    855815.90108    666868.65807  24454897.16208  24454900.58707
 93 07 04 18 25 00.0000000  0  7 07 13 20 01 12 26 21
    912599.12608    711116.38908  21878733.20108  21878734.21908
  -1050082.65808   -818245.99608  21204928.56508  21204930.25808
  -2103671.13708  -1639222.66308  24474055.55908  24474059.13108
   -853749.52208   -665259.05908  24102142.53808  24102145.06608
   -279129.24409   -217503.36508  20661478.44409  20661480.20808
   1081777.79908    842942.11108  23980367.56508  23980370.42108
    982438.70908    765535.65507  24478992.81008  24478996.06307
 93 07 04 18 26 00.0000000  0  7 07 13 20 12 01 26 21
   1009119.79308    786327.25208  21897100.42608  21897101.49108
  -1147455.19908   -894120.70208  21186399.19408  21186400.89508
  -2318405.07308  -1806547.67808  24433192.88108  24433196.40308
   -332409.59409   -259020.52108  20651339.50509  20651341.27908
  -1022367.67208   -796649.74708  24070055.48308  24070057.84908
   1297676.09308   1011174.29008  24021451.74708  24021454.64208
   1110160.28608    865058.91107  24503297.42908  24503300.74307
 93 07 04 18 27 00.0000000  0  7 13 07 20 01 12 26 21
  -1241510.72308   -967410.72308  21168501.00308  21168502.75708
   1108407.66408    863694.37808  21915994.35308  21915995.43708
  -2532022.77408  -1973002.91308  24392542.58208  24392546.07208
  -1188898.10208   -926413.63608  24038365.82808  24038368.23408
   -383396.43309   -298750.52708  20641637.02609  20641638.84308
   1514743.50208   1180317.45608  24062758.71608  24062761.54108
   1240398.63607    966543.27807  24528080.90907  24528084.33107
 93 07 04 18 28 00.0000000  0  7 13 07 20 12 01 26 21
  -1332832.04908  -1038570.20108  21151123.16908  21151124.88308
   1209952.35408    942820.06308  21935317.58508  21935318.69708
  -2745111.66808  -2139046.07008  24351993.02108  24351996.41308
   -432680.33709   -337153.57008  20632258.65109  20632260.43808
  -1353877.20608  -1054968.69608  24006971.24208  24006973.60808
   1732380.63608   1349904.57708  24104173.83308  24104176.75508
   1372509.99907   1069487.06207  24553221.01207  24553224.61907
 93 07 04 18 29 00.0000000  0  7 13 07 20 01 12 26 21
  -1421602.44208  -1107741.94008  21134230.70608  21134232.45508
   1313523.82408   1023525.05908  21955026.63908  21955027.81308
  -2957858.33208  -2304822.59707  24311508.69208  24311511.79707
  -1517487.82708  -1182457.42008  23975837.05608  23975839.43408
   -480451.78909   -374378.07908  20623168.06009  20623169.84508
   1950412.54208   1519799.31808  24145664.19308  24145667.10708
   1506204.27508   1173664.32407  24578662.51308  24578665.93707
 93 07 04 18 30 00.0000000  0  7 13 07 20 12 01 26 21
  -1507876.24808  -1174968.28608  21117813.38708  21117815.09708
   1418989.17008   1105705.80408  21975096.09708  21975097.31808
  -3170319.14408  -2470376.39908  24271078.70408  24271082.02008
   -526770.70109   -410470.73508  20614353.85709  20614355.66808
  -1679738.24308  -1308886.26008  23944961.84808  23944964.28308
   2168853.28508   1690012.59608  24187232.26308  24187235.21508
   1641368.90208   1278987.27708  24604383.39308  24604387.18708
 93 07 04 18 31 00.0000000  0  7 13 07 20 01 12 26 21
  -1591605.50408  -1240211.86508  21101880.22808  21101881.92408
   1526391.26208   1189395.70308  21995534.07008  21995535.35008
  -3382448.17008  -2635671.62908  24230711.82708  24230715.09308
  -1840503.48808  -1434157.81908  23914369.17208  23914371.64908
   -571595.20409   -445398.91708  20605824.03509  20605825.85608
   2387706.29008   1860547.11608  24228878.69008  24228881.92908
   1778010.03408   1385460.79208  24630385.70408  24630389.21108
 93 07 04 18 32 00.0000000  0  7 13 07 20 12 01 26 21
  -1672765.83608  -1303453.68008  21086435.91908  21086437.67008
   1635706.74408   1274576.55108  22016336.09708  22016337.32508
  -3594221.71308  -2800689.87008  24190412.64008  24190415.82208
   -614905.49309   -479147.19108  20597582.34709  20597584.18608
  -1999813.10208  -1558295.11908  23884053.57708  23884055.90108
   2606914.58608   2031358.47108  24270592.96408  24270596.24108
   1916116.13608   1493075.80607  24656666.34508  24656669.97907
 93 07 04 18 33 00.0000000  0  7 13 07 20 01 12 26 21
  -1751328.37908  -1364671.24508  21071486.00508  21071487.72108
   1746850.52408   1361182.04908  22037486.16508  22037487.42008
  -3805613.51808  -2965410.62208  24150185.95408  24150189.21008
  -2157705.89808  -1681328.40608  23854007.59608  23854009.92608
   -656679.64209   -511698.47508  20589633.01609  20589634.79908
   2826439.55808   2202416.56508  24312367.28208  24312370.84608
   2055689.45408   1601834.17407  24683226.41408  24683229.60507
 93 07 04 18 34 00.0000000  0  7 13 07 12 20 01 26 21
  -1827232.46808  -1423817.28508  21057041.88008  21057043.63208
   1859887.38608   1449262.67708  22058996.41608  22058997.59608
   -696862.13309   -543009.50808  20581986.56209  20581988.34208
  -4016564.43508  -3129787.82608  24110043.23708  24110046.44908
  -2314101.77608  -1803195.25608  23824246.33108  23824248.70708
   3046289.87308   2373728.17208  24354203.82608  24354207.28408
   2196852.71607   1711831.27907  24710088.96007  24710092.76307
 93 07 04 18 35 00.0000000  0  7 13 07 20 01 12 26 21
  -1900442.88208  -1480864.35708  21043110.40008  21043112.15308
   1974918.33308   1538897.13608  22080886.01108  22080887.21308
  -4227038.54908  -3293793.51108  24069991.26008  24069994.56108
  -2468910.88008  -1923825.65108  23794787.09308  23794789.44808
   -735421.25309   -573055.57808  20574649.01809  20574650.78808
   3266429.23408   2545265.00708  24396095.18408  24396098.64008
   2339654.01907   1823104.91607  24737263.08907  24737266.96807
 93 07 04 18 36 00.0000000  0  7 13 07 20 12 01 26 21
  -1971019.99808  -1535859.50808  21029680.03308  21029681.80208
   2091869.47008   1630027.84908  22103141.14008  22103142.24808
  -4437096.57208  -3457474.96908  24030018.51508  24030021.69008
   -772422.26509   -601887.53608  20567607.96709  20567609.71408
  -2622217.67708  -2043285.40808  23765613.72208  23765615.97808
   3486783.52908   2716969.32508  24438027.48008  24438031.03808
   2483923.72008   1935522.69008  24764717.08108  24764720.77308
 93 07 04 18 37 00.0000000  0  7 13 07 20 01 12 26 21
  -2039017.78908  -1588844.79508  21016740.48608  21016742.24008
   2210636.01508   1722573.16408  22125741.85308  22125742.97608
  -4646792.86908  -3620874.58808  23990114.39508  23990117.67308
  -2774040.55208  -2161588.85908  23736722.72108  23736725.01208
   -807922.74109   -629550.24508  20560852.43709  20560854.21108
   3707326.73608   2888820.85008  24479995.68508  24479999.26908
   2629461.38208   2048928.56608  24792412.04208  24792415.89808
 93 07 04 18 38 00.0000000  0  7 13 07 20 12 01 26 21
  -2104344.70109  -1639748.87808  21004309.19609  21004310.93808
   2331273.44908   1816576.31308  22148698.51308  22148699.64808
  -4856033.78508  -3783919.36908  23950297.20908  23950300.28508
   -841834.19109   -655974.75008  20554399.30709  20554401.08108
  -2924194.90908  -2278592.16508  23708149.18308  23708151.47908
   3928161.54007   3060899.58007  24522019.22507  24522023.09007
   2776333.96707   2163374.60507  24820361.14407  24820364.87607
 93 07 04 18 39 00.0000000  0  6 13 07 20 01 26 12
  -2166438.72108  -1688133.82108  20992493.08808  20992494.83908
   2454240.56108   1912394.79408  22172098.37308  22172099.51508
  -5064256.66708  -3946170.88108  23910673.74908  23910676.76908
  -3072058.84408  -2393810.73508  23680011.56108  23680013.76008
   4149765.27107   3233577.44907  24564189.20707  24564193.01307
   -873598.67009   -680726.29208  20548354.71809  20548356.53508
 93 07 04 18 40 00.0000000  0  6 07 20 01 12 26 13
   2579757.88608   2010200.44908  22195983.45608  22195984.66108
  -5271194.14508  -4107420.76908  23871294.69208  23871297.80208
  -3217361.51908  -2507033.52708  23652361.39208  23652363.57408
   -902952.94809   -703599.75908  20542768.81009  20542770.58908
   4372323.59607   3406999.16508  24606541.08407  24606545.20908
  -2225035.47408  -1733793.62008  20981342.47908  20981344.25208
 93 07 04 18 41 00.0000000  0  6 07 20 01 26 12 13
   2706092.12908   2108642.66508  22220024.16908  22220025.44008
  -5478684.31608  -4269101.32308  23831810.52508  23831813.60008
  -3361990.38108  -2619731.27308  23624839.36008  23624841.57008
   4594092.57008   3579805.76108  24648742.73708  24648746.79208
   -931739.55909   -726030.88608  20537290.89609  20537292.70308
  -2281974.63108  -1778161.78708  20970507.32608  20970509.08908
 93 07 04 18 42 00.0000000  0  6 07 20 01 26 12 13
   2834048.44208   2208348.82608  22244373.42408  22244374.72608
  -5685977.36608  -4430628.28408  23792364.03408  23792366.98908
  -3505296.75408  -2731398.52008  23597569.03208  23597571.21108
   4815821.37808   3752581.05608  24690936.63408  24690940.79208
   -959213.93609   -747439.49208  20532062.67009  20532064.52708
  -2336511.07008  -1820657.70608  20960129.38608  20960131.14008
 93 07 04 18 43 00.0000000  0  7 07 20 01 12 26 21 13
   2963643.49008   2309331.92208  22269034.58808  22269035.89908
  -5892983.88708  -4591931.97908  23752971.87208  23752974.86608
  -3647225.61608  -2841992.38308  23570560.77108  23570563.03008
   -985290.75109   -767759.08908  20527100.43009  20527102.27408
   5037535.86108   3925345.20108  24733127.86608  24733132.04608
        -0.08417        -0.39917  24964326.24717  24964330.20617
  -2388555.78508  -1861212.02308  20950225.59508  20950227.35008
 93 07 04 18 44 00.0000000  0  6 07 20 01 12 26 13
   3095053.97708   2411729.64708  22294041.21008  22294042.50508
  -6099375.87908  -4752756.79708  23713696.60608  23713699.71808
  -3787380.76708  -2951204.13808  23543890.20608  23543892.36908
  -1009646.97409   -786737.96508  20522465.63609  20522467.43108
   5259480.92708   4098289.05008  24775362.81208  24775367.21808
  -2437785.64408  -1899572.94408  20940857.42108  20940859.26108
 93 07 04 18 45 00.0000000  0  7 07 20 01 12 26 21 13
   3228290.12608   2515549.96608  22319395.25008  22319396.56908
  -6305038.57008  -4913013.32608  23674560.19508  23674563.32108
  -3925606.00108  -3058912.05408  23517586.77108  23517588.80408
  -1032173.46609   -804291.07908  20518179.01309  20518180.77708
   5481706.50907   4271451.40508  24817651.17907  24817655.65608
         0.44217        -0.36017  25023428.15017  25023432.19317
  -2484090.13208  -1935654.35408  20932045.97808  20932047.77708
 93 07 04 18 46 00.0000000  0  7 07 20 01 26 12 21 13
   3363257.89708   2620719.60208  22345078.83308  22345080.16908
  -6510063.67208  -5072773.02508  23635545.20408  23635548.20408
  -4062032.52308  -3165218.38008  23491625.62108  23491627.75608
   5704049.84007   4444705.54407  24859961.87607  24859966.60307
  -1052966.29909   -820493.28908  20514222.27809  20514224.05908
    157424.26008    122667.42706  25053385.21908  25053388.85706
  -2527566.23108  -1969531.82808  20923772.70908  20923774.50508
 93 07 04 18 47 00.0000000  0  6 07 20 01 21 12 13
   3500050.59308   2727311.25408  22371109.68208  22371111.08508
  -6714436.46708  -5232024.43908  23596654.28608  23596657.28408
  -4196624.19508  -3270094.95008  23466013.57408  23466015.69608
    316161.83008    246359.05906  25083592.08408  25083595.14506
  -1072015.75009   -835337.01708  20510597.27509  20510599.06908
  -2568203.23008  -2001197.01508  20916039.76308  20916041.53008
 93 07 04 18 48 00.0000000  0  5 07 20 01 12 13
   3638737.58008   2835378.98108  22397501.02708  22397502.40508
  -6918132.39608  -5390748.41208  23557892.17908  23557895.10308
  -4329292.41508  -3373472.72408  23440767.58108  23440769.70308
  -1089303.40909   -848807.92008  20507307.56909  20507309.33908
  -2605983.81808  -2030636.42508  20908850.37308  20908852.16908
 93 07 04 18 49 00.0000000  0  7 07 20 01 26 24 12 13
   3780367.19608   2945739.66608  22424452.34208  22424453.68908
  -7119987.33908  -5548037.86108  23519480.30908  23519483.26208
  -4458821.52808  -3474404.44008  23416119.03108  23416121.03908
        -0.74318        -0.08117  24987281.28018  24987286.04417
        -0.32417        -0.50917  25391999.34617  25392004.62217
  -1103669.81209   -860002.52008  20504573.72009  20504575.52908
  -2639749.56108  -2056947.38808  20902424.96408  20902426.74408
 93 07 04 18 50 00.0000000  0  7 07 20 01 26 24 12 13
   3923905.61608   3057587.72808  22451766.80908  22451768.18308
  -7320955.67908  -5704636.47508  23481237.36408  23481240.04208
  -4586212.51408  -3573670.09108  23391877.33008  23391879.30308
    224277.05008    174761.45207  25029960.33308  25029965.05507
   -204385.54107   -159261.69407  25353106.06007  25353111.29507
  -1116075.37409   -869669.19608  20502213.05509  20502214.84008
  -2670462.01408  -2080879.16908  20896580.58808  20896582.32608
 93 07 04 18 51 00.0000000  0  7 07 20 01 12 26 24 13
   4067871.79708   3169769.10608  22479162.62108  22479164.05308
  -7522514.80508  -5861695.44608  23442881.77108  23442884.47308
  -4712972.00808  -3672443.66908  23367755.77808  23367757.80208
  -1128002.61209   -878963.15108  20499943.40309  20499945.16708
    447373.39208    348602.35908  25072414.48008  25072419.37708
   -409977.63007   -319463.23507  25313983.17907  25313988.47907
  -2699605.51509  -2103588.39008  20891034.79809  20891036.55808
 93 07 04 18 52 00.0000000  0  7 07 20 01 26 12 24 13
   4213141.16108   3282965.95108  22506806.57908  22506807.99808
  -7723844.19508  -6018575.38908  23404570.02808  23404572.75708
  -4838238.06608  -3770053.53408  23343918.36508  23343920.41008
    670104.82707    522158.88408  25114798.91107  25114804.26308
  -1138636.49109   -887249.29608  20497919.85509  20497921.60208
   -615882.75007   -479908.69607  25274800.73307  25274805.86707
  -2726367.04809  -2124441.53408  20885942.24609  20885944.03608
 93 07 04 18 53 00.0000000  0  7 20 01 07 12 26 24 13
  -7924532.17008  -6174955.52508  23366380.24808  23366383.03908
  -4961532.64308  -3866127.18908  23320456.16108  23320458.25108
   4360151.82308   3397519.64808  22534781.74108  22534783.19908
  -1147571.50509   -894211.65008  20496219.54909  20496221.33908
    892853.60407    695728.88508  25157186.75307  25157192.36108
   -821688.74807   -640276.88807  25235637.06307  25235642.05507
  -2750344.00409  -2143124.87808  20881379.60709  20881381.37908
 93 07 04 18 54 00.0000000  0  6 20 01 07 24 12 13
  -8124672.34408  -6330908.78808  23328294.75308  23328297.53208
  -5082980.22708  -3960761.64508  23297345.50608  23297347.51608
   4508716.48008   3513284.24708  22563052.76608  22563054.22008
  -1027507.12607   -800654.72307  25196471.00707  25196475.91007
  -1154906.78409   -899927.46008  20494823.66609  20494825.51408
  -2771637.69409  -2159717.36208  20877327.56009  20877329.33908
 93 07 04 18 55 00.0000000  0  6 20 01 07 24 12 13
  -8324091.55308  -6486300.27508  23290346.42508  23290349.20708
  -5202448.54508  -4053853.81508  23274611.41208  23274613.49308
   4658875.34408   3630291.08308  22591627.02208  22591628.50508
  -1233093.53107   -960851.77407  25157349.01907  25157354.02507
  -1160475.01709   -904266.35108  20493764.07809  20493765.91108
  -2790083.85409  -2174090.99308  20873817.35909  20873819.15508
 93 07 04 18 56 00.0000000  0  7 20 01 07 26 12 24 13
  -8522807.85408  -6641144.03308  23252531.89908  23252534.67708
  -5319927.87108  -4145396.11108  23252255.75508  23252257.84508
   4810530.31408   3748463.71808  22620486.12608  22620487.60708
        -0.30917         0.26417  25284304.94617  25284310.20417
  -1164300.48509   -907247.23908  20493036.13509  20493037.95808
  -1438455.97607  -1120874.28107  25118269.66707  25118274.64707
  -2805710.56509  -2186267.64908  20870843.69609  20870845.45608
 93 07 04 18 57 00.0000000  0  7 20 01 07 26 12 24 13
  -8720817.14808  -6795436.87708  23214851.93508  23214854.66408
  -5435374.34308  -4235354.36208  23230287.09208  23230289.10408
   4963690.60808   3867809.32908  22649631.57408  22649633.10008
    222556.45508    173420.85606  25326656.39108  25326661.43406
  -1166385.01709   -908871.54908  20492639.45909  20492641.31308
  -1643663.94107  -1280776.45207  25079219.84207  25079224.79707
  -2818522.68909  -2196251.11608  20868405.65809  20868407.40408
 93 07 04 18 58 00.0000000  0  7 20 01 12 07 26 24 13
  -8918075.94708  -6949144.94408  23177314.74508  23177317.45508
  -5548715.94108  -4323672.44908  23208718.80008  23208720.82308
  -1166691.94409   -909110.71308  20492581.06909  20492582.90408
   5118466.42208   3988413.79308  22679084.54708  22679086.02108
    445093.37108    346826.03006  25369003.97508  25369009.44706
  -1848720.30507  -1440560.42407  25040198.83807  25040203.66107
  -2828488.14509  -2204016.39708  20866509.28309  20866511.04608
 93 07 04 18 59 00.0000000  0  7 20 01 07 12 26 24 13
  -9114547.16508  -7102239.31008  23139927.54908  23139930.15308
  -5659955.21508  -4410352.35008  23187550.63508  23187552.64808
   5274944.29608   4110344.53008  22708861.29108  22708862.83008
  -1165190.20809   -907940.52608  20492866.84809  20492868.69708
    667618.60407    520222.08107  25411349.24307  25411354.89007
  -2053517.59808  -1600142.56807  25001227.01708  25001231.93007
  -2835581.20609  -2209543.45108  20865159.51209  20865161.29208
 93 07 04 19 00 00.0000000  0  7 20 01 07 26 12 24 13
  -9310374.84208  -7254832.21108  23102662.71208  23102665.28108
  -5769221.61608  -4495494.94908  23166757.99608  23166759.88108
   5432997.03308   4233502.43408  22738937.85708  22738939.40508
    889938.84907    693458.38607  25453655.61607  25453661.38807
  -1162030.74109   -905478.60108  20493468.09109  20493469.91608
  -2258155.81208  -1759600.74108  24962285.60408  24962290.51308
  -2839958.49409  -2212954.31608  20864326.54109  20864328.30908
 93 07 04 19 01 00.0000000  0  7 20 01 07 26 12 24 13
  -9505451.07108  -7406839.56108  23065540.71608  23065543.39008
  -5876438.70408  -4579040.69308  23146355.19308  23146357.11308
   5592634.99808   4357895.57708  22769316.02908  22769317.59608
   1112038.28506    866522.58407  25495919.65006  25495925.85907
  -1157112.27409   -901646.02608  20494404.04809  20494405.87008
  -2462511.38708  -1918838.65508  24923397.91508  24923402.79708
  -2841523.68609  -2214173.94208  20864028.73209  20864030.45108
 93 07 04 19 02 00.0000000  0  6 20 01 07 24 12 13
  -9699733.48808  -7558228.36708  23028570.11908  23028572.55708
  -5981614.65208  -4660995.94408  23126340.84708  23126342.80908
   5753750.27208   4483439.87608  22799975.28508  22799976.79108
  -2666520.91808  -2077806.92308  24884575.98008  24884580.88008
  -1150398.51809   -896414.52608  20495681.62709  20495683.44808
  -2840246.78109  -2213178.94608  20864271.71809  20864273.48308
 93 07 04 19 03 00.0000000  0  6 20 01 07 24 12 13
  -9893296.61508  -7709056.68808  22991736.16108  22991738.62208
  -6084832.66808  -4741425.53008  23106699.00808  23106701.01708
   5916219.83808   4610039.47108  22830892.26508  22830893.86408
  -2870243.20208  -2236551.36207  24845808.89208  24845813.46207
  -1141971.49009   -889848.00908  20497285.22609  20497287.07608
  -2836215.09009  -2210037.36808  20865038.90909  20865040.66608
 93 07 04 19 04 00.0000000  0  6 20 01 07 24 12 13
 -10086133.30008  -7859318.92408  22955040.45908  22955043.00208
  -6186041.24008  -4820289.32208  23087439.65008  23087441.57108
   6080103.68808   4737741.10008  22862078.31908  22862079.97008
  -3073713.79407  -2395099.69307  24807089.41907  24807093.97407
  -1131830.66209   -881946.06408  20499214.94109  20499216.80408
  -2829433.78609  -2204753.23908  20866329.34409  20866331.10708
 93 07 04 19 05 00.0000000  0  6 20 01 07 24 12 13
 -10278137.37708  -8008932.35408  22918503.22708  22918505.69908
  -6285100.04708  -4897477.97408  23068589.37008  23068591.30908
   6245469.32908   4866597.36908  22893546.45708  22893548.06808
  -3276766.30108  -2553322.26807  24768449.65508  24768454.20907
  -1119877.15009   -872631.63908  20501489.61609  20501491.52508
  -2819811.58309  -2197255.42408  20868160.41409  20868162.19508
 93 07 04 19 06 00.0000000  0  6 20 01 07 24 12 13
 -10469316.99408  -8157903.37308  22882122.79508  22882125.30808
  -6382000.97708  -4972985.15908  23050149.72208  23050151.70208
   6412225.62508   4996537.26308  22925279.14408  22925280.85508
  -3479302.69308  -2711142.70307  24729908.39008  24729912.65907
  -1106126.33809   -861916.72008  20504106.30209  20504108.21008
  -2807371.30708  -2187561.70808  20870527.70008  20870529.49208
 93 07 04 19 07 00.0000000  0  6 20 01 07 24 12 13
 -10659761.41508  -8306301.51508  22845882.36108  22845884.88708
  -6476778.55208  -5046837.78008  23032114.06908  23032116.10208
   6580242.50208   5127459.42508  22957251.77208  22957253.49808
  -3681394.70808  -2868616.84708  24691451.50508  24691455.82508
  -1090674.51609   -849876.34008  20507046.74409  20507048.56908
  -2792216.27708  -2175752.60208  20873411.61008  20873413.41308
 93 07 04 19 08 00.0000000  0  6 20 01 07 24 12 13
 -10849394.24408  -8454067.26708  22809796.44308  22809798.86808
  -6569275.05608  -5118912.94308  23014512.58308  23014514.63708
   6749651.72908   5259466.53208  22989489.36308  22989491.04708
  -3883045.02308  -3025746.77008  24653078.46408  24653082.92508
  -1073452.90809   -836456.90608  20510323.92409  20510325.73808
  -2774285.41308  -2161780.50808  20876823.78008  20876825.50808
 93 07 04 19 09 00.0000000  0  6 20 01 07 24 12 13
 -11038198.04408  -8601187.02108  22773868.18008  22773870.61508
  -6659525.19308  -5189237.69308  22997338.57908  22997340.55408
   6920553.29408   5392636.50608  23022010.87808  23022012.54008
  -4084273.23108  -3182547.73008  24614785.82808  24614790.26208
  -1054451.77409   -821650.83108  20513939.72109  20513941.56408
  -2753577.73308  -2145644.66708  20880764.34208  20880766.08108
 93 07 04 19 10 00.0000000  0  6 20 01 07 24 12 13
 -11226324.41608  -8747778.89308  22738068.89508  22738071.26708
  -6747755.82108  -5257988.79708  22980548.82408  22980550.79808
   7092750.44308   5526816.02508  23054779.02308  23054780.70908
  -4285224.11208  -3339132.54808  24576545.97708  24576550.36108
  -1033830.93009   -805582.64808  20517863.72609  20517865.59708
  -2730262.86008  -2127477.24808  20885201.01008  20885202.80708
 93 07 04 19 11 00.0000000  0  6 20 01 07 24 12 13
 -11413667.38308  -8893760.30908  22702418.56808  22702420.97508
  -6833926.14908  -5325134.48008  22964151.09808  22964153.03808
   7266226.28208   5661991.92208  23087790.36108  23087792.11108
  -4485728.60808  -3495369.50508  24538390.93508  24538395.26908
  -1011492.05209   -788175.73808  20522114.67709  20522116.55908
  -2704250.33308  -2107207.75708  20890151.01908  20890152.82008
 93 07 04 19 12 00.0000000  0  6 20 01 07 24 12 13
 -11600197.30608  -9039108.17908  22666923.00208  22666925.40908
  -6917982.66708  -5390633.03608  22948155.68808  22948157.63908
   7440877.90008   5798084.00408  23121025.67008  23121027.41408
  -4685731.16908  -3651215.35308  24500331.41108  24500335.64408
   -987414.02109   -769413.64208  20526696.58709  20526698.46008
  -2675526.97908  -2084825.93708  20895616.93008  20895618.67908
 93 07 04 19 13 00.0000000  0  6 20 01 07 24 12 13
 -11785869.41408  -9183787.61908  22631590.74508  22631593.05908
  -6999798.26008  -5454385.42708  22932586.67808  22932588.59508
   7616727.14408   5935109.29208  23154488.69008  23154490.50908
  -4885186.21808  -3806634.60208  24462376.28608  24462380.28808
   -961559.91709   -749267.59408  20531616.45609  20531618.34308
  -2644066.01008  -2060310.90808  20901603.79908  20901605.55908
 93 07 04 19 14 00.0000000  0  6 20 01 07 24 12 13
 -11970652.73608  -9327774.50008  22596427.52008  22596429.89108
  -7079333.62908  -5516361.02408  22917451.60008  22917453.50808
   7793767.79508   6073062.94508  23188178.53308  23188180.38708
  -5084047.44108  -3961591.15608  24424534.12308  24424538.08408
   -933907.18509   -727720.01908  20536878.58309  20536880.52308
  -2609854.13008  -2033652.31108  20908114.11108  20908115.86108
 93 07 04 19 15 00.0000000  0  6 20 01 07 24 12 13
 -12154572.75108  -9471088.67308  22561428.68408  22561430.92408
  -7156655.22508  -5576611.61008  22902737.81608  22902739.74208
   7972033.12708   6211970.89608  23222101.34808  23222103.13208
  -5282242.44508  -4116028.60508  24386818.71808  24386822.54808
   -904488.69209   -704796.52708  20542476.73009  20542478.66508
  -2572935.63008  -2004884.65808  20915139.47408  20915141.27508
 93 07 04 19 16 00.0000000  0  6 20 01 07 24 12 13
 -12337503.27608  -9613631.83008  22526618.01208  22526620.23208
  -7231665.00108  -5635060.77308  22888463.94108  22888465.91508
   8151693.80908   6351966.14108  23256289.76408  23256291.56508
  -5479572.68808  -4269792.21808  24349267.78708  24349271.73608
   -873187.47309   -680405.97108  20548433.18409  20548435.09408
  -2533203.76108  -1973924.76708  20922700.22408  20922702.00408
 93 07 04 19 17 00.0000000  0  6 20 01 07 24 12 13
 -12519613.87708  -9755536.09508  22491963.49408  22491965.63308
  -7304556.47208  -5691859.30708  22874593.17008  22874595.01608
   8332518.67508   6492868.54308  23290699.56808  23290701.37408
  -5676329.44908  -4423108.95808  24311826.13208  24311829.99908
   -840181.60109   -654687.11508  20554714.01809  20554715.91308
  -2490846.82408  -1940919.36508  20930760.46108  20930762.24308
 93 07 04 19 18 00.0000000  0  6 20 01 07 24 12 13
 -12700936.72108  -9896826.50908  22457458.77008  22457460.95908
  -7375375.77008  -5747043.16808  22861116.64908  22861118.55608
   8514404.85508   6634597.93208  23325311.33308  23325313.30608
  -5872664.52208  -4576097.13208  24274464.60708  24274468.52708
   -805512.70409   -627672.39408  20561311.30409  20561313.20508
  -2445917.87508  -1905909.79708  20939310.13408  20939311.92008
 93 07 04 19 19 00.0000000  0  6 20 01 07 24 12 13
 -12881347.38208 -10037406.12708  22423127.65308  22423129.88608
  -7443923.62108  -5800457.06808  22848072.39708  22848074.37808
   8697459.66708   6777237.93408  23360145.57708  23360147.54808
  -6068417.40008  -4728631.67608  24237213.92108  24237217.88508
   -769064.85909   -599271.48108  20568247.10209  20568249.00908
  -2398311.20208  -1868813.69208  20948369.43008  20948371.18908
 93 07 04 19 20 00.0000000  0  6 20 01 07 24 12 13
 -13060864.12908 -10177289.17908  22388966.73508  22388968.83008
  -7510159.72608  -5852069.61308  22835468.14808  22835470.05908
   8881612.66908   6920733.67208  23395188.85808  23395190.90308
  -6263408.25708  -4880572.45808  24200108.27708  24200112.29608
   -730865.85209   -569506.02508  20575516.12209  20575518.04808
  -2348066.51708  -1829661.99508  20957930.72508  20957932.45308
 93 07 04 19 21 00.0000000  0  6 20 01 07 24 12 13
 -13239552.47808 -10316526.73608  22354963.34908  22354965.46608
  -7574134.02108  -5901919.71308  22823294.21408  22823296.12208
   9066733.80808   7064983.79208  23430416.44708  23430418.49908
  -6457598.62108  -5031889.50508  24163155.02508  24163158.84408
   -690990.02709   -538433.96008  20583104.21509  20583106.16208
  -2295270.41308  -1788522.18008  20967977.49408  20967979.27208
 93 07 04 19 22 00.0000000  0  6 20 01 07 24 12 13
 -13417299.43608 -10455030.74808  22321139.13208  22321141.24508
  -7635786.64808  -5949960.72108  22811562.10908  22811564.06008
   9252946.22708   7210084.26208  23465851.65908  23465853.69208
  -6650957.80108  -5182558.88208  24126359.93208  24126363.66808
   -649333.89709   -505974.64408  20591031.09309  20591033.05908
  -2239832.10008  -1745323.50208  20978527.03408  20978528.80008
 93 07 04 19 23 00.0000000  0  6 13 20 01 07 24 12
  -2181812.71108  -1700113.60308  20989567.78108  20989569.58808
 -13594144.63308 -10592832.09108  22287486.55508  22287488.65008
  -7695160.51708  -5996226.06708  22800263.66608  22800265.58708
   9440239.27308   7356026.78108  23501492.39308  23501494.46708
  -6843658.78508  -5332715.35708  24089689.98808  24089693.63508
   -605947.22609   -472166.85908  20599287.30509  20599289.27608
 93 07 04 19 24 00.0000000  0  6 13 20 01 07 24 12
  -2121200.01608  -1652882.94808  21001102.03208  21001103.80408
 -13770054.24908 -10729904.41708  22254011.99208  22254013.95808
  -7752212.19008  -6040681.91308  22789407.15008  22789408.97408
   9628600.20508   7502801.39908  23537336.34008  23537338.46808
  -7035704.06608  -5482360.88708  24053144.86408  24053148.55408
   -560805.35209   -436991.38408  20607877.57309  20607879.51608
 93 07 04 19 25 00.0000000  0  6 13 20 01 07 24 12
  -2057967.80208  -1603611.10708  21013134.72708  21013136.54708
 -13944977.95208 -10866208.49308  22220725.06308  22220727.04508
  -7806933.70208  -6083322.04508  22778994.01208  22778995.87108
   9818004.08608   7650388.71508  23573378.84808  23573380.90008
  -7226978.96208  -5631406.07908  24016746.32708  24016750.01308
   -513868.10209   -400416.91608  20616809.45209  20616811.38808
 93 07 04 19 26 00.0000000  0  6 13 20 01 07 24 12
  -1992227.20208  -1552384.68408  21025644.73408  21025646.59008
 -14119005.93908 -11001814.62008  22187608.55008  22187610.51908
  -7859446.34908  -6124240.98808  22769001.14508  22769003.02908
  10008319.43108   7798686.25408  23609594.81008  23609596.93508
  -7417494.10308  -5779859.22908  23980492.44408  23980496.03608
   -465235.38909   -362521.30908  20626063.96709  20626065.91408
 93 07 04 19 27 00.0000000  0  6 13 20 01 07 24 12
  -1923865.25608  -1499115.64808  21038653.60708  21038655.47408
 -14292002.15608 -11136616.77608  22154688.44508  22154690.32908
  -7909604.26508  -6163325.08308  22759456.37008  22759458.26808
  10199643.50008   7947769.81708  23646002.66108  23646004.83608
  -7607073.63308  -5927583.30208  23944416.47708  23944420.01008
   -414781.39709   -323206.52108  20635665.05309  20635667.01108
 93 07 04 19 28 00.0000000  0  6 13 20 01 07 24 12
  -1852720.82808  -1443678.44208  21052191.97408  21052193.81708
 -14463780.05208 -11270469.59008  22122000.08608  22122001.98108
  -7957192.36808  -6200406.72208  22750400.60808  22750402.55308
  10392177.65208   8097796.29908  23682640.72808  23682643.04608
  -7795460.23308  -6074377.81408  23908567.57208  23908570.95308
   -362330.13609   -282335.42208  20645646.21709  20645648.18508
 93 07 04 19 29 00.0000000  0  6 13 20 01 07 24 12
  -1779105.64508  -1386315.97508  21066200.48908  21066202.35708
 -14634627.22308 -11403597.16808  22089488.87908  22089490.83108
  -8002527.43708  -6235732.74008  22741773.60208  22741775.54108
  10585687.59908   8248583.15308  23719464.58008  23719466.80608
  -7982864.90708  -6220407.19308  23872905.46008  23872908.81108
   -308179.53309   -240140.15908  20655950.76209  20655952.73208
 93 07 04 19 30 00.0000000  0  6 13 20 01 07 24 12
  -1703811.97408  -1327645.59508  21080528.38608  21080530.25808
 -14805310.94008 -11536597.37808  22057008.81308  22057010.67708
  -8046391.66008  -6269912.63808  22733426.57608  22733428.51908
  10779353.19108   8399491.28108  23756317.95208  23756320.20708
  -8170085.21608  -6366292.91008  23837278.39808  23837281.71408
   -253107.37009   -197226.79408  20666430.64609  20666432.63508
 93 07 04 19 31 00.0000000  0  6 13 20 01 07 24 12
  -1626422.04208  -1267341.76908  21095255.22608  21095257.10808
 -14975390.08408 -11669126.49808  22024643.76908  22024645.61508
  -8088298.64908  -6302567.42808  22725452.01308  22725453.85308
  10973464.91508   8550747.02508  23793256.33208  23793258.66108
  -8356752.66708  -6511747.84708  23801756.59408  23801759.88308
   -196683.29009   -153259.99108  20677167.80609  20677169.78408
 93 07 04 19 32 00.0000000  0  6 13 20 01 07 24 12
  -1545666.79208  -1204415.62008  21110622.47308  21110624.34408
 -15143570.01908 -11800175.71708  21992640.10108  21992641.92508
  -8126930.10308  -6332669.85208  22718100.67508  22718102.55708
  11169224.95608   8703287.17308  23830508.24408  23830510.62108
  -8541642.64608  -6655817.74508  23766573.00908  23766576.30808
   -137623.07009   -107239.05308  20688406.63809  20688408.58208
 93 07 04 19 33 00.0000000  0  6 13 20 01 07 24 12
  -1462163.09108  -1139347.82608  21126512.73208  21126514.60708
 -15310442.20808 -11930205.91508  21960885.34108  21960887.15708
  -8162906.34008  -6360703.28208  22711254.59408  22711256.57708
  11366117.70408   8856709.94408  23867975.96408  23867978.31308
  -8725343.41508  -6798961.00708  23731615.79308  23731619.02608
    -76529.76409    -59633.89408  20700032.32009  20700034.26108
 93 07 04 19 34 00.0000000  0  6 13 20 01 07 24 12
  -1376157.30808  -1072330.36208  21142879.09708  21142880.98908
 -15476225.90608 -12059387.93808  21929337.69208  21929339.51408
  -8196522.97608  -6386898.07008  22704857.55208  22704859.51208
  11563980.21708   9010888.37708  23905628.20508  23905630.49108
  -8908034.10608  -6941317.20908  23696850.77908  23696854.00408
    -13634.21909    -10624.39808  20712000.97709  20712002.93408
 93 07 04 19 35 00.0000000  0  6 20 01 07 24 13 12
 -15641030.31808 -12187806.89008  21897976.42408  21897978.19708
  -8227908.82608  -6411354.58408  22698885.05408  22698887.03308
  11762653.50908   9165698.60808  23943434.36308  23943436.88308
  -9089739.29308  -7082905.49608  23662273.32208  23662276.51408
  -1287783.74008  -1003467.87308  21159696.09408  21159697.98408
     50942.93209     39695.44008  20724289.61709  20724291.58908
 93 07 04 19 36 00.0000000  0  6 20 01 07 24 13 12
 -15804752.74108 -12315382.73408  21866821.02408  21866822.84608
  -8256941.02508  -6433977.08208  22693360.38408  22693362.31808
  11962195.81408   9321185.96708  23981406.16408  23981408.59108
  -9270322.15408  -7223619.25408  23627909.43408  23627912.53808
  -1196966.42708   -932701.16708  21176978.08708  21176979.95908
    117293.34809     91397.04208  20736915.67109  20736917.69308
 93 07 04 19 37 00.0000000  0  6 20 01 07 24 13 12
 -15967455.15208 -12442163.77408  21835859.77308  21835861.52308
  -8283634.91208  -6454777.52208  22688280.78408  22688282.66908
  12162515.12808   9477278.79708  24019525.73708  24019528.39408
  -9449799.36708  -7363471.49008  23593755.93808  23593759.02508
  -1103793.56308   -860098.96608  21194708.25108  21194710.17508
    185343.74709    144423.30908  20749865.25809  20749867.26608
 93 07 04 19 38 00.0000000  0  7 20 01 07 24 14 13 12
 -16129137.29208 -12568149.80008  21805092.60408  21805094.38008
  -8308009.35908  -6473770.61308  22683642.51008  22683644.41408
  12363524.43408   9633909.25208  24057776.68908  24057779.39708
  -9628139.20008  -7502437.46908  23559818.97208  23559821.92208
         0.12218        -0.05718  25376980.33818  25376984.25918
  -1008293.11508   -785683.06608  21212881.41908  21212883.38908
    255082.06309    198764.83608  20763136.07909  20763138.06008
 93 07 04 19 39 00.0000000  0  7 20 01 07 14 24 13 12
 -16289819.13508 -12693356.36608  21774515.80908  21774517.60908
  -8330108.39508  -6490990.65408  22679437.20008  22679439.09808
  12565171.29808   9791036.50708  24096149.02608  24096151.72008
    -81396.07408    -63425.67108  25361491.24608  25361494.85908
  -9805381.54608  -7640548.27908  23526090.75608  23526093.73108
   -910511.91308   -709489.95508  21231488.61008  21231490.54708
    326476.73009    254397.02608  20776722.04309  20776724.01008
 93 07 04 19 40 00.0000000  0  7 20 01 07 24 14 13 12
 -16449375.74408 -12817686.12708  21744153.15408  21744154.88108
  -8349774.56808  -6506314.96208  22675694.91408  22675696.75908
  12767546.93008   9948731.64208  24134659.83008  24134662.60208
  -9981456.36808  -7777749.33808  23492584.79508  23492587.79008
   -160635.26408   -125170.46107  25346412.43908  25346416.05107
   -810351.65508   -631443.03808  21250548.54908  21250550.50108
    399640.51109    311407.74608  20790644.66609  20790646.64308
 93 07 04 19 41 00.0000000  0  7 20 01 07 14 24 12 13
 -16607763.68808 -12941105.24608  21714012.92308  21714014.67108
  -8366918.62908  -6519673.98508  22672432.47708  22672434.37308
  12970713.44708  10107043.07008  24173321.45108  24173323.87808
   -237682.47208   -185207.21107  25331750.65108  25331754.31007
 -10156355.84308  -7914034.55008  23459302.41008  23459305.40008
    474604.07009    369820.89308  20804909.78909  20804911.73608
   -707798.22608   -551531.31208  21270063.86808  21270065.78808
 93 07 04 19 45 00.0000000  0  1 07
        -0.82318        -0.56318  24330560.52018  24330563.20018
 93 07 04 19 46 00.0000000  0  3 20 13 07
        -0.41618        -0.68018  21568027.85218  21568029.52818
        -0.07418         0.15918  21375664.07518  21375666.01218
    207433.87808    161636.74108  24370034.17208  24370036.97408
 93 07 04 19 47 00.0000000  0  4 20 24 13 07
   -153303.95608   -119457.93008  21538855.12508  21538856.81408
        -0.71318        -0.14718  23265773.19218  23265775.95418
    114388.31008     89133.92208  21397431.52008  21397433.45808
    412797.93908    321660.48708  24409113.62208  24409116.57908
 93 07 04 19 48 00.0000000  0  7 20 24 01 14 13 07 12
   -305175.16608   -237799.07508  21509954.94608  21509956.61408
   -167310.45008   -130371.24208  23233935.06808  23233937.88708
         0.13518        -0.48118  22663032.68018  22663034.50518
         0.09618         0.39917  25240770.13718  25240773.49517
    231232.10708    180180.99108  21419666.20208  21419668.17508
    618996.46408    482334.56208  24448352.02308  24448354.91708
        -0.20419        -0.24318  20914853.40819  20914855.44318
 93 07 04 19 49 00.0000000  0  7 20 24 01 14 13 07 12
   -455613.53608   -355023.72608  21481327.46208  21481329.07608
   -332940.15408   -259433.21308  23202416.65908  23202419.51308
       533.77208       415.30308  22663134.19408  22663136.13308
    -61832.22908    -48180.51907  25229003.74308  25229006.97707
    350501.09308    273117.81708  21442362.32208  21442364.35208
    826010.36208    643643.88708  24487745.65108  24487748.51408
     87506.74809     68186.96008  20931505.43309  20931507.48508
 93 07 04 19 50 00.0000000  0  7 20 24 01 14 13 07 12
   -604544.33608   -471073.64308  21452986.87408  21452988.45508
   -496935.40408   -387221.58008  23171209.31408  23171212.11608
      3788.56908      2951.47208  22663753.64108  22663755.56708
   -121329.66108    -94542.06707  25217681.71308  25217685.00007
    472239.45408    367978.83108  21465528.45108  21465530.45908
   1033914.71408    805647.13108  24527308.60708  24527311.57908
    177035.50409    137949.59408  20948542.22109  20948544.26808
 93 07 04 19 51 00.0000000  0  6 20 24 01 13 14 12
   -751891.09408   -585889.24808  21424947.70108  21424949.23608
   -659276.33108   -513720.87008  23140316.77608  23140319.49208
      9769.34308      7611.77808  22664891.80308  22664893.70108
    596493.12008    464799.82108  21489173.21808  21489175.23808
   -178373.47008   -138991.69907  25206826.55108  25206830.02607
    268648.41409    209336.24108  20965975.61709  20965977.66908
 93 07 04 19 52 00.0000000  0  7 20 24 12 01 14 13 25
   -898006.10808   -699745.05508  21397142.90508  21397144.45908
   -820184.15608   -639103.45608  23109696.97708  23109699.63308
    361980.03409    282062.14208  20983736.08309  20983738.13508
     18051.84708     14065.63408  22666467.89608  22666469.90008
   -233245.09708   -181748.76707  25196384.79808  25196388.27307
    722881.48608    563284.21308  21513224.17108  21513226.24108
         0.00217         0.40017  25257356.89917  25257360.15817
 93 07 04 19 53 00.0000000  0  7 20 24 12 01 14 13 25
  -1042725.23708   -812513.17308  21369603.74208  21369605.27608
   -979361.74008   -763137.82508  23079406.37808  23079409.08508
    457180.33509    356244.14108  21001852.13109  21001854.20708
     28842.91108     22474.19108  22668521.44508  22668523.47408
   -285745.53908   -222658.20507  25186394.24408  25186397.80907
    851537.35708    663535.47508  21537706.58408  21537708.71108
   -226115.89907   -176193.81907  25214328.32507  25214331.59107
 93 07 04 19 54 00.0000000  0  7 20 24 12 01 14 13 25
  -1186502.89208   -924547.64708  21342243.74208  21342245.25108
  -1137259.39908   -886174.82108  23049359.23508  23049361.95708
    553780.71109    431517.13608  21020234.57809  21020236.67708
     41756.64408     32536.81608  22670978.86508  22670980.87508
   -336337.47708   -262080.49007  25176766.89908  25176770.50807
    981974.94108    765175.11908  21562528.05708  21562530.19008
   -452361.45607   -352488.97707  25171275.39307  25171278.42307
 93 07 04 19 55 00.0000000  0  7 20 24 12 01 14 13 25
  -1329486.54708  -1035963.43308  21315034.78008  21315036.32308
  -1294131.80708  -1008412.93408  23019507.38808  23019510.04408
    651619.95009    507755.46608  21038852.81309  21038854.87108
     56683.10008     44167.78908  22673819.29008  22673821.34508
   -385206.03708   -300159.91907  25167467.47008  25167471.04207
   1114016.73608    868064.78108  21587654.80108  21587656.93408
   -678840.26007   -528965.84607  25128177.92407  25128181.09507
 93 07 04 19 56 00.0000000  0  7 20 24 12 01 14 13 25
  -1470420.22208  -1145781.83008  21288215.95308  21288217.48608
  -1448712.17508  -1128865.04308  22990091.73408  22990094.30908
    751938.91709    585926.05408  21057942.93109  21057944.98908
     74776.25208     58266.32208  22677262.29408  22677264.37008
   -431122.64008   -335939.12507  25158729.89908  25158733.47907
   1248887.40308    973158.75908  21613319.89208  21613322.00108
   -904255.17408   -704613.71907  25085282.72908  25085285.82207
 93 07 04 19 57 00.0000000  0  7 20 24 12 01 14 13 25
  -1609696.87308  -1254309.04308  21261712.44608  21261713.95808
  -1601343.85508  -1247798.69608  22961046.81908  22961049.36908
    854329.75009    665711.07708  21077427.27609  21077429.37908
     95582.32408     74478.81808  22681221.71408  22681223.74008
   -474454.38408   -369704.18807  25150484.13908  25150487.85907
   1386162.12508   1080126.02108  21639442.48208  21639444.59808
  -1129002.77308   -879741.58107  25042514.64408  25042517.54607
 93 07 04 19 58 00.0000000  0  7 20 24 12 01 14 13 25
  -1747522.18108  -1361705.33808  21235485.12208  21235486.64508
  -1752230.52508  -1365372.60608  22932333.87508  22932336.38508
    958572.16809    746938.89208  21097263.97609  21097266.08008
    118862.73808     92619.36508  22685651.82808  22685653.86708
   -515377.28707   -401592.21707  25142696.73407  25142700.49107
   1525604.02408   1188781.99408  21665977.42708  21665979.51608
  -1353315.02508  -1054530.31707  24999829.32708  24999832.27907
 93 07 04 19 59 00.0000000  0  7 20 24 12 01 14 13 25
  -1884062.72908  -1468100.52208  21209502.29008  21209503.83808
  -1901501.97208  -1481687.90308  22903928.41108  22903930.90208
   1064484.69409    829468.08508  21117418.48209  21117420.61708
    144457.23908    112563.10008  22690522.23908  22690524.33208
   -554056.00907   -431731.51407  25135336.46807  25135340.15207
   1667013.93408   1298971.48008  21692886.87308  21692889.00108
  -1577347.09808  -1229100.63107  24957197.32008  24957200.26107
 93 07 04 20 00 00.0000000  0  7 20 24 12 01 14 13 25
  -2019363.01408  -1573529.27308  21183755.48008  21183757.01008
  -2049197.61808  -1596775.30908  22875822.74408  22875825.18508
   1172007.47309    913252.01808  21137879.44409  21137881.60908
    172341.62208    134291.14908  22695828.51908  22695830.57308
   -590554.06407   -460171.60807  25128391.28807  25128394.83707
   1810316.96108   1410636.12408  21720156.54308  21720158.70708
  -1801095.38608  -1403449.87907  24914619.43108  24914622.24507
 93 07 04 20 01 00.0000000  0  7 20 24 12 01 14 13 25
  -2153394.35708  -1677969.24208  21158250.12008  21158251.67408
  -2195310.91408  -1710629.71108  22848018.26208  22848020.74408
   1281154.80709    998301.83808  21158649.52809  21158651.71108
    202527.14708    157812.29608  22701572.67908  22701574.73408
   -624856.75608   -486901.00807  25121863.75808  25121867.26507
   1955510.21208   1523773.66808  21747785.94208  21747788.14708
  -2024476.24308  -1577512.79207  24872111.44008  24872114.14807
 93 07 04 20 02 00.0000000  0  7 20 24 12 01 14 13 25
  -2286118.68208  -1781390.75608  21132993.50808  21132995.01608
  -2339865.35408  -1823269.42308  22820510.32808  22820512.80008
   1391949.92109   1084635.63908  21179733.17309  21179735.35108
    235037.31408    183144.84208  22707759.19108  22707761.21108
   -657022.79808   -511965.48007  25115742.86308  25115746.20007
   2102600.23608   1638389.21608  21775776.27008  21775778.48408
  -2247397.46408  -1751217.51907  24829690.69308  24829693.65507
 93 07 04 20 03 00.0000000  0  7 20 24 12 01 14 13 25
  -2417553.70408  -1883807.60808  21107982.21908  21107983.74008
  -2482812.13308  -1934656.41208  22793308.43808  22793310.84908
   1504359.10409   1172227.16308  21201123.97309  21201126.16408
    269832.64408    210258.04008  22714380.58608  22714382.57308
   -687122.36408   -535419.67107  25110015.08008  25110018.49107
   2251537.04608   1754443.81908  21804118.06008  21804120.27508
  -2469926.93408  -1924616.95607  24787344.67108  24787347.51007
 93 07 04 20 04 00.0000000  0  7 20 24 12 01 14 13 25
  -2547691.36908  -1985213.53208  21083217.79208  21083219.29708
  -2624052.03408  -2044713.38008  22766431.28208  22766433.65208
   1618374.68109   1261070.42208  21222820.45509  21222822.67208
    306920.66308    239157.74608  22721438.22308  22721440.27908
   -715089.46908   -557212.15807  25104692.87208  25104696.63507
   2402296.60808   1871918.74708  21832806.70008  21832808.96008
  -2692171.27508  -2097794.26907  24745052.86708  24745055.62707
 93 07 04 20 05 00.0000000  0  7 20 24 12 01 14 13 25
  -2676408.06708  -2085512.21108  21058723.81008  21058725.27508
  -2763455.12608  -2153339.08508  22739903.70608  22739906.02508
   1734104.25309   1351249.25908  21244843.11709  21244845.31408
    346423.27808    269938.95308  22728955.42308  22728957.52608
   -740675.99008   -577149.63207  25099823.91708  25099827.59007
   2554969.60008   1990884.66208  21861859.47408  21861861.67508
  -2914029.10908  -2270670.36407  24702834.69508  24702837.40607
 93 07 04 20 06 00.0000000  0  7 20 24 12 01 14 13 25
  -2803747.37908  -2184737.60808  21034491.94108  21034493.38608
  -2901138.35408  -2260624.63308  22713703.40508  22713705.69308
   1851488.52609   1442717.47308  21267180.64609  21267182.85008
    388251.91508    302532.63408  22736915.28008  22736917.29908
   -763862.37108   -595216.86807  25095411.81808  25095415.11607
   2709479.96008   2111282.29608  21891261.87608  21891264.06608
  -3135481.63808  -2443230.63607  24660693.60008  24660696.38107
 93 07 04 20 07 00.0000000  0  7 20 24 12 01 14 13 25
  -2929748.57208  -2282920.32408  21010514.69308  21010516.12808
  -3037166.82708  -2366620.76808  22687818.02708  22687820.28408
   1970472.21609   1535431.98308  21289822.53109  21289824.75608
    432280.79708    336840.79308  22745293.65908  22745295.74208
   -784793.21907   -611526.53807  25091428.57007  25091432.17607
   2865757.35408   2233056.83408  21921000.53208  21921002.71208
  -3356538.20708  -2615482.38907  24618627.93708  24618630.43307
 93 07 04 20 08 00.0000000  0  7 24 12 01 14 13 25 20
  -3171376.49908  -2471199.65508  22662278.82408  22662280.97608
   2091076.92809   1629409.62808  21312772.92309  21312775.12108
    478532.69508    372881.17208  22754095.15608  22754097.21608
   -803528.87107   -626125.70807  25087863.20207  25087866.87107
   3023806.21908   2356211.73908  21951076.28108  21951078.50308
  -3577098.81608  -2787347.68608  24576656.47008  24576659.22008
  -3054374.71609  -2380031.57408  20986799.10709  20986800.53108
 93 07 04 20 09 00.0000000  0  7 24 12 01 14 13 25 20
  -3303620.33008  -2574246.72608  22637113.54508  22637115.69608
   2213332.21409   1724673.43408  21336037.37109  21336039.56508
    527137.52008    410755.00208  22763344.37808  22763346.52708
   -820021.75407   -638977.28407  25084724.66307  25084728.24907
   3183639.70608   2480757.25308  21981491.55608  21981493.90108
  -3797068.07608  -2958752.16408  24534797.69308  24534800.39708
  -3177580.26509  -2476035.86608  20963353.87409  20963355.31708
 93 07 04 20 10 00.0000000  0  7 24 12 01 14 13 25 20
  -3434029.78608  -2675864.41708  22612297.39808  22612299.60308
   2337178.77509   1821177.19108  21359604.65309  21359606.88508
    578076.05008    450447.29808  22773037.68008  22773039.82808
   -834287.54407   -650093.47907  25082010.08707  25082013.61407
   3345183.50008   2606635.46808  22012232.41508  22012234.68308
  -4016519.23808  -3129752.93808  24493037.27808  24493040.00308
  -3299407.35309  -2570966.03008  20940170.93709  20940172.35508
 93 07 04 20 11 00.0000000  0  7 24 12 01 14 13 25 20
  -3562666.44108  -2776100.70608  22587818.53408  22587820.74208
   2462586.25709   1918897.24808  21383468.93909  21383471.21008
    631272.83908    491899.27408  22783160.83608  22783162.97008
   -846350.77207   -659493.37807  25079714.36807  25079717.98307
   3508390.50808   2733809.69008  22043289.73708  22043292.05808
  -4235493.28008  -3300381.91808  24451367.77308  24451370.47308
  -3419869.75309  -2664832.80208  20917247.69609  20917249.06608
 93 07 04 20 12 00.0000000  0  7 24 12 01 14 13 25 20
  -3689462.36108  -2874902.65208  22563690.07908  22563692.29808
   2589581.97709   2017854.89308  21407635.44909  21407637.75808
    686693.07208    535083.80908  22793706.99308  22793709.12608
   -856211.01407   -667176.66807  25077838.05207  25077841.57407
   3673272.01108   2862288.71208  22074665.73208  22074668.04908
  -4453952.03908  -3470609.38608  24409796.49208  24409799.00508
  -3538923.74309  -2757602.11308  20894592.44409  20894593.82208
 93 07 04 20 13 00.0000000  0  7 24 12 01 14 13 20 25
  -3814413.63208  -2972267.21808  22539912.60708  22539914.75208
   2718136.24509   2118026.97708  21432098.59809  21432100.88108
    744267.63008    579947.02708  22804663.02108  22804665.31608
   -863864.89107   -673140.75607  25076381.67907  25076385.14307
   3839782.09108   2992036.74308  22106351.62308  22106353.95808
  -3656582.69509  -2849284.39008  20872202.66109  20872204.05608
  -4671931.87508  -3640463.68508  24368316.23508  24368318.71208
 93 07 04 20 14 00.0000000  0  7 24 12 01 14 13 25 20
  -3937027.70708  -3067810.58008  22516579.89908  22516582.01808
   2848766.33909   2219816.60208  21456956.72909  21456959.08508
    804478.99908    626864.91608  22816121.02108  22816123.21408
   -868748.41007   -676946.10807  25075452.32907  25075455.83807
   4008422.38808   3123444.69308  22138442.85408  22138445.18608
  -4888895.22508  -3809525.90908  24327029.24708  24327031.84308
  -3772312.24809  -2939463.22908  20850180.01609  20850181.40808
 93 07 04 20 15 00.0000000  0  7 24 12 01 14 13 20 25
  -4057829.58208  -3161941.84308  22493592.05808  22493594.13708
   2980913.72109   2322788.51808  21482103.58109  21482105.97208
    866811.80008    675435.85708  22827982.59108  22827984.80508
   -871366.65807   -678986.31607  25074954.35207  25074957.64207
   4178619.19108   3256065.49708  22170830.30408  22170832.62708
  -3886654.23809  -3028560.85308  20828421.44109  20828422.80408
  -5105335.11508  -3978180.21908  24285842.06608  24285844.61808
 93 07 04 20 16 00.0000000  0  7 12 24 01 14 13 25 20
   3114366.38709   2426777.53108  21507498.81909  21507501.26308
  -4176976.43208  -3254783.47608  22470919.04008  22470921.15208
    931149.50908    725569.06508  22840225.69708  22840227.97408
   -871934.14007   -679428.55007  25074846.10507  25074849.66507
   4350144.74508   3389721.69008  22203470.60208  22203472.99108
  -5321423.50908  -4146560.66708  24244721.87108  24244724.27808
  -3999803.60509  -3116729.16008  20806889.83809  20806891.18008
 93 07 04 20 17 00.0000000  0  7 24 12 01 14 13 20 25
  -4294276.19608  -3346185.82208  22448597.56308  22448599.73908
   3249289.82708   2531912.60208  21533173.97608  21533176.40708
    997743.51508    777460.42208  22852898.14308  22852900.50408
   -870309.49507   -678162.61207  25075155.33007  25075158.73507
   4523148.52208   3524529.74208  22236392.12908  22236394.66108
  -4111577.89009  -3203825.97408  20785619.89909  20785621.22908
  -5536971.09308  -4314519.69008  24203704.34708  24203706.79608
 93 07 04 20 18 00.0000000  0  7 12 24 01 14 13 25 20
   3385707.89208   2638212.31608  21559133.52108  21559135.98808
  -4409636.94008  -3436077.25308  22426645.11808  22426647.32308
   1066539.73408    831067.78608  22865989.73008  22865992.02208
   -866506.58207   -675199.32407  25075879.06407  25075882.20907
   4697640.04108   3660497.06708  22269596.81808  22269599.34408
  -5751857.10408  -4481963.19908  24162812.88108  24162815.12908
  -4221935.92309  -3289819.21808  20764619.43309  20764620.79008
 93 07 04 20 19 00.0000000  0  7 12 24 01 14 13 20 25
   3523674.77208   2745718.89608  21585387.82208  21585390.27408
  -4522919.78608  -3524349.54808  22405088.06008  22405090.14408
   1137394.75608    886279.41008  22879473.01408  22879475.36908
   -860447.70607   -670478.10807  25077032.30607  25077035.31607
   4873658.30908   3797654.07308  22303092.09708  22303094.56708
  -4330806.84509  -3374653.67808  20743901.94709  20743903.31408
  -5966014.35708  -4648838.85608  24122059.94108  24122062.19308
 93 07 04 20 20 00.0000000  0  7 12 24 01 14 13 25 20
   3663176.53508   2854421.49108  21611934.21108  21611936.66008
  -4634167.27308  -3611035.85308  22383918.35008  22383920.41508
   1210236.70908    943039.29308  22893334.45908  22893336.89108
   -852083.08707   -663960.20607  25078623.76807  25078627.00107
   5051172.93008   3935977.06608  22336872.05208  22336874.57508
  -6179508.35808  -4815197.68908  24081433.23808  24081435.61308
  -4438186.82309  -3458326.36308  20723468.17509  20723469.57908
 93 07 04 20 21 00.0000000  0  7 24 12 01 14 20 13 25
  -4743340.78908  -3696106.08108  22363143.23308  22363145.33708
   3804262.66808   2964358.65908  21638782.07008  21638784.56708
   1285234.71508   1001479.21308  22907606.09308  22907608.57708
   -841391.88307   -655629.39507  25080658.15707  25080661.71507
  -4544008.38209  -3540784.69108  20703330.99309  20703332.40208
   5230218.68108   4075493.14008  22370943.39808  22370946.01408
  -6392237.45208  -4980960.49108  24040952.24808  24040954.61408
 93 07 04 20 22 00.0000000  0  7 24 12 01 14 13 20 25
  -4850500.63408  -3779607.21508  22342751.40708  22342753.54508
   3946843.24508   3075460.32708  21665914.29708  21665916.82508
   1362447.36008   1061644.83208  22922299.27308  22922301.73008
   -828506.06607   -645588.49107  25083110.19407  25083114.07407
   5410691.41708   4216121.15108  22405286.29908  22405288.92708
  -4648344.33309  -3622085.39608  20683476.49009  20683477.91508
  -6604220.31008  -5146141.80808  24000612.99408  24000615.33508
 93 07 04 20 23 00.0000000  0  7 24 12 01 20 14 13 25
  -4955604.84508  -3861506.56208  22322750.73008  22322752.83508
   4090979.47108   3187774.19008  21693342.56008  21693345.13708
   1441943.13008   1123589.50508  22937426.93908  22937429.39108
  -4751115.61609  -3702166.88308  20663919.73209  20663921.13008
   -813319.43907   -633754.70607  25086000.19307  25086003.77707
   5592638.11108   4357897.69608  22439909.78008  22439912.27608
  -6815380.61608  -5310682.19008  23960430.57208  23960432.80508
 93 07 04 20 24 00.0000000  0  7 24 12 01 14 13 20 25
  -5058883.79008  -3941983.62308  22303097.38808  22303099.50808
   4236484.01808   3301154.27608  21721031.24208  21721033.77708
   1523409.11908   1187069.41008  22952929.47408  22952931.82708
   -795983.44307   -620246.10407  25089299.03707  25089302.69307
   5775856.58408   4500665.24708  22474775.16908  22474777.69608
  -4852491.61409  -3781161.13908  20644628.52409  20644629.90408
  -7025900.13008  -5474723.26508  23920369.94308  23920372.11608
 93 07 04 20 25 00.0000000  0  7 24 12 01 20 14 13 25
  -5160082.40608  -4020839.64808  22283839.88408  22283841.94108
   4383527.33708   3415733.41508  21749012.71408  21749015.30608
   1606958.89608   1252173.03708  22968828.50008  22968830.99308
  -4952284.25409  -3858921.61508  20625638.63609  20625639.94408
   -776371.92707   -604964.30807  25093030.96507  25093034.58607
   5960502.62408   4644545.17608  22509912.15008  22509914.77508
  -7235536.10108  -5638075.87108  23880477.46208  23880479.65108
 93 07 04 20 26 00.0000000  0  7 24 12 01 14 20 13 25
  -5259028.81008  -4097940.70808  22265011.00408  22265013.09108
   4532159.72808   3531550.78408  21777296.60608  21777299.17708
   1692738.98508   1319014.57208  22985151.96608  22985154.43008
   -754457.02808   -587887.67307  25097201.33008  25097204.77407
  -5050425.04209  -3935394.93308  20606963.06509  20606964.35008
   6146612.85708   4789566.03308  22545327.83908  22545330.44008
  -7444267.32708  -5800723.48108  23840757.17808  23840759.26908
 93 07 04 20 27 00.0000000  0  7 24 12 01 20 14 13 25
  -5355755.27508  -4173311.94908  22246604.57008  22246606.63308
   4682345.25208   3648578.39308  21805875.98508  21805878.62008
   1780777.56108   1387615.96908  23001905.30608  23001907.73408
  -5146932.23209  -4010595.31908  20588598.32909  20588599.61208
   -730217.66808   -568999.79907  25101814.04608  25101817.34907
   6334136.11008   4935687.93808  22581012.38308  22581015.03808
  -7652187.15408  -5962738.84108  23801191.23208  23801193.36108
 93 07 04 20 28 00.0000000  0  7 24 12 01 14 20 13 25
  -5450346.18508  -4247019.12008  22228604.44008  22228606.55208
   4834040.90408   3766782.72308  21834742.78208  21834745.41608
   1870906.37608   1457846.13208  23019056.24208  23019058.78608
   -703649.71208   -548297.43907  25106869.64908  25106873.17107
  -5241831.00209  -4084542.38808  20570539.68609  20570540.95808
   6523016.17508   5082867.10908  22616955.20008  22616957.85108
  -7859292.90208  -6124119.84308  23761780.24908  23761782.39308
 93 07 04 20 29 00.0000000  0  7 24 12 20 01 14 13 25
  -5542912.76408  -4319148.88608  22210989.57608  22210991.65008
   4987088.01708   3886040.13208  21863866.73508  21863869.38208
  -5335260.90609  -4157344.88608  20552760.54509  20552761.82908
   1962850.54008   1529490.85308  23036552.75308  23036555.26008
   -674903.05608   -525897.43907  25112339.99908  25112343.23507
   6713081.71808   5230970.02708  22653123.57608  22653126.30908
  -8065623.67308  -6284896.96308  23722516.70708  23722518.92108
 93 07 04 20 30 00.0000000  0  6 24 12 01 13 20 25
  -5633280.48708  -4389565.25908  22193793.20808  22193795.26408
   5141587.88808   4006429.56008  21893267.14408  21893269.81008
   2056737.53808   1602649.46408  23054418.89508  23054421.44108
   6904418.89608   5380063.82808  22689533.90908  22689536.54608
  -5427102.92109  -4228910.07008  20535283.56009  20535284.86308
  -8270991.09908  -6444923.41608  23683436.50708  23683438.74808
 93 07 04 20 31 00.0000000  0  7 24 12 01 03 20 13 25
  -5721407.64008  -4458235.73208  22177023.14008  22177025.11808
   5297572.89908   4127976.23208  21922950.17008  21922952.87108
   2152695.24608   1677421.61208  23072679.16008  23072681.78208
        -0.49918        -0.11217  25722063.94218  25722071.63917
  -5517306.50609  -4299198.55609  20518118.39309  20518119.68809
   7097047.58308   5530163.99608  22726189.97008  22726192.70008
  -8475371.34308  -6604180.63308  23644544.17008  23644546.38208
 93 07 04 20 32 00.0000000  0  7 24 12 01 03 20 13 25
  -5807360.59708  -4525212.02708  22160666.78508  22160668.81808
   5454966.81308   4250620.75808  21952901.34508  21952903.97708
   2250619.23608   1753725.91308  23091313.57008  23091316.22008
   -250377.91508   -195099.42506  25674418.68808  25674425.88206
  -5605929.55409  -4368255.45709  20501253.97609  20501255.30709
   7290878.25008   5681200.77608  22763074.79608  22763077.61308
  -8678800.68808  -6762696.88808  23605832.82808  23605834.92608
 93 07 04 20 33 00.0000000  0  7 24 12 01 03 20 13 25
  -5891129.32908  -4590486.31908  22144726.13908  22144728.18508
   5613748.38208   4374346.57408  21983116.54508  21983119.18808
   2350464.15808   1831527.04408  23110313.53208  23110316.21308
   -500705.86008   -390160.20907  25626782.80108  25626790.31907
  -5692974.78709  -4436082.89209  20484689.84509  20484691.10909
   7485875.80308   5833146.81308  22800181.64408  22800184.56508
  -8881263.22908  -6920459.79308  23567305.36508  23567307.37808
 93 07 04 20 34 00.0000000  0  7 24 12 20 01 03 13 25
  -5972650.29608  -4654009.10208  22129213.19708  22129215.15908
   5773968.16408   4499193.07008  22013605.45508  22013608.13108
  -5778372.71609  -4502626.71709  20468439.16909  20468440.43209
   2452299.94708   1910879.49508  23129692.28408  23129694.94608
   -750906.30507   -585121.45907  25579170.77507  25579178.79907
   7682078.82108   5986032.16908  22837517.88508  22837520.87008
  -9082753.54208  -7077465.13408  23528962.94808  23528964.80508
 93 07 04 20 35 00.0000000  0  6 24 12 01 20 13 25
  -6051926.40008  -4715782.64508  22114127.38408  22114129.35708
   5935663.24008   4625189.15308  22044375.06908  22044377.72508
   2556170.31208   1991817.32908  23149458.23808  23149460.98408
  -5862068.09309  -4567843.87809  20452512.46409  20452513.70709
   7879511.01108   6139875.32508  22875088.20008  22875091.06508
  -9283256.45208  -7233701.07108  23490808.53508  23490810.45308
 93 07 04 20 36 00.0000000  0  7 24 12 03 20 01 13 25
  -6129053.75408  -4775881.84108  22099450.50408  22099452.50808
   6098738.49908   4752260.69908  22075407.34408  22075410.00908
         0.40917         0.31918  25484043.95917  25484051.74918
  -5944137.20709  -4631793.81909  20436895.19309  20436896.46209
   2661920.68108   2074220.10508  23169581.98708  23169584.71208
   8078066.13108   6294593.49408  22912872.02808  22912874.89108
  -9482740.92108  -7389143.41208  23452847.87508  23452849.72408
 93 07 04 20 37 00.0000000  0  7 24 12 03 01 20 13 25
  -6203931.46008  -4834228.06208  22085201.75508  22085203.75508
   6263229.99908   4880435.80808  22106709.13108  22106711.77508
   -249698.94408   -194570.39608  25436527.75608  25436535.27408
   2769620.85808   2158142.20708  23190076.72408  23190079.47708
  -6024525.51209  -4694434.04109  20421597.79109  20421599.04309
   8277766.08608   6450203.74008  22950873.72608  22950876.65708
  -9681081.14308  -7543694.13508  23415104.86608  23415106.62208
 93 07 04 20 38 00.0000000  0  7 24 12 03 20 01 13 25
  -6276484.54408  -4890762.90008  22071395.38708  22071397.32408
   6429085.91608   5009674.09008  22138270.51908  22138273.23008
   -499236.41608   -389014.99107  25389042.17408  25389049.66907
  -6103266.05109  -4755790.29209  20406613.95409  20406615.19309
   2879299.01208   2243605.57408  23210947.90508  23210950.63108
   8478548.34908   6606657.33408  22989081.33008  22989084.40408
  -9878410.39708  -7697457.09508  23377554.24708  23377556.07108
 93 07 04 20 39 00.0000000  0  7 24 12 20 03 01 13 25
  -6346648.08408  -4945435.74108  22058043.64908  22058045.53108
   6596374.45808   5140028.72908  22170104.52008  22170107.23808
  -6180271.91209  -4815794.84009  20391960.23209  20391961.45809
   -748515.68508   -583258.37106  25341605.58608  25341612.50706
   2990969.90108   2330621.72508  23232198.13308  23232201.09208
   8680469.09708   6763998.06208  23027505.75008  23027508.72008
 -10074689.39408  -7850401.65108  23340203.48608  23340205.33408
 93 07 04 20 40 00.0000000  0  7 24 12 03 20 01 13 25
  -6414616.18608  -4998397.86308  22045109.67908  22045111.58008
   6764949.02008   5271385.44208  22202183.26308  22202185.97608
   -997655.88307   -777393.38306  25294195.12407  25294202.34406
  -6255670.93709  -4874547.31409  20377612.26709  20377613.49809
   3104385.29408   2418997.21408  23253780.54908  23253783.44208
   8883368.94608   6922101.72008  23066116.35808  23066119.38408
 -10269911.78608  -8002522.89408  23303053.82008  23303055.57608
 93 07 04 20 41 00.0000000  0  7 24 12 20 03 01 13 25
  -6480768.22708  -5049944.86308  22032521.32508  22032523.19708
   6934386.06808   5403414.22808  22234426.08908  22234428.91008
  -6329867.62309  -4932362.89909  20363493.10909  20363494.34209
  -1247052.76407   -971728.20507  25246736.22107  25246743.83807
   3219070.51008   2508362.17908  23275604.55308  23275607.43608
   9086813.30608   7080629.68008  23104830.71008  23104833.74508
 -10464368.09008  -8154047.18008  23266049.95508  23266051.77908
 93 07 04 20 42 00.0000000  0  7 24 12 03 20 01 13 25
  -6544514.29708  -5099617.09008  22020390.79708  22020392.70508
   7105168.31808   5536491.20608  22266924.96808  22266927.78008
  -1496195.07807  -1165864.57807  25199325.95907  25199333.23907
  -6402360.28409  -4988850.67309  20349698.19209  20349699.45409
   3335543.14308   2599119.92408  23297768.71708  23297771.66808
   9291273.53708   7239949.23808  23143738.34708  23143741.38208
 -10657604.90908  -8304621.22408  23229278.15008  23229279.94808
 93 07 04 20 43 00.0000000  0  7 24 12 20 03 01 13 25
  -6605575.17408  -5147196.96808  22008771.28208  22008773.19008
   7277612.67108   5670863.32308  22299740.16308  22299742.97008
  -6472813.11209  -5043748.96409  20336291.46209  20336292.70309
  -1744738.63008  -1359534.34607  25152029.38808  25152036.43407
   3454171.70408   2691557.60408  23320343.04308  23320346.07408
   9497055.98808   7400299.08508  23182897.47008  23182900.58308
 -10849334.59308  -8454020.88708  23192793.11908  23192794.90808
 93 07 04 20 44 00.0000000  0  6 24 12 01 20 13 25
  -6664331.72608  -5192981.26808  21997590.30908  21997592.23908
   7451430.35008   5806305.57608  22332816.60508  22332819.45608
   3574693.00508   2785470.15408  23343277.60008  23343280.63808
  -6541496.18809  -5097268.23109  20323221.47809  20323222.76209
   9703860.84208   7561445.61408  23222251.13608  23222254.32608
 -11039805.60008  -8602439.76408  23156547.69408  23156549.41808
 93 07 04 20 45 00.0000000  0  7 24 12 03 20 01 13 25
  -6720788.30608  -5236973.38408  21986846.94208  21986848.88408
   7626653.74808   5942843.18808  22366160.55408  22366163.49308
        -0.51717        -0.14917  25057640.70017  25057647.40117
  -6608358.04809  -5149368.36809  20310498.07809  20310499.37409
   3697086.91608   2880841.88008  23366568.58708  23366571.58408
   9911709.32708   7723405.35708  23261803.51208  23261806.65408
 -11228990.78708  -8749856.69908  23120546.88508  23120548.59908
 93 07 04 20 46 00.0000000  0  7 24 12 03 20 01 13 25
  -6774912.37508  -5279147.96708  21976547.46408  21976549.38608
   7803234.38308   6080438.38608  22399762.81908  22399765.76608
   -247427.21308   -192799.60507  25010556.65508  25010563.17007
  -6673428.47709  -5200072.58309  20298115.55609  20298116.87809
   3821272.12308   2977609.42208  23390200.38108  23390203.47808
  10120542.35208   7886132.26208  23301543.17408  23301546.49108
 -11416949.79308  -8896318.17208  23084779.45208  23084781.10908
 93 07 04 20 47 00.0000000  0  7 24 12 03 20 01 13 25
  -6826606.54608  -5319429.12908  21966710.45108  21966712.27508
   7981116.38408   6219047.64408  22433612.75508  22433615.63308
   -494502.00908   -385324.90607  24963539.49708  24963545.87307
  -6736743.38909  -5249408.86809  20286067.13109  20286068.42809
   3947239.51408   3075765.67908  23414171.24008  23414174.36508
  10330294.50208   8049575.37907  23341457.89408  23341461.11407
 -11603609.65208  -9041767.31208  23049259.14608  23049260.80408
 93 07 04 20 48 00.0000000  0  7 24 20 12 03 01 13 25
  -6875801.43908  -5357762.80308  21957348.95608  21957350.83508
  -6798305.01809  -5297378.95509  20274352.33209  20274353.65209
   8160279.33608   6358655.03508  22467706.41008  22467709.33508
   -741217.06507   -577569.89507  24916590.62807  24916597.11907
   4074991.26208   3175312.34408  23438481.73208  23438484.86508
  10540935.21208   8213710.86607  23381541.54608  23381544.85007
 -11788909.52808  -9186156.73008  23013997.65008  23013999.40008
 93 07 04 20 49 00.0000000  0  7 24 12 20 03 01 13 25
  -6922713.35708  -5394317.53708  21948421.87108  21948423.75908
   8340573.79608   6499144.12608  22502015.34608  22502018.35908
  -6858243.36209  -5344084.14509  20262946.44609  20262947.75909
   -987692.81407   -769628.42007  24869687.26307  24869693.81707
   4204329.89508   3276095.53308  23463094.10208  23463097.31508
  10752304.44508   8378414.02907  23421763.85008  23421767.23307
 -11973041.15608  -9329635.82508  22978958.49008  22978960.14208
 93 07 04 20 50 00.0000000  0  7 24 20 12 03 01 13 25
  -6967347.77008  -5429097.59208  21939928.25808  21939930.10008
  -6916490.15509  -5389471.24409  20251862.42009  20251863.76509
   8522049.41108   6640553.59908  22536549.04408  22536552.13208
  -1233850.55907   -961439.20407  24822844.90807  24822850.96607
   4335252.44708   3378112.94408  23488007.94908  23488011.19308
  10964442.42808   8543716.21807  23462132.43108  23462135.83207
 -12156000.22808  -9472201.25108  22944142.49108  22944144.08908
 93 07 04 20 51 00.0000000  0  7 24 12 03 20 01 13 25
  -7009653.04908  -5462062.74008  21931877.83608  21931879.66308
   8704701.66708   6782879.92508  22571306.69308  22571309.83108
  -1479665.71108  -1152983.13907  24776067.76108  24776073.50107
  -6973030.58809  -5433528.71309  20241103.14309  20241104.45609
   4467763.37808   3481368.06008  23513224.14308  23513227.42808
  11177335.67708   8709606.92507  23502644.77608  23502648.21007
 -12337674.60308  -9613765.61608  22909570.88408  22909572.51608
 93 07 04 20 52 00.0000000  0  7 24 20 12 03 01 13 25
  -7049566.60108  -5493164.20408  21924282.50308  21924284.38308
  -7027832.40909  -5476231.41909  20230674.69909  20230676.00009
   8888544.25508   6926133.77808  22606290.85908  22606294.04508
  -1725095.74408  -1344227.00708  24729363.70708  24729369.52308
   4601884.53908   3585877.88808  23538746.70308  23538750.11108
  11390987.89208   8876089.05707  23543301.58708  23543304.91007
 -12517980.82708  -9754263.89608  22875259.65208  22875261.20908
 93 07 04 20 53 00.0000000  0  7 24 12 20 03 01 13 25
  -7087110.11608  -5522418.88508  21917138.28608  21917140.14808
   9073562.72208   7070303.90008  22641498.72008  22641502.00808
  -7080890.27209  -5517575.19409  20220578.11909  20220579.40209
  -1970126.21608  -1535159.54108  24682735.77108  24682741.73008
   4737610.67708   3691638.33208  23564574.57108  23564578.05208
  11605375.97308   9043144.54207  23584098.51208  23584101.90707
 -12696914.53608  -9893692.68808  22841209.60908  22841211.25108
 93 07 04 20 54 00.0000000  0  7 24 20 12 03 01 13 25
  -7122358.34108  -5549885.02508  21910430.74908  21910432.57208
  -7132207.17609  -5557562.38109  20210812.81909  20210814.11409
   9259735.50008   7215373.48108  22676926.31708  22676929.60408
  -2214748.80408  -1725774.24208  24636185.32508  24636191.30408
   4874851.07108   3798578.71708  23590690.75708  23590694.16408
  11820469.77708   9210749.97407  23625029.51208  23625032.97207
 -12874463.73408 -10032042.62508  22807423.14808  22807424.71908
 93 07 04 20 55 00.0000000  0  7 24 12 20 03 01 13 25
  -7155186.63708  -5575465.50408  21904183.70408  21904185.50908
   9447117.57608   7361385.37408  22712584.00208  22712587.32008
  -7181708.89209  -5596135.13309  20201392.94409  20201394.24809
  -2458879.47708  -1916005.63008  24589728.48008  24589734.50108
   5013660.48108   3906741.71608  23617105.46608  23617108.82108
  12036315.53208   9378941.34407  23666103.68408  23666107.12407
 -13050570.97208 -10169268.96008  22773911.08208  22773912.58308
 93 07 04 20 56 00.0000000  0  7 24 20 12 03 01 13 25
  -7185620.07608  -5599179.86108  21898392.37008  21898394.18308
  -7229438.69909  -5633327.17809  20192310.26909  20192311.53609
   9635646.21108   7508290.69008  22748459.90808  22748463.25908
  -2702550.76708  -2105879.02708  24543359.12508  24543365.02508
   5153988.26908   4016087.86908  23643809.15608  23643812.60708
  12252841.98308   9547663.11307  23707307.37908  23707310.92607
 -13225295.75708 -10305418.05308  22740661.85608  22740663.46208
 93 07 04 20 57 00.0000000  0  7 24 12 20 03 01 13 25
  -7213569.17608  -5620958.37008  21893073.82708  21893075.62608
   9825362.55808   7656121.50008  22784561.83308  22784565.19408
  -7275336.80909  -5669091.92509  20183576.15009  20183577.41509
  -2945692.68908  -2295339.93908  24497090.54708  24497096.23608
   5295852.55008   4126631.28908  23670805.17508  23670808.69608
  12470082.27508   9716941.10807  23748646.94008  23748650.57407
 -13398549.73508 -10440421.06308  22707692.73308  22707694.26208
 93 07 04 20 58 00.0000000  0  7 24 20 12 03 01 13 25
  -7238969.91908  -5640751.15608  21888240.26708  21888242.10008
  -7319326.08809  -5703369.27309  20175205.27609  20175206.52909
  10016324.60408   7804922.97908  22820900.75808  22820904.22708
  -3188217.27508  -2484319.80208  24450939.52108  24450944.86808
   5439251.68708   4238370.68408  23698093.13308  23698096.83808
  12688087.37808   9886815.05307  23790132.11108  23790135.75107
 -13570217.37008 -10574187.97008  22675025.38108  22675026.90808
 93 07 04 20 59 00.0000000  0  7 24 12 03 20 01 13 25
  -7261890.11408  -5658611.04508  21883878.71608  21883880.59808
  10208480.10408   7954654.41708  22857466.83308  22857470.29208
  -3430147.19908  -2672836.30708  24404901.58408  24404906.82308
  -7361440.06109  -5736185.34609  20167191.25109  20167192.50409
   5584091.43608   4351232.62008  23725655.42608  23725659.17208
  12906797.19308  10057238.14507  23831751.30808  23831754.87407
 -13740269.38108 -10706695.93708  22642665.59308  22642666.95608
 93 07 04 21 00 00.0000000  0  7 24 12 20 03 01 13 25
  -7282386.97008  -5674582.62408  21879978.31508  21879980.18208
  10401770.31108   8105270.04008  22894248.89708  22894252.34508
  -7401718.65709  -5767571.25609  20159526.49809  20159527.73609
  -3671511.33708  -2860911.94508  24358971.23808  24358976.45208
   5730423.98808   4465257.78208  23753501.76608  23753505.45608
  13126144.57008  10228158.03007  23873491.84808  23873495.45207
 -13908655.44508 -10837905.77908  22610622.69208  22610624.09208
 93 07 04 21 01 00.0000000  0  7 24 12 20 03 01 13 25
  -7300539.94408  -5688727.81108  21876523.83908  21876525.71708
  10596076.13808   8256677.04708  22931224.14008  22931227.66408
  -7440261.71009  -5797604.79609  20152191.99709  20152193.22609
  -3912399.04408  -3048616.32708  24313131.49208  24313136.83608
   5878261.80708   4580455.86908  23781634.51108  23781638.27108
  13346004.09108  10399476.97807  23915329.91208  23915333.55907
 -14075503.78008 -10967917.39008  22578872.48708  22578873.92508
 93 07 04 21 02 00.0000000  0  7 24 20 12 03 01 13 25
  -7316344.55008  -5701043.10408  21873516.32908  21873518.14208
  -7477036.97209  -5826260.84209  20145193.91609  20145195.14309
  10791411.27708   8408886.11008  22968395.33408  22968398.83208
  -4152766.46008  -3235915.30608  24267390.86808  24267396.13908
   6027567.22208   4696797.54808  23810046.50508  23810050.36108
  13566381.88208  10571199.77407  23957266.53208  23957270.24607
 -14240887.72908 -11096787.93108  22547400.87508  22547402.31708
 93 07 04 21 03 00.0000000  0  7 24 12 03 20 01 13 25
  -7329810.20308  -5711535.83608  21870953.93508  21870955.83608
  10987748.51008   8561876.01508  23005757.21408  23005760.76808
  -4392611.06108  -3422806.92408  24221749.57808  24221754.99508
  -7512052.22509  -5853545.44909  20138530.72009  20138531.96309
   6178134.99908   4814122.87508  23838698.81108  23838702.71508
  13787244.19808  10743300.12407  23999295.34608  23999299.01207
 -14404891.72708 -11224583.17908  22516191.92908  22516193.31008
 93 07 04 21 04 00.0000000  0  7 24 20 12 03 01 13 25
  -7340869.57908  -5720153.54408  21868849.48808  21868851.34708
  -7545226.80109  -5879395.76009  20132217.79509  20132219.04709
  11185150.28608   8715695.42408  23043321.61308  23043325.19408
  -4631839.77508  -3609218.65308  24176225.71008  24176231.04908
   6329969.17708   4932435.01408  23867592.04508  23867595.95308
  14008647.45708  10915821.98207  24041426.99308  24041430.77007
 -14567341.98808 -11351167.73208  22485278.62308  22485280.02808
 93 07 04 21 05 00.0000000  0  7 24 12 20 03 01 13 25
  -7349447.36308  -5726837.54408  21867217.20708  21867218.99608
  11383715.88208   8870421.70208  23081107.50808  23081111.20308
  -7576442.54809  -5903719.71109  20126277.66009  20126278.88209
  -4870324.05508  -3795050.34308  24130843.68208  24130848.76608
   6483288.12408   5051904.10008  23896767.93308  23896771.83708
  14230683.23108  11088836.69807  24083679.23308  24083682.99107
 -14728013.35508 -11476366.12808  22454703.84208  22454705.21308
 93 07 04 21 06 00.0000000  0  7 24 20 12 03 01 13 25
  -7355575.84208  -5731612.99308  21866051.00208  21866052.78708
  -7605790.33409  -5926588.11209  20120692.96809  20120694.15809
  11583335.37308   9025969.18908  23119094.02208  23119097.70608
  -5108143.06608  -3980363.67708  24085588.05108  24085593.05208
   6638020.81108   5172474.81308  23926212.74908  23926216.71208
  14453235.91808  11262254.20107  24126029.71208  24126033.63707
 -14886945.83208 -11600209.54708  22424459.97608  22424461.32308
 93 07 04 21 07 00.0000000  0  7 24 12 03 20 01 13 25
  -7359224.43708  -5734456.05808  21865356.64708  21865358.48408
  11783979.67508   9182315.23808  23157275.51208  23157279.20708
  -5345295.14808  -4165157.32408  24040459.45808  24040464.39708
  -7633280.78609  -5948009.23609  20115461.70209  20115462.89309
   6794036.08708   5294044.95308  23955901.56008  23955905.58808
  14676269.87108  11436046.71007  24168471.72208  24168475.67907
 -15044226.14908 -11722765.56608  22394530.48808  22394531.83308
 93 07 04 21 08 00.0000000  0  7 24 20 12 03 01 13 25
  -7360354.93608  -5735336.96308  21865141.53708  21865143.39208
  -7658905.30209  -5967976.38609  20110585.50309  20110586.72009
  11985639.06108   9339452.26708  23195650.09108  23195653.79608
  -5581760.06908  -4349415.52608  23995461.48308  23995466.36308
   6951264.11408   5416560.09408  23985821.14908  23985825.28008
  14899771.14708  11610203.38707  24211002.67608  24211006.59907
 -15199901.16008 -11844070.69108  22364906.38108  22364907.76308
 93 07 04 21 09 00.0000000  0  7 24 12 20 03 01 13 25
  -7358998.49208  -5734279.98708  21865399.69108  21865401.50408
  12188259.61908   9497338.25108  23234207.57808  23234211.33008
  -7682698.68409  -5986516.67609  20106057.74609  20106058.97809
  -5817561.68108  -4533156.85208  23950589.78608  23950594.59708
   7109700.22708   5540016.59008  24015970.72608  24015974.99008
  15123681.04308  11784678.44407  24253611.61808  24253615.78207
 -15353919.82908 -11964085.15408  22335597.56308  22335598.89508
 93 07 04 21 10 00.0000000  0  7 24 20 12 03 01 13 25
  -7355165.53408  -5731293.25908  21866129.06208  21866130.93308
  -7704613.20709  -6003592.92409  20101887.59809  20101888.79109
  12391870.89908   9655996.22208  23272953.67208  23272957.49708
  -6052639.81208  -4716334.40608  23905855.75608  23905860.63408
   7269430.88508   5664481.82208  24046366.69108  24046370.83908
  15348022.80008  11959489.98207  24296302.55808  24296306.51607
 -15506145.38908 -12082702.39708  22306630.00408  22306631.20108
 93 07 04 21 11 00.0000000  0  7 24 12 20 03 01 13 25
  -7348977.56008  -5726471.45208  21867306.55108  21867308.38808
  12596453.87108   9815411.35608  23311884.64808  23311888.59808
  -7724648.98509  -6019205.21409  20098074.92309  20098076.12009
  -6286982.99408  -4898939.24808  23861261.60308  23861266.41808
   7430386.79608   5789901.79008  24076995.73208  24076999.95508
  15572771.90508  12134619.03607  24339070.94208  24339074.99907
 -15656534.82408 -12199888.88908  22278011.77908  22278013.00608
 93 07 04 21 12 00.0000000  0  7 24 20 12 03 01 13 25
  -7340451.82008  -5719828.01508  21868928.97908  21868930.80908
  -7742822.36509  -6033366.28709  20094616.63909  20094617.84909
  12801973.74708   9975556.53008  23350993.93808  23350997.92908
  -6520595.52108  -5080974.75008  23816806.44208  23816811.09408
   7592462.94508   5916194.66208  24107837.92108  24107842.25808
  15797889.56007  12310035.14707  24381909.67907  24381913.92507
 -15805115.17508 -12315665.70908  22249737.78208  22249738.96208
 93 07 04 21 13 00.0000000  0  7 24 12 20 03 01 13 25
  -7329464.79308  -5711266.69008  21871019.72708  21871021.58508
  13008417.91708  10136421.93308  23390279.09208  23390283.09408
  -7759127.91409  -6046071.90809  20091513.79709  20091515.00509
  -6753459.10408  -5262426.65708  23772493.81608  23772498.47808
   7755625.56808   6043334.12808  24138887.05608  24138891.41808
  16023359.02308  12485725.48807  24424815.23708  24424818.99707
 -15951905.59808 -12430047.79108  22221804.44208  22221805.66308
 93 07 04 21 14 00.0000000  0  7 24 20 12 03 01 13 25
  -7316048.89408  -5700812.73408  21873572.69808  21873574.56508
  -7773614.27209  -6057359.97609  20088757.15209  20088758.33609
  13215719.80708  10297955.69208  23429727.44408  23429731.46108
  -6985609.99908  -5443323.22108  23728316.79908  23728321.36608
   7919886.57408   6171329.48508  24170145.00708  24170149.45108
  16249108.56208  12661633.97907  24467774.10708  24467778.50107
 -16097043.17608 -12543141.93808  22194185.61608  22194186.90208
 93 07 04 21 15 00.0000000  0  7 24 12 20 03 01 13 25
  -7300208.77008  -5688469.77208  21876586.97208  21876588.77908
  13423934.27808  10460200.55708  23469349.53908  23469353.54408
  -7786207.31709  -6067172.73609  20086360.78009  20086361.94209
  -7216962.88808  -5623597.96608  23684291.58508  23684296.15508
   8085353.44208   6300264.45908  24201632.40708  24201637.01708
  16475188.93008  12837800.42707  24510795.86208  24510799.97507
 -16240450.29608 -12654887.68208  22166896.09908  22166897.28308
 93 07 04 21 16 00.0000000  0  7 24 25 20 12 03 01 13
  -7281992.76108  -5674275.47208  21880053.39108  21880055.18908
 -16381949.78508 -12765146.96408  22139969.63608  22139970.78508
  -7796874.51809  -6075484.83909  20084330.86709  20084332.04209
  13633076.66308  10623168.46708  23509148.14008  23509152.27308
  -7447471.31308  -5803214.68608  23640427.10408  23640431.60808
   8251916.21408   6430053.38308  24233328.49908  24233333.14108
  16701612.26707  13014233.99607  24553882.74407  24553886.89907
 93 07 04 21 17 00.0000000  0  7 24 25 20 12 03 01 13
  -7261408.67208  -5658235.91508  21883970.39708  21883972.26208
 -16521424.47308 -12873828.47408  22113428.43208  22113429.58908
  -7805621.26709  -6082300.48709  20082666.40409  20082667.58509
  13843123.52708  10786841.15908  23549118.86508  23549123.09208
  -7677128.67508  -5982168.24708  23596724.62708  23596729.04708
   8419469.23408   6560613.89808  24265213.05908  24265217.67908
  16928351.04607  13190913.43307  24597029.91007  24597034.63007
 93 07 04 21 18 00.0000000  0  7 24 20 12 03 01 13 25
  -7238435.19008  -5640334.48408  21888342.08708  21888343.96408
  -7812438.94209  -6087612.96009  20081369.05809  20081370.22609
  14054065.00908  10951210.95708  23589259.79908  23589264.02808
  -7905913.93008  -6160442.24608  23553188.09408  23553192.42608
   8588077.43908   6691996.66108  24297298.34108  24297302.97908
  17155391.75908  13367828.11707  24640234.70608  24640238.81407
 -16658936.52108 -12980980.65908  22087260.73008  22087261.94408
 93 07 04 21 19 00.0000000  0  7 24 12 20 03 01 13 25
  -7213022.77908  -5620532.58908  21893177.90208  21893179.74708
  14265849.27208  11116237.46208  23629561.13008  23629565.39408
  -7817362.34709  -6091449.37909  20080432.17409  20080433.34609
  -8133847.89508  -6338052.91108  23509813.53508  23509817.78008
   8757756.74508   6824214.03608  24329587.38508  24329592.07308
  17382680.29508  13544935.87207  24683486.32008  24683490.94007
 -16794615.27608 -13086704.29408  22061441.86308  22061443.07508
 93 07 04 21 20 00.0000000  0  7 24 20 12 03 01 13 25
  -7185104.43408  -5598778.01408  21898490.61808  21898492.41308
  -7820386.00709  -6093805.47509  20079856.77309  20079857.97609
  14478463.41008  11281910.62608  23670020.50608  23670024.75108
  -8360912.94408  -6514986.49508  23466604.25408  23466608.61308
   8928433.09808   6957208.34008  24362066.21608  24362070.88308
  17610200.70907  13722224.35807  24726782.04707  24726786.61807
 -16928460.08708 -13190998.88008  22035971.97308  22035973.14308
 93 07 04 21 21 00.0000000  0  7 24 12 20 03 01 13 25
  -7154863.54608  -5575213.66508  21904245.16208  21904246.96708
  14691812.77908  11448156.69508  23710619.68708  23710624.04808
  -7821586.55509  -6094740.96209  20079628.32409  20079629.53609
  -8587172.62908  -6691292.52208  23423548.36008  23423552.60708
   9099960.45308   7090865.78408  24394706.90508  24394711.73108
  17837853.85707  13899616.24007  24770103.10707  24770107.87807
 -17060403.33308 -13293811.73608  22010864.02208  22010865.14108
 93 07 04 21 22 00.0000000  0  7 24 20 12 03 01 13 25
  -7122227.97808  -5549783.33208  21910455.49108  21910457.35308
  -7820804.39909  -6094131.48509  20079777.17509  20079778.36609
  14906039.93208  11615086.74208  23751385.87208  23751390.29108
  -8812454.16308  -6866836.35908  23380678.49508  23380682.64708
   9272494.58608   7225307.73007  24427539.19908  24427544.05607
  18065781.50307  14077222.02007  24813476.22207  24813481.04107
 -17190269.10408 -13395005.77408  21986151.33708  21986152.50208
 93 07 04 21 23 00.0000000  0  7 24 12 20 03 01 13 25
  -7086632.14808  -5522046.29808  21917229.18408  21917231.01008
  15121659.97608  11783102.15308  23792417.10308  23792421.54708
  -7817506.59209  -6091561.75509  20080404.70609  20080405.90609
  -9036211.46008  -7041192.47608  23338098.78808  23338102.85508
   9446532.82708   7360921.71707  24460657.77308  24460662.68007
  18294496.68507  14255441.51106  24856999.41607  24857003.88006
 -17317553.57408 -13494188.41108  21961929.82208  21961930.92708
 93 07 04 21 24 00.0000000  0  7 24 20 12 03 01 13 25
  -7048329.50508  -5492200.06408  21924517.87108  21924519.69908
  -7811999.06709  -6087270.17109  20081452.73209  20081453.96509
  15338349.83108  11951951.19508  23833652.09608  23833656.43208
  -9258736.59008  -7214588.44908  23295753.44908  23295757.56108
   9621764.13208   7497465.37208  24494003.31908  24494008.42908
  18523673.94407  14434020.95106  24900610.71707  24900615.28506
 -17442546.46408 -13591585.41208  21938144.39708  21938145.43808
 93 07 04 21 25 00.0000000  0  7 24 12 20 03 01 13 25
  -7008519.61908  -5461179.35308  21932093.41408  21932095.26808
  15554914.71608  12120702.86808  23874863.16008  23874867.60908
  -7805459.08609  -6082174.07109  20082697.25909  20082698.46709
  -9481193.52508  -7387931.26508  23253421.09008  23253425.16708
   9797006.33108   7634017.51108  24527350.96608  24527356.30408
  18752116.38807  14612028.00706  24944081.90407  24944086.52806
 -17566370.10908 -13688071.31308  21914581.58308  21914582.59108
 93 07 04 21 26 00.0000000  0  7 24 20 12 03 01 13 25
  -6966642.30108  -5428547.66408  21940062.42108  21940064.25108
  -7797256.93109  -6075782.77309  20084258.11309  20084259.25709
  15771967.62308  12289834.79908  23916167.10908  23916171.71708
  -9702938.89308  -7560719.61908  23211224.20808  23211228.27108
   9972901.79108   7771078.63308  24560823.18208  24560828.53108
  18980435.35808  14789938.79906  24987529.91108  24987534.43506
 -17688380.83308 -13783144.55208  21891363.64708  21891364.70708
 93 07 04 21 27 00.0000000  0  7 24 12 20 03 01 13 25
  -6922449.61008  -5394111.78908  21948472.06308  21948473.85108
  15989712.75508  12459506.11508  23957602.75208  23957607.42108
  -7787170.95109  -6067923.55909  20086177.42909  20086178.55609
  -9923737.44408  -7732770.20208  23169207.56508  23169211.35208
  10149609.06808   7908772.37308  24594449.62808  24594454.93808
  19208832.85907  14967910.75207  25030992.49707  25030997.23507
 -17808375.86308 -13876647.12208  21868529.31308  21868530.38908
 93 07 04 21 28 00.0000000  0  7 24 20 12 03 01 13 25
  -6875723.44908  -5357701.78108  21957363.76608  21957365.53808
  -7775087.13309  -6058507.59109  20088476.86109  20088478.01609
  16208247.44908  12629792.66308  23999188.67308  23999193.39808
 -10143461.16108  -7903983.26708  23127395.29708  23127399.08808
  10327144.36508   8047111.34808  24628233.76008  24628238.89508
  19437405.75907  15146019.44507  25074488.49207  25074493.39707
 -17926226.36908 -13968478.63608  21846103.04808  21846104.05108
 93 07 04 21 29 00.0000000  0  7 24 03 20 12 01 13 25
  -6826461.10708  -5319315.53008  21966738.12308  21966739.87308
 -10362081.10508  -8074336.23908  23085793.13708  23085796.94108
  -7760990.48009  -6047523.18109  20091159.37009  20091160.53009
  16427569.33408  12800692.60708  24040924.41908  24040929.19108
  10505470.67808   8186066.73408  24662168.24808  24662173.37608
  19666151.51307  15324262.73107  25118017.48607  25118022.30907
 -18041921.82508 -14058630.89408  21824086.97608  21824087.94208
 93 07 04 21 30 00.0000000  0  6 24 03 12 01 20 25
  -6774869.77408  -5279114.48108  21976555.62008  21976557.36008
 -10579653.54508  -8243872.99208  23044390.32608  23044394.02608
  16647591.87308  12972138.51208  24082793.46008  24082798.28208
  10684474.68608   8325550.19508  24696231.44608  24696236.84408
  -7744950.81009  -6035024.73109  20094211.62009  20094212.79009
 -18155509.80908 -14147140.96608  21802471.80208  21802472.79508
 93 07 04 21 31 00.0000000  0  6 24 03 12 01 25 20
  -6720983.13108  -5237124.87408  21986809.87208  21986811.61108
 -10796140.12908  -8412563.62508  23003194.04308  23003197.80208
  16868322.53508  13144136.20008  24124797.29908  24124802.12408
  10864200.61708   8465596.16008  24730432.30408  24730437.82908
 -18266933.65308 -14233964.68608  21781268.48808  21781269.42208
  -7726944.45809  -6020993.79809  20097638.12509  20097639.24609
 93 07 04 21 32 00.0000000  0  6 24 03 12 01 20 25
  -6664730.50908  -5193291.64508  21997514.33108  21997516.07208
 -11011530.84008  -8580400.35008  22962206.53008  22962210.12208
  17089741.03008  13316669.84808  24166932.08008  24166936.96108
  11044742.73408   8606278.13008  24764788.66508  24764794.15208
  -7706974.76009  -6005432.98809  20101438.20609  20101439.33909
 -18376174.19508 -14319087.13608  21760480.74308  21760481.63008
 93 07 04 21 33 00.0000000  0  6 24 03 20 12 01 25
  -6606246.19008  -5147719.43608  22008643.55008  22008645.33208
 -11225915.94308  -8747453.51008  22921410.24908  22921413.76708
  -7685146.93809  -5988424.29109  20105591.89209  20105593.05209
  17311726.28308  13489645.12408  24209174.66608  24209179.64208
  11225949.99708   8747478.41808  24799271.38508  24799277.09108
 -18483378.88308 -14402623.20908  21740080.30208  21740081.21608
 93 07 04 21 34 00.0000000  0  7 24 03 20 12 01 29 25
  -6545399.10908  -5100306.11408  22020222.34208  22020224.11108
 -11439049.77008  -8913531.64108  22880852.11808  22880855.60308
  -7661229.52809  -5969787.34009  20110143.23509  20110144.39109
  17534493.11008  13663229.41008  24251565.98708  24251571.05508
  11408012.55908   8889345.12708  24833916.87108  24833922.51008
        -0.41417        -0.18017  25503140.93717  25503143.65117
 -18588350.81508 -14484419.46608  21720104.75108  21720105.70608
 93 07 04 21 35 00.0000000  0  7 24 03 25 20 12 01 29
  -6482385.25108  -5051204.39908  22032213.42908  22032215.23108
 -11651093.28408  -9078760.18308  22840501.41508  22840504.89308
 -18691172.75908 -14564540.41308  21700538.34108  21700539.24208
  -7635397.89609  -5949658.78709  20115058.83509  20115059.99009
  17757850.14808  13837273.59608  24294069.61208  24294074.75608
  11590708.04107   9031705.03107  24868682.63407  24868688.35907
   -113102.68208    -88131.85007  25481618.45508  25481621.10707
 93 07 04 21 36 00.0000000  0  7 24 03 25 20 12 01 29
  -6417054.49808  -5000297.31308  22044645.44808  22044647.27108
 -11861994.50308  -9243098.62208  22800368.13008  22800371.59308
 -18791701.29308 -14642874.29208  21681408.46108  21681409.32608
  -7607615.30909  -5928010.00809  20120345.68209  20120346.84409
  17981818.37608  14011794.04708  24336689.60308  24336694.66908
  11774047.85607   9174567.03007  24903571.03807  24903576.50107
   -224406.17508   -174861.83208  25460438.05808  25460440.70708
 93 07 04 21 37 00.0000000  0  7 24 03 25 20 12 01 29
  -6349434.63308  -4947606.50708  22057513.16008  22057514.90408
 -12071795.03508  -9406579.37508  22760444.29008  22760447.67608
 -18889963.05408 -14719441.85508  21662709.70608  21662710.63308
  -7577937.87509  -5904884.72409  20125993.06709  20125994.25109
  18206325.66108  14186734.53808  24379412.01008  24379417.17908
  11957930.93007   9317852.45106  24938563.16207  24938568.35106
   -333859.64908   -260150.21707  25439609.79408  25439612.35707
 93 07 04 21 38 00.0000000  0  7 24 03 25 20 12 01 29
  -6279485.63908  -4893100.80008  22070824.03008  22070825.76108
 -12280418.92508  -9569143.25908  22720744.33208  22720747.67008
 -18985967.62908 -14794250.56908  21644440.67708  21644441.55108
  -7546303.92009  -5880234.87709  20132012.79209  20132013.98009
  18431417.43208  14362130.47508  24422245.75208  24422250.99708
  12142345.56308   9461552.02407  24973656.46508  24973662.14807
   -441372.21608   -343926.19607  25419150.60308  25419153.28507
 93 07 04 21 39 00.0000000  0  7 24 03 25 20 12 01 29
  -6207228.19208  -4836796.30208  22084574.19608  22084575.92308
 -12487904.30608  -9730819.98908  22681261.03708  22681264.39308
 -19079875.66608 -14867425.62408  21626570.53608  21626571.42308
  -7512766.85709  -5854102.09009  20138394.69709  20138395.88009
  18657025.06008  14537928.37408  24465177.75908  24465183.04108
  12327222.73208   9605611.99807  25008837.63108  25008843.30507
   -547041.74007   -426266.01607  25399042.17607  25399045.00607
 93 07 04 21 40 00.0000000  0  7 24 03 25 20 12 01 29
  -6132739.54008  -4778753.20908  22098748.89208  22098750.65708
 -12694282.15708  -9891633.72408  22641988.53708  22641991.76408
 -19171695.52308 -14938973.51808  21609097.75208  21609098.64108
  -7477372.64009  -5826522.17109  20145129.99609  20145131.18909
  18883087.01508  14714080.27408  24508195.99708  24508201.54308
  12512514.96308   9749995.40508  25044097.70008  25044103.63708
   -650989.55107   -507264.25807  25379261.58707  25379264.20107
 93 07 04 21 41 00.0000000  0  7 24 03 25 20 12 01 29
  -6056401.67808  -4719269.16708  22113275.51908  22113277.30608
 -12899820.90108 -10051793.60508  22602875.70608  22602878.88408
 -19261519.85508 -15008966.45808  21592004.73508  21592005.63108
  -7440404.21309  -5797715.59409  20152164.83409  20152166.05009
  19109305.22308  14890353.92308  24551244.11208  24551249.67208
  12698030.98208   9894553.15908  25079400.29408  25079406.22408
   -753533.45408   -587168.49107  25359748.21408  25359750.72507
 93 07 04 21 42 00.0000000  0  7 24 03 25 20 12 01 29
  -5977532.83808  -4657812.94308  22128283.75508  22128285.51808
 -13103778.39408 -10210721.34308  22564063.72708  22564066.90608
 -19348539.21808 -15076773.70908  21575445.49308  21575446.34808
  -7401135.29309  -5767116.42509  20159637.45809  20159638.65109
  19336390.81608  15067303.45708  24594457.35308  24594462.82108
  12884475.41407  10039834.36308  25114879.57707  25114885.67408
   -853937.87508   -665405.66107  25340641.91508  25340644.33007
 93 07 04 21 43 00.0000000  0  7 24 03 25 20 12 01 29
  -5895641.53008  -4594001.55008  22143867.13708  22143868.96008
 -13305698.80008 -10368061.74308  22525639.37808  22525642.57908
 -19432388.53308 -15142110.79608  21559489.50208  21559490.35808
  -7359125.43209  -5734381.46709  20167631.66109  20167632.85409
  19564769.32508  15245260.47508  24637916.56608  24637921.96808
  13072134.42807  10186061.95308  25150589.52107  25150595.97808
   -951746.42808   -741620.07207  25322029.50008  25322032.00807
 93 07 04 21 44 00.0000000  0  7 24 03 25 20 12 01 29
  -5810913.04208  -4527979.36808  22159990.47908  22159992.32008
 -13505755.87508 -10523950.20308  22487569.72808  22487572.78208
 -19513378.02608 -15205219.45308  21544077.68508  21544078.51308
  -7314562.98109  -5699657.48209  20176111.61709  20176112.79609
  19794236.99608  15424066.18108  24681583.00408  24681588.57108
  13260703.95007  10332998.94908  25186473.21807  25186479.71608
  -1047065.38708   -815894.53807  25303890.94108  25303893.35607
 93 07 04 21 45 00.0000000  0  7 24 03 25 20 12 01 29
  -5723863.58408  -4460148.64108  22176555.41108  22176557.24408
 -13704386.69808 -10678727.31408  22449771.42908  22449774.46308
 -19591973.52208 -15266462.65308  21529121.38208  21529122.17708
  -7267900.89709  -5663297.42209  20184991.11209  20184992.30109
  20024326.48808  15603356.43108  24725367.77408  24725373.40108
  13449744.61107  10480303.16907  25222447.02107  25222453.10407
  -1140245.25708   -888502.19307  25286159.20308  25286161.64107
 93 07 04 21 46 00.0000000  0  7 24 03 25 20 12 01 29
  -5634697.54008  -4390668.62208  22193523.18908  22193525.05508
 -13901719.44508 -10832492.93108  22412220.13108  22412223.14808
 -19668179.87808 -15325844.18408  21514619.83208  21514620.65108
  -7219282.85609  -5625413.23609  20194242.85109  20194244.03709
  20254879.39208  15783007.76508  24769240.63508  24769246.46408
  13639182.55208  10627916.98207  25258495.93008  25258501.86407
  -1231408.46807   -959538.40207  25268811.25007  25268813.73307
 93 07 04 21 47 00.0000000  0  7 25 24 03 20 12 01 29
 -19742977.57008 -15384128.05408  21500386.24908  21500386.98008
  -5544437.73008  -4320336.31508  22210699.03408  22210700.89308
 -14098795.28008 -10986058.34708  22374717.69708  22374720.69408
  -7169766.17609  -5586828.81209  20203665.58009  20203666.77009
  20484824.91408  15962185.80408  24812998.07508  24813003.96408
  13827994.04608  10775042.77306  25294425.90008  25294431.48906
  -1321632.81007  -1029843.07907  25251642.16907  25251644.57907
 93 07 04 21 48 00.0000000  0  7 25 24 03 20 12 01 29
 -19816005.67608 -15441033.02808  21486489.45508  21486490.19308
  -5452706.07308  -4248857.11508  22228155.00708  22228156.92108
 -14295239.10008 -11139131.28208  22337335.57708  22337338.46908
  -7118990.70709  -5547263.51809  20213327.82009  20213329.03709
  20714507.84408  16141159.20308  24856705.59008  24856711.63308
  14016516.01708  10921942.95106  25330300.42608  25330306.14806
  -1410587.55208  -1099158.43807  25234714.71708  25234716.95107
 93 07 04 21 49 00.0000000  0  7 25 24 03 20 12 01 29
 -19886171.69608 -15495707.80008  21473137.19008  21473137.97908
  -5358335.79308  -4175321.84708  22246113.14408  22246114.94908
 -14489884.14308 -11290802.57108  22300295.73808  22300298.63208
  -7065805.67509  -5505820.64709  20223448.62109  20223449.82109
  20945065.17308  16320813.97108  24900579.46108  24900585.45508
  14205837.48908  11069466.01107  25366327.27008  25366333.36307
  -1497178.80508  -1166632.17907  25218236.94008  25218239.32307
 93 07 04 21 50 00.0000000  0  8 25 24 03 20 12 01 16 29
 -19954398.79208 -15548871.72408  21460153.93408  21460154.75108
  -5262129.58808  -4100355.98908  22264420.59808  22264422.37208
 -14683560.61108 -11441719.13208  22263440.20108  22263443.05408
  -7011057.01609  -5463159.36109  20233866.97809  20233868.13309
  21175636.90408  16500479.93908  24944456.00708  24944462.13608
  14395035.35707  11216892.79907  25402330.41107  25402336.85807
        -0.88317        -0.56917  25261264.93017  25261269.16817
  -1582270.91908  -1232937.69007  25202044.41708  25202046.49807
 93 07 04 21 51 00.0000000  0  7 24 03 25 20 12 01 16
  -5163219.50708  -4023283.22108  22283242.53108  22283244.35508
 -14875368.40408 -11591179.57708  22226940.25708  22226943.12208
 -20019816.17708 -15599846.26408  21447705.44108  21447706.20908
  -6953860.91909  -5418590.97909  20244751.07309  20244752.20409
  21407093.41508  16680835.35808  24988501.00808  24988506.99808
  14584949.21607  11364877.40408  25438469.61807  25438476.39508
   -178551.06307   -139130.41007  25227287.75907  25227292.14407
 93 07 04 21 52 00.0000000  0  7 24 03 25 20 12 01 16
  -5061826.87508  -3944276.01008  22302536.94908  22302538.79208
 -15065403.78508 -11739258.92208  22190777.62508  22190780.38108
 -20082503.54808 -15648693.52808  21435776.43108  21435777.18508
  -6894329.00409  -5372202.48709  20256079.61509  20256080.77109
  21639308.50608  16861781.90407  25032690.28908  25032696.29507
  14775485.81907  11513347.31208  25474727.93407  25474734.33208
   -355950.52807   -277363.63307  25193529.60407  25193534.06707
 93 07 04 21 53 00.0000000  0  8 24 03 25 20 12 01 16 17
  -4958835.25208  -3864022.82008  22322135.60308  22322137.48208
 -15254490.60308 -11886599.11508  22154795.47908  22154798.20508
 -20143119.30008 -15695926.53808  21424241.57108  21424242.31608
  -6833301.37509  -5324648.49109  20267692.79209  20267693.97009
  21871429.49207  17042655.10407  25076861.56507  25076867.76807
  14965853.64307  11661685.71607  25510953.94107  25510960.25307
   -533061.53407   -415372.05707  25159826.44107  25159830.69507
        -0.05417        -0.48617  25363345.10017  25363352.40217
 93 07 04 21 54 00.0000000  0  7 24 03 25 20 12 01 17
  -4854000.10308  -3782333.12508  22342085.10608  22342086.97408
 -15442382.63408 -12033008.31208  22119040.70408  22119043.33908
 -20201312.10108 -15741271.54008  21413167.82408  21413168.60508
  -6770547.97909  -5275749.74609  20279634.34009  20279635.54609
  22103672.37207  17223623.26207  25121056.10007  25121062.49207
  15156268.66807  11810060.92507  25547188.76607  25547195.10007
   -242746.33107   -189153.13807  25317151.69307  25317159.18507
 93 07 04 21 55 00.0000000  0  7 24 03 25 20 12 01 17
  -4746698.02408  -3698721.14708  22362504.11208  22362505.99408
 -15628427.55308 -12177978.21508  22083637.41008  22083639.94308
 -20256473.17808 -15784254.16408  21402671.02408  21402671.77108
  -6705432.81909  -5225010.66409  20292025.34809  20292026.57409
  22336660.55708  17405172.19207  25165392.49708  25165399.09407
  15347331.55607  11958940.98207  25583546.93807  25583553.33907
   -485182.38507   -378064.00808  25271017.31207  25271024.95808
 93 07 04 21 56 00.0000000  0  8 24 03 25 20 12 01 16 17
  -4638534.73008  -3614438.09108  22383086.86108  22383088.80308
 -15814175.11308 -12322716.41108  22048290.72308  22048293.25808
 -20310281.29708 -15826182.53608  21392431.65808  21392432.38708
  -6639522.40109  -5173651.90409  20304567.67809  20304568.92109
  22568815.02108  17586071.46207  25209570.40308  25209576.79607
  15537453.55807  12107087.88207  25619725.98607  25619732.37907
        -0.89717        -0.99318  25059380.48617  25059385.01918
   -728844.92707   -567930.59108  25224649.88007  25224657.12308
 93 07 04 21 57 00.0000000  0  7 24 03 25 20 12 16 17
  -4529198.55108  -3529241.09908  22403892.90108  22403894.83508
 -15999337.86908 -12466998.92008  22013055.31508  22013057.78108
 -20362470.84008 -15866849.68408  21382500.30008  21382501.03808
  -6572545.28309  -5121461.94909  20317313.00209  20317314.25309
  22800393.94108  17766522.26207  25253638.69008  25253645.19307
   -175851.78707   -137027.49908  25025917.17907  25025921.72608
   -973459.74207   -758539.15308  25178101.09107  25178108.14808
 93 07 04 21 58 00.0000000  0  7 24 03 25 20 12 16 17
  -4416543.91408  -3441458.29308  22425330.39808  22425332.32008
 -16181773.71208 -12609156.56908  21978338.78808  21978341.20908
 -20410949.19908 -15904625.00408  21373275.18008  21373275.93208
  -6502376.06309  -5066784.64109  20330665.78409  20330667.02309
  23033510.25308  17948170.99107  25297999.47508  25298006.10707
   -349623.94007   -272434.25608  24992849.43907  24992853.69408
  -1216848.33408   -948192.20507  25131785.54908  25131792.47007
 93 07 04 21 59 00.0000000  0  7 24 03 25 20 12 16 17
  -4299995.38608  -3350641.28808  22447508.89008  22447510.79208
 -16360893.35208 -12748730.17108  21944253.36108  21944255.78308
 -20455235.04808 -15939133.44008  21364847.85808  21364848.56008
  -6428441.59909  -5009173.37309  20344735.06109  20344736.31009
  23268724.73507  18131454.68207  25342759.41007  25342766.32807
   -520670.10007   -405716.82408  24960300.27507  24960304.58808
  -1458376.25608  -1136395.39307  25085824.12708  25085830.69107
 93 07 04 22 00 00.0000000  0  8 24 03 25 20 12 22 16 17
  -4182372.26608  -3258986.93908  22469891.79508  22469893.72308
 -16539448.92708 -12887864.25408  21910275.26308  21910277.64408
 -20498094.87408 -15972530.68608  21356691.83608  21356692.60408
  -6353510.88409  -4950785.80909  20358993.94309  20358995.16609
  23503255.74407  18314205.76107  25387389.51807  25387396.20407
        -0.27018        -0.05717  25180911.43618  25180914.90817
   -691757.38907   -539031.44208  24927743.42007  24927747.70008
  -1700707.45708  -1325224.56207  25039709.65808  25039716.11807
 93 07 04 22 01 00.0000000  0  8 24 03 25 20 12 22 16 17
  -4064392.94108  -3167055.03108  22492342.55008  22492344.47508
 -16718108.54208 -13027079.41808  21876277.39808  21876279.75208
 -20540012.99008 -16005194.13308  21348715.09808  21348715.82908
  -6278267.55309  -4892154.65209  20373312.27609  20373313.50509
  23736406.93307  18495881.66307  25431756.89807  25431763.69307
   -210370.56407   -163924.88207  25140878.93107  25140882.38207
   -863615.54907   -672946.72408  24895039.74507  24895043.93908
  -1944503.27407  -1515194.94507  24993316.46107  24993322.78407
 93 07 04 22 02 00.0000000  0  8 24 03 25 20 12 22 16 17
  -3945198.46508  -3074176.25508  22515024.56008  22515026.51608
 -16896026.16208 -13165716.41508  21842420.70808  21842423.08008
 -20580031.03708 -16036377.01208  21341099.90208  21341100.63008
  -6201882.22209  -4832633.62908  20387847.91909  20387849.12708
  23968995.88707  18677119.45807  25476017.47407  25476024.34707
   -421303.21007   -328287.85907  25100739.66107  25100743.07407
  -1035373.09908   -806783.60108  24862355.32008  24862359.44708
  -2189050.69207  -1705750.97907  24946780.06907  24946786.76907
 93 07 04 22 03 00.0000000  0  8 24 03 25 20 12 22 16 17
  -3823508.20808  -2979352.71608  22538181.46708  22538183.41808
 -17071899.02008 -13302760.09508  21808953.15908  21808955.48408
 -20616951.30708 -16065146.03708  21334074.22508  21334074.93108
  -6123069.46709  -4771221.11008  20402845.49109  20402846.73108
  24202296.54608  18858911.86507  25520413.46708  25520420.38007
   -631611.92207   -492164.65607  25060719.19607  25060722.91907
  -1205638.41908   -939457.70008  24829954.74708  24829958.74908
  -2433145.55807  -1895954.34907  24900330.16907  24900336.74007
 93 07 04 22 04 00.0000000  0  8 24 03 25 20 12 22 16 17
  -3699222.49808  -2882506.74908  22561832.31708  22561834.23708
 -17245532.21308 -13438058.59408  21775911.77708  21775914.07008
 -20650641.72908 -16091398.30208  21327663.14308  21327663.79108
  -6041651.08309  -4707778.23108  20418338.89009  20418340.16908
  24436475.83608  19041388.83307  25564976.60308  25564983.85507
   -841201.09108   -655480.81808  25020835.84308  25020839.41108
  -1374163.23908  -1070775.58908  24797885.41008  24797889.45708
  -2676506.64707  -2085586.03308  24854019.96107  24854026.50408
 93 07 04 22 05 00.0000000  0  8 24 03 25 20 12 22 16 17
  -3572855.89908  -2784039.30808  22585879.07408  22585881.07308
 -17417385.74808 -13571970.34908  21743209.10208  21743211.33508
 -20681507.06708 -16115449.20808  21321789.65708  21321790.27108
  -5958104.41209  -4642676.94608  20434237.29609  20434238.61208
  24671045.41108  19224169.95807  25609613.97008  25609621.35507
  -1050484.27707   -818558.51407  24981010.35607  24981013.88807
  -1541411.09008  -1201098.43008  24766059.12008  24766063.20208
  -2919416.27708  -2274865.93508  24807795.62108  24807801.98808
 93 07 04 22 06 00.0000000  0  8 24 03 25 20 12 22 16 17
  -3444413.70808  -2683954.52408  22610320.72408  22610322.82608
 -17587491.47908 -13704520.18908  21710838.98808  21710841.17308
 -20709490.32908 -16137254.33808  21316464.64308  21316465.26408
  -5872478.05009  -4575955.12108  20450531.47709  20450532.77508
  24905945.19507  19407208.34307  25654314.11407  25654321.71607
  -1259382.08307   -981335.86207  24941258.28807  24941261.75707
  -1707437.88608  -1330469.81808  24734465.16508  24734469.08408
  -3161923.79008  -2463832.53508  24761647.76908  24761654.01508
 93 07 04 22 07 00.0000000  0  8 24 03 25 20 12 22 16 17
  -3313972.39908  -2582311.99008  22635143.02208  22635145.07608
 -17755922.66008 -13835765.18508  21678787.55108  21678789.73308
 -20734809.46508 -16156983.52508  21311646.49408  21311647.21608
  -5784861.66009  -4507682.62408  20467204.35209  20467205.63408
  25141074.52907  19590425.54507  25699058.00007  25699065.75507
  -1467896.47608  -1143814.50207  24901579.33208  24901582.57107
  -1872291.88408  -1458927.34108  24703094.49008  24703098.24108
  -3404227.29708  -2652640.16608  24715538.64108  24715544.84908
 93 07 04 22 08 00.0000000  0  8 24 03 25 20 12 22 16 17
  -3182553.00608  -2479907.31208  22660151.34708  22660153.36908
 -17923662.03508 -13966471.11508  21646867.75808  21646869.91208
 -20758619.90808 -16175537.10708  21307115.58908  21307116.29308
  -5696255.08009  -4438638.55408  20484065.65009  20484066.94308
  25375422.63607  19773033.90707  25743653.21307  25743661.18307
  -1676957.65408  -1306719.17107  24861796.25208  24861799.52307
  -2036934.51908  -1587220.19808  24671763.93708  24671767.69608
  -3647348.67708  -2842085.06608  24669273.91608  24669280.05708
 93 07 04 22 09 00.0000000  0  8 03 24 25 20 12 22 16 17
 -18090053.61308 -14096126.82908  21615204.43508  21615206.59708
  -3049558.24708  -2376275.09408  22685459.49608  22685461.45608
 -20780149.96108 -16192313.77608  21303018.56108  21303019.25208
  -5606019.26209  -4368324.96408  20501236.99409  20501238.26008
  25609617.73407  19955523.07607  25788219.70107  25788227.35907
  -1885945.48908  -1469566.65807  24822026.85808  24822030.25907
  -2200713.94008  -1714840.39808  24640597.55708  24640601.44808
  -3890558.11207  -3031598.56307  24622992.40307  24622998.30807
 93 07 04 22 10 00.0000000  0  8 03 24 25 20 12 22 16 17
 -18253961.78908 -14223847.40208  21584013.69008  21584015.81408
  -2913890.70108  -2270560.16108  22711276.18608  22711278.20408
 -20798091.88208 -16206294.47608  21299604.29908  21299604.96408
  -5513035.26809  -4295869.91808  20518931.26509  20518932.52908
  25844768.79107  20138757.11907  25832967.87407  25832975.67807
  -2093808.01008  -1631537.28107  24782471.75308  24782475.02507
  -2362568.77108  -1840960.91108  24609797.46808  24609801.24908
  -4132665.06007  -3220252.93507  24576920.79907  24576926.41907
 93 07 04 22 11 00.0000000  0  8 03 24 25 20 12 22 16 17
 -18415687.36408 -14349867.25608  21553238.30808  21553240.39608
  -2775850.60708  -2162996.50108  22737544.39808  22737546.35208
 -20812800.41308 -16217755.66008  21296805.35008  21296806.03608
  -5417621.76809  -4221521.76208  20537087.88609  20537089.16108
  26080547.60607  20322480.31806  25877835.45307  25877843.49406
  -2300937.55108  -1792936.80007  24743056.49108  24743059.60207
  -2522803.06808  -1965818.67908  24579306.01208  24579309.65608
  -4373943.84708  -3408261.96007  24531006.48208  24531012.22007
 93 07 04 22 12 00.0000000  0  8 03 24 25 20 12 22 16 17
 -18577189.11508 -14475712.69908  21522505.49908  21522507.59708
  -2637401.10908  -2055113.83108  22763890.44408  22763892.45908
 -20826424.46308 -16228371.80008  21294212.80108  21294213.48608
  -5321753.96909  -4146819.60908  20555330.95709  20555332.20108
  26314969.05107  20505145.78106  25922444.95007  25922452.95606
  -2509295.39808  -1955293.46507  24703407.20608  24703410.30307
  -2683264.34408  -2090853.30408  24548770.97308  24548774.67108
  -4616377.90308  -3597171.16208  24484872.36008  24484878.18508
 93 07 04 22 13 00.0000000  0  8 03 24 25 20 12 22 16 17
 -18737123.16408 -14600336.55608  21492071.01408  21492073.06008
  -2497259.58708  -1945912.70408  22790558.50308  22790560.57308
 -20837675.17408 -16237138.58808  21292071.85908  21292072.52108
  -5224105.47209  -4070729.89908  20573912.84209  20573914.11508
  26549350.07207  20687779.82607  25967046.58507  25967054.94407
  -2717459.66708  -2117499.25008  24663794.59108  24663797.88508
  -2842549.94208  -2214971.83408  24518459.88808  24518463.52008
  -4858692.31608  -3785987.12408  24438761.34908  24438766.91208
 93 07 04 22 14 00.0000000  0  8 03 24 25 20 12 22 16 17
 -18895041.24908 -14723389.53308  21462020.14708  21462022.16508
  -2355084.62708  -1835127.08008  22817613.48508  22817615.64308
 -20845954.51208 -16243590.01708  21290496.40608  21290497.02108
  -5124245.25009  -3992916.76808  20592915.64509  20592916.91908
  26784113.15407  20870711.53307  26011720.97607  26011729.54507
  -2924966.04908  -2279192.36608  24624307.31708  24624310.56008
  -3000229.00608  -2337838.49508  24488454.35808  24488457.98408
  -5100397.36508  -3974328.24908  24392765.99508  24392771.55008
 93 07 04 22 15 00.0000000  0  8 03 24 25 20 12 22 16 17
 -19051646.43208 -14845419.47808  21432219.10408  21432221.15008
  -2211579.34808  -1723304.85608  22844921.76108  22844923.97008
 -20851911.49508 -16248231.82308  21289362.77408  21289363.45808
  -5022893.66309  -3913941.53508  20612202.21709  20612203.51008
  27018529.12407  21053372.74107  26056329.21007  26056337.91207
  -3132509.16508  -2440914.10808  24584813.09008  24584816.22908
  -3157027.76408  -2460019.22208  24458616.40908  24458620.15808
  -5342090.19708  -4162659.83608  24346772.92108  24346778.52408
 93 07 04 22 16 00.0000000  0  7 03 25 24 22 16 20 17
 -19206712.81208 -14966250.35608  21402710.87308  21402712.92508
 -20855433.58108 -16250976.30608  21288692.54508  21288693.25208
  -2066450.34708  -1610217.39308  22872538.97008  22872541.09308
  -3339863.08308  -2602488.41008  24545354.83008  24545357.91608
  -3312737.55608  -2581351.37708  24428985.84808  24428989.42208
  -4919841.76509  -3833641.38808  20631812.37809  20631813.71108
  -5583477.91608  -4350753.66008  24300838.01608  24300843.35508
 93 07 04 22 17 00.0000000  0  7 03 25 24 20 22 16 17
 -19359330.41008 -15085173.09508  21373668.62908  21373670.70208
 -20855681.27408 -16251169.31808  21288645.46408  21288646.10308
  -1918805.41708  -1495169.46308  22900635.03908  22900637.16108
  -4814196.49109  -3751320.43108  20651916.02609  20651917.37508
  -3546122.63008  -2763209.95108  24506104.80008  24506107.80108
  -3466436.24508  -2701116.47708  24399737.87908  24399741.34408
  -5823733.54608  -4537965.35808  24255118.60408  24255123.77908
 93 07 04 22 18 00.0000000  0  8 03 25 24 29 20 22 16 17
 -19510202.25108 -15202735.51308  21344958.67408  21344960.68708
 -20853243.51508 -16249269.78708  21289109.33208  21289110.00708
  -1769433.05008  -1378775.49108  22929059.69708  22929061.80608
         0.24618         0.10017  24908727.80318  24908730.20517
  -4706677.90309  -3667539.75908  20672376.18109  20672377.53208
  -3752015.78308  -2923646.00308  24466924.44108  24466927.66408
  -3618770.70108  -2819818.53808  24370749.50908  24370753.12408
  -6063636.52508  -4724902.29308  24209466.26008  24209471.21408
 93 07 04 22 19 00.0000000  0  8 03 25 24 29 20 22 16 17
 -19659258.33508 -15318883.03608  21316594.19908  21316596.19208
 -20848002.68508 -16245186.01908  21290106.64408  21290107.34008
  -1618346.20108  -1261045.53608  22957810.61708  22957812.69708
    -23641.08008    -18421.64408  24904229.14408  24904231.74008
  -4597232.98409  -3582258.02708  20693202.85809  20693204.26008
  -3957502.52508  -3083765.35108  24427821.60008  24427824.57808
  -3769640.38408  -2937379.17508  24342039.92308  24342043.29008
  -6303101.17408  -4911497.68508  24163897.33908  24163902.14208
 93 07 04 22 20 00.0000000  0  8 03 25 24 29 22 20 16 17
 -19806608.67008 -15433701.40708  21288554.30808  21288556.29908
 -20840235.48208 -16239133.66508  21291584.70008  21291585.43208
  -1465682.24408  -1142086.68008  22986861.59208  22986863.74008
    -45044.06508    -35099.25607  24900156.39908  24900158.71007
  -4162628.95708  -3243603.94308  24388787.14808  24388790.03708
  -4485989.56408  -3495574.87708  20714371.80408  20714373.18908
  -3919196.19808  -3053916.07208  24313580.31508  24313583.64108
  -6542158.69208  -5097775.86308  24118406.01508  24118410.56308
 93 07 04 22 21 00.0000000  0  8 03 25 24 29 22 20 16 17
 -19952441.73108 -15547337.49308  21260803.17008  21260805.10508
 -20830221.05108 -16231330.22408  21293490.35608  21293491.07308
  -1311623.77308  -1022041.19308  23016178.04308  23016180.22108
    -64507.16908    -50265.25407  24896452.70408  24896454.98407
  -4367545.68808  -3403279.15908  24349792.71008  24349795.57208
  -4373153.67609  -3407650.84208  20735843.81509  20735845.14708
  -4067584.87108  -3169543.48708  24285342.71808  24285346.26808
  -6780965.56008  -5283858.75408  24072962.24908  24072966.86808
 93 07 04 22 22 00.0000000  0  8 03 25 24 29 22 20 16 17
 -20096552.22908 -15659631.32408  21233379.83408  21233381.73908
 -20817644.04708 -16221529.97108  21295883.69808  21295884.40708
  -1155920.80508   -900714.28108  23045807.39408  23045809.55708
    -81899.30308    -63817.57207  24893143.17108  24893145.13107
  -4572092.33608  -3562665.98108  24310868.64908  24310871.44308
  -4258536.98309  -3318339.16908  20757654.67509  20757656.01008
  -4214494.24508  -3284018.22608  24257386.78908  24257390.22208
  -7019323.45308  -5469591.78908  24027603.79008  24027608.45608
 93 07 04 22 23 00.0000000  0  8 03 25 24 29 22 20 16 17
 -20238771.67708 -15770451.61308  21206316.34108  21206318.21608
 -20802248.94008 -16209533.78908  21298813.31508  21298814.01808
   -998361.24908   -777940.68008  23075789.95808  23075792.18308
    -97018.04908    -75598.36407  24890265.90608  24890268.14607
  -4776102.56608  -3721634.81308  24272046.62608  24272049.43408
  -4141988.25108  -3227522.01508  20779833.17908  20779834.56708
  -4359735.30108  -3397192.98208  24229748.13308  24229751.60508
  -7257026.11508  -5654814.27708  23982370.29108  23982374.87608
 93 07 04 22 24 00.0000000  0  8 03 25 24 29 22 20 16 17
 -20380479.83008 -15880873.49408  21179350.14308  21179352.03208
 -20785459.65808 -16196451.24308  21302008.29908  21302009.02208
   -840436.24108   -654882.31308  23105842.20308  23105844.42708
   -111221.39708    -86665.92107  24887563.23608  24887565.39107
  -4980876.80508  -3881198.94408  24233079.08408  24233082.01608
  -4024904.58508  -3136288.03708  20802113.50808  20802114.90408
  -4504781.93308  -3510216.22108  24202146.55808  24202150.09008
  -7495450.46608  -5840599.13508  23936999.39108  23937003.95408
 93 07 04 22 25 00.0000000  0  8 03 25 24 29 22 20 16 17
 -20521421.41608 -15990698.04708  21152529.81608  21152531.71408
 -20767058.42208 -16182112.62008  21305509.89908  21305510.59508
   -682079.30608   -531487.37308  23135976.53208  23135978.80108
   -124187.66808    -96769.49007  24885095.95908  24885098.00207
  -5186136.72708  -4041141.53908  24194019.32508  24194022.19108
  -3907048.10308  -3044451.86108  20824540.87808  20824542.28808
  -4649453.66608  -3622947.33708  24174616.48508  24174619.94708
  -7734391.55408  -6026786.63508  23891530.28108  23891534.61308
 93 07 04 22 26 00.0000000  0  8 03 25 24 29 22 20 16 17
 -20659857.49308 -16098570.26008  21126186.24808  21126188.14408
 -20745298.41408 -16165156.77908  21309650.65608  21309651.37708
   -521628.61908   -406460.92708  23166509.35808  23166511.52408
   -134112.07508   -104502.79407  24883207.42608  24883209.43107
  -5390235.44908  -4200179.33308  24155180.53508  24155183.25708
  -3786696.52408  -2950671.45608  20847443.06608  20847444.48308
  -4791985.81708  -3734011.21208  24147493.37608  24147496.67008
  -7972109.07608  -6212020.70808  23846293.87108  23846298.01108
 93 07 04 22 27 00.0000000  0  8 03 25 24 29 22 20 16 17
 -20794561.81508 -16203534.61108  21100552.84208  21100554.69208
 -20718960.28608 -16144633.57208  21314662.71908  21314663.43608
   -357762.74308   -278773.30808  23197692.09808  23197694.28608
   -139810.16708   -108942.83608  24882123.21908  24882125.22008
  -5592007.75608  -4357404.33408  24116784.39208  24116787.09908
  -3662641.77308  -2854005.46608  20871049.95608  20871051.36208
  -4931094.94208  -3842407.80908  24121021.69508  24121025.00508
  -8207364.83508  -6395336.55208  23801525.83008  23801529.84808
 93 07 04 22 28 00.0000000  0  8 03 25 24 29 22 20 16 17
 -20927026.04109 -16306753.44408  21075345.69409  21075347.52108
 -20689589.45608 -16121747.22708  21320251.74908  21320252.44408
   -191899.06108   -149528.95208  23229255.05208  23229257.29208
   -142854.40408   -111314.94608  24881543.90508  24881545.87408
  -5792899.61408  -4513943.29408  24078555.96608  24078558.51708
  -3536392.07908  -2755629.13108  20895074.52108  20895075.93708
  -5068200.76508  -3949243.37408  24094931.05908  24094934.52408
  -8441627.79108  -6577878.79008  23756946.66808  23756950.81508
 93 07 04 22 29 00.0000000  0  8 03 25 24 29 22 20 16 17
 -21058742.12509 -16409389.30008  21050280.94409  21050282.79008
 -20658756.87208 -16097721.84308  21326118.94908  21326119.69908
    -25542.25508    -19900.34308  23260911.60808  23260914.03908
   -144808.06208   -112837.23408  24881171.97708  24881174.17208
  -5994398.76508  -4670955.45108  24040211.75908  24040214.38508
  -3409456.58108  -2656718.39408  20919229.58508  20919230.99908
  -5204741.90708  -4055638.93408  24068948.33908  24068951.62808
  -8676331.60208  -6760764.52408  23712283.86908  23712287.85508
 93 07 04 22 30 00.0000000  0  8 03 25 24 29 22 20 16 17
 -21189385.75709 -16511189.48708  21025420.26009  21025422.05308
 -20626198.03708 -16072351.33508  21332314.72208  21332315.47808
    141541.50508    110294.72008  23292706.63908  23292709.03608
   -145324.60708   -113239.72007  24881073.53608  24881075.77607
  -6196194.52008  -4828198.72708  24001811.27908  24001813.79408
  -3281528.57408  -2557034.27508  20943573.50208  20943574.94308
  -5340376.50008  -4161328.09408  24043137.76608  24043140.97208
  -8911027.49108  -6943644.10408  23667622.49108  23667626.45108
 93 07 04 22 31 00.0000000  0  8 03 25 24 29 22 20 16 17
 -21318519.95909 -16611813.49808  21000846.83509  21000848.58508
 -20591422.59608 -16045253.61108  21338932.33008  21338933.07008
    309701.05008    241328.05808  23324706.46508  23324708.84808
   -143917.20408   -112143.03407  24881341.34708  24881343.49007
  -6397799.57608  -4985293.40308  23963446.91608  23963449.38808
  -3152188.30408  -2456249.69008  20968186.15908  20968187.62608
  -5474702.12608  -4265997.29508  24017576.35808  24017579.46608
  -9145251.37108  -7126155.85908  23623050.92108  23623054.89308
 93 07 04 22 32 00.0000000  0  8 20 25 24 29 22 03 16 17
  -3020781.27808  -2353854.64508  20993192.09208  20993193.60308
 -20553631.82308 -16015806.27608  21346123.71008  21346124.50308
    479549.73108    373677.60008  23357027.66908  23357029.97208
   -139909.25808   -109019.94707  24882103.74108  24882106.20907
  -6598478.11808  -5141666.10108  23925258.94208  23925261.36108
 -21445473.34909 -16710738.17408  20976688.37009  20976690.10808
  -5607093.26608  -4369159.12208  23992383.15408  23992386.17408
  -9378436.04908  -7307857.85208  23578677.06108  23578680.91608
 93 07 04 22 36 00.0000000  0  5 20 25 17 22 03
         0.11718        -0.18018  21123601.17618  21123602.65418
        -0.03418         0.15918  21406965.87118  21406966.65918
        -0.05818         0.07318  23429526.61818  23429529.98418
        -0.35918         0.43418  23800767.06918  23800769.37318
        -0.00219         0.04018  20910722.45919  20910724.20018
 93 07 04 22 37 00.0000000  0  5 20 25 17 22 03
    192472.56908    149978.30608  21160227.51008  21160229.02508
    103158.96608     80383.76008  21426596.46508  21426597.25508
   -177262.12608   -138125.94708  23395794.60108  23395797.83408
   -145145.25308   -113099.33608  23773146.90208  23773149.04208
    -65059.97709    -50696.00208  20898341.90709  20898343.64308
 93 07 04 22 38 00.0000000  0  7 20 25 16 17 22 29 03
    358618.30808    279442.47408  21191844.00808  21191845.52308
    180843.16908    140916.87308  21441379.31508  21441380.11908
        -0.12018        -0.61818  23889870.44218  23889873.67318
   -381689.33708   -297419.64808  23356893.26108  23356896.54308
   -317736.53208   -247585.93008  23740303.72408  23740305.90708
        -0.03818        -0.98317  24937389.48418  24937391.23617
   -156230.12109   -121737.63308  20880992.76309  20880994.50608
 93 07 04 22 39 00.0000000  0  7 20 25 16 17 22 29 03
    518450.82708    403987.25008  21222259.13208  21222260.63708
    253104.22508    197224.15708  21455130.19208  21455131.02308
   -103612.37208    -80737.37108  23870153.63508  23870156.81508
   -593186.37908   -462222.33208  23316646.48008  23316649.71108
   -497724.55408   -387836.17808  23706053.02608  23706055.25008
     36023.40708     28069.25107  24944244.42608  24944246.42007
   -253479.89809   -197516.63908  20862486.71109  20862488.43208
 93 07 04 22 40 00.0000000  0  7 20 25 16 17 22 29 03
    666189.71108    519108.41408  21250372.93808  21250374.49408
    314182.43608    244817.53208  21466753.02208  21466753.90908
   -219318.28108   -170897.74308  23848135.44408  23848138.60808
   -817478.82608   -636995.49308  23273964.89408  23273968.16508
   -690788.31608   -538275.32908  23669314.17308  23669316.21408
     60464.13708     47113.96407  24948895.43008  24948897.40307
   -362572.04709   -282523.46508  20841727.15909  20841728.89308
 93 07 04 22 41 00.0000000  0  7 20 25 16 17 22 29 03
    763370.61208    594833.73608  21268865.84508  21268867.43708
    325595.20708    253710.56208  21468924.78408  21468925.59908
   -385404.01408   -300315.11508  23816530.40208  23816533.45108
  -1093018.74708   -851701.75108  23221531.25508  23221534.48408
   -935419.65908   -728897.00408  23622762.19608  23622764.37108
     34877.25108     27176.14907  24944026.46708  24944028.44307
   -521954.26909   -406717.36208  20811397.69709  20811399.40908
 93 07 04 22 42 00.0000000  0  7 20 25 16 17 22 29 03
    847998.75508    660777.69408  21284970.11708  21284971.71008
    325337.10108    253509.40408  21468875.71308  21468876.52808
   -563733.42608   -439273.01808  23782595.36908  23782598.34308
  -1381880.96108  -1076789.04008  23166562.54308  23166565.67708
  -1193611.88008   -930085.61308  23573629.75708  23573631.79508
     -2685.28408     -2093.37107  24936878.56008  24936880.59707
   -693605.30709   -540471.37708  20778733.54409  20778735.24908
 93 07 04 22 43 00.0000000  0  7 20 25 16 17 22 29 03
    959270.11608    747482.60008  21306144.40208  21306145.95908
    352557.17908    274719.81508  21474055.51208  21474056.33408
   -715145.65108   -557256.47908  23753782.63008  23753785.55008
  -1644919.93508  -1281754.33008  23116507.76808  23116510.84808
  -1426040.59308  -1111198.76808  23529400.03608  23529401.92008
    -12968.80208    -10106.51307  24934921.60508  24934923.52107
   -838312.22609   -653229.98108  20751196.73509  20751198.38908
 93 07 04 22 44 00.0000000  0  7 20 25 16 17 22 03 29
   1096385.02808    854325.34508  21332236.56208  21332238.08008
    406458.55008    316720.84408  21484312.65908  21484313.45208
   -840510.74108   -654943.46708  23729926.42808  23729929.21908
  -1882857.39808  -1467159.99808  23071229.73008  23071232.77408
  -1633427.91708  -1272799.16108  23489935.38208  23489937.32408
   -956858.06909   -745603.32908  20728638.23209  20728639.85108
      3219.59608      2507.82807  24938002.16308  24938004.24707
 93 07 04 22 45 00.0000000  0  7 20 25 16 17 03 22 29
   1234016.82308    961570.85408  21358427.06208  21358428.58508
    461781.14308    359829.31508  21494840.31308  21494841.09908
   -965082.62108   -752012.37308  23706220.94808  23706223.90508
  -2120883.82508  -1652634.98608  23025934.62508  23025937.65408
  -1074552.20609   -837313.01308  20706241.72609  20706243.38108
  -1841110.07108  -1434629.29008  23450414.72308  23450416.60808
     20484.26408     15960.80908  24941287.47908  24941289.74508
 93 07 04 22 46 00.0000000  0  8 20 16 17 22 24 03 29 25
   1375350.94508   1071701.29508  21385322.09308  21385323.66008
  -1085583.74508   -845909.25708  23683290.25508  23683293.11208
  -2355744.51508  -1835643.15008  22981242.00008  22981245.04808
  -2045922.75508  -1594223.47308  23411440.05708  23411441.90308
        -0.75418        -0.40718  23844397.16718  23844399.77918
  -1188192.76909   -925864.07108  20684616.62509  20684618.24608
     41987.57808     32716.62207  24945379.52408  24945381.50807
    521770.36008    406574.11308  21506255.82808  21506256.68308
 93 07 04 22 47 00.0000000  0  8 20 16 17 22 03 24 29 25
   1521705.31408   1185743.60408  21413172.43708  21413174.03508
  -1200637.26708   -935561.26308  23661396.17508  23661399.16608
  -2586157.52508  -2015185.56208  22937395.62108  22937398.75708
  -2246511.63608  -1750526.37208  23373269.14508  23373270.99608
  -1296445.41009  -1010216.74808  20664016.81309  20664018.42408
    179043.62608    139514.60808  23878468.34508  23878471.01108
     69070.81508     53820.43808  24950533.11208  24950535.67208
    587656.36708    457913.80508  21518793.51408  21518794.34508
 93 07 04 22 48 00.0000000  0  8 20 16 17 22 03 24 29 25
   1672326.44308   1303110.65308  21441834.74408  21441836.38208
  -1311000.89508  -1021558.80708  23640394.79808  23640397.61108
  -2812884.81208  -2191855.97708  22894250.77708  22894253.72808
  -2443680.22008  -1904164.10308  23335749.23708  23335750.92708
  -1400046.84009  -1090945.10308  20644302.09809  20644303.71108
    361930.83808    282024.02908  23913270.62908  23913273.30008
    100982.78108     78686.89508  24956605.89208  24956608.01208
    658602.93308    513196.79208  21532294.32508  21532295.17408
 93 07 04 22 49 00.0000000  0  8 20 16 17 22 03 24 29 25
   1825489.82008   1422458.66008  21470980.81208  21470982.48008
  -1418387.95008  -1105236.94608  23619959.57408  23619962.34308
  -3037634.31508  -2366985.26108  22851482.22508  22851485.12708
  -2639222.17208  -2056534.32308  23298538.61308  23298540.52808
  -1500704.89109  -1169379.91508  20625147.48809  20625149.09508
    546844.24708    426112.32208  23948458.50808  23948461.19508
    136009.61508    105980.52907  24963271.04208  24963273.40707
    732928.96408    571113.12708  21546438.09008  21546438.94508
 93 07 04 22 50 00.0000000  0  7 16 20 17 22 03 29 25
  -1522618.89808  -1186455.77308  23600125.04608  23600127.73708
   1981396.11408   1543944.01208  21500648.83508  21500650.54708
  -3260130.00208  -2540358.32008  22809142.58108  22809145.40208
  -2832854.87408  -2207416.82808  23261691.48508  23261693.25808
  -1598202.95209  -1245352.39408  20606594.21609  20606595.80908
    174419.24608    135910.05208  24970580.55408  24970582.68508
    810959.17408    631915.83008  21561286.74508  21561287.68108
 93 07 04 22 51 00.0000000  0  7 16 20 17 22 03 29 25
  -1623852.33908  -1265338.88808  23580860.89308  23580863.67808
   2139878.58708   1667436.77708  21530807.11008  21530808.81308
  -3480477.17608  -2712057.22308  22767211.71008  22767214.45808
  -3024551.24608  -2356790.51108  23225212.76008  23225214.52708
  -1692691.42609  -1318979.74808  20588613.63709  20588615.20808
    216065.04108    168361.31507  24978505.35708  24978507.43707
    892519.75108    695469.47008  21576807.29008  21576808.21908
 93 07 04 22 52 00.0000000  0  7 16 20 17 03 22 29 25
  -1722238.12408  -1342003.05308  23562138.58608  23562141.42108
   2300709.24508   1792759.30208  21561412.21008  21561413.91808
  -3698900.30908  -2882256.87908  22725647.08108  22725649.79008
  -1784381.29909  -1390426.37508  20571165.61309  20571167.16908
  -3214476.57908  -2504784.17408  23189071.08708  23189072.78808
    260622.41708    203081.33607  24986984.46008  24986986.58007
    977289.34808    761523.64808  21592938.46608  21592939.37908
 93 07 04 22 53 00.0000000  0  8 16 20 17 03 22 18 29 25
  -1817820.42708  -1416482.69108  23543949.86508  23543952.63408
   2463743.14308   1919798.64008  21592436.59508  21592438.34508
  -3915513.60308  -3051046.27308  22684426.78008  22684429.55308
  -1873401.64509  -1459792.85208  20554225.56509  20554227.13708
  -3402878.48808  -2651590.76508  23153219.42408  23153221.14208
         0.18718        -0.46117  25204707.35218  25204710.28017
    307883.34508    239908.00207  24995978.08508  24995979.86107
   1065061.88208    829917.77408  21609641.09508  21609642.06508
 93 07 04 22 54 00.0000000  0  8 16 20 17 03 22 18 29 25
  -1910710.18308  -1488864.24008  23526273.45008  23526276.17108
   2628797.54908   2048412.39608  21623845.43908  21623847.20008
  -4130440.45608  -3218521.55808  22643527.45308  22643530.15508
  -1959919.40509  -1527209.26208  20537761.74009  20537763.32208
  -3589979.71908  -2797383.84408  23117615.11908  23117616.76408
    -63244.04208    -49281.65207  25192672.38608  25192675.19007
    357688.03608    278716.78207  25005455.37908  25005457.48607
   1155686.30108    900534.14308  21626886.32908  21626887.33708
 93 07 04 22 55 00.0000000  0  8 16 20 17 03 22 18 29 25
  -2001173.94908  -1559355.41108  23509058.62208  23509061.54608
   2795656.72008   2178432.46708  21655597.72008  21655599.50508
  -4343858.74308  -3384821.34708  22602915.06208  22602917.67808
  -2044133.64409  -1592830.71908  20521736.30209  20521737.84808
  -3775930.84008  -2942280.73208  23082229.74908  23082231.39008
   -123991.06208    -96616.95307  25181112.55608  25181115.44907
    409940.79308    319433.22207  25015398.74608  25015400.81107
   1249013.45308    973256.54008  21644645.95608  21644646.99208
 93 07 04 22 56 00.0000000  0  8 16 20 17 03 22 18 29 25
  -2089255.89808  -1627990.62108  23492297.13608  23492299.92408
   2964309.73808   2309850.34308  21687691.39508  21687693.18108
  -4555816.03008  -3549982.70008  22562580.82808  22562583.36808
  -2126040.25809  -1656654.02908  20506149.94209  20506151.52408
  -3960655.68908  -3086222.07608  23047077.65908  23047079.26308
   -182188.54608   -141965.60307  25170037.96008  25170040.77807
    464758.61408    362148.36407  25025830.42808  25025832.53807
   1345072.49808   1048107.68808  21662925.42108  21662926.47708
 93 07 04 22 57 00.0000000  0  8 16 20 17 03 22 18 29 25
  -2175126.15708  -1694902.42708  23475956.59608  23475959.21108
   3134551.65608   2442506.30908  21720087.44108  21720089.21808
  -4766491.45708  -3714145.20508  22522490.56108  22522493.08908
  -2205828.34809  -1718826.54108  20490966.72509  20490968.33608
  -4144265.81008  -3229294.78708  23012137.71408  23012139.37408
   -237989.28308   -185446.67107  25159419.34908  25159422.03807
    521911.51108    406683.09207  25036706.23608  25036708.39207
   1443588.74008   1124873.53608  21681672.52708  21681673.54808
 93 07 04 22 58 00.0000000  0  8 16 20 17 03 22 18 29 25
  -2258764.64808  -1760075.18108  23460040.67108  23460043.48008
   3306287.82208   2576326.62908  21752767.78708  21752769.58808
  -4975939.89008  -3877351.62808  22482633.79408  22482636.20508
  -2283576.22609  -1779409.27808  20476171.80709  20476173.39208
  -4326865.02208  -3371579.76308  22977390.24708  22977391.84308
   -291476.60908   -227125.05807  25149240.99108  25149243.80807
    581142.52108    452837.06607  25047977.45508  25047979.54707
   1544375.94108   1203408.95708  21700851.74508  21700852.73008
 93 07 04 22 59 00.0000000  0  8 16 20 17 03 22 18 29 25
  -2340177.03808  -1823513.31208  23444548.32108  23444551.02808
   3479508.54608   2711303.74208  21785730.62508  21785732.46208
  -5184107.57208  -4039560.07008  22443020.63908  22443023.08908
  -2359278.11509  -1838397.74108  20461766.17409  20461767.75508
  -4508460.19008  -3513082.37908  22942833.72308  22942835.25108
   -342656.68307   -267005.61207  25139501.59007  25139504.50207
    642345.03908    500527.31007  25059623.83808  25059626.19207
   1647423.10608   1283705.38208  21720461.04808  21720462.05808
 93 07 04 23 00 00.0000000  0  8 16 20 17 03 22 18 29 25
  -2419025.50208  -1884953.58208  23429543.91308  23429546.48908
   3654636.06308   2847766.67408  21819056.34308  21819058.17008
  -5390459.06908  -4200353.29708  22403753.06908  22403755.48808
  -2432495.38409  -1895450.13708  20447833.39309  20447834.97208
  -4688604.37908  -3653454.36508  22908553.30708  22908554.88208
   -391121.36707   -304770.25007  25130278.99107  25130282.00907
    705991.87908    550122.22107  25071735.73808  25071738.06407
   1753229.83408   1366152.10808  21740595.42708  21740596.54208
 93 07 04 23 01 00.0000000  0  8 16 20 17 03 22 18 29 25
  -2496810.76508  -1945565.37808  23414741.85708  23414744.51708
   3830129.25108   2984514.54508  21852451.63708  21852453.48008
  -5596472.74508  -4360883.29308  22364549.91408  22364552.28408
  -2504754.33609  -1951755.79208  20434082.94609  20434084.50708
  -4868803.03908  -3793868.81508  22874262.57108  22874264.06608
   -438414.58107   -341622.03007  25121279.23307  25121282.05407
    770622.72608    600483.88007  25084034.47008  25084036.47907
   1860334.45708   1449610.18308  21760976.84608  21760977.90808
 93 07 04 23 02 00.0000000  0  8 16 20 17 03 22 18 29 25
  -2572809.54308  -2004785.12908  23400279.77408  23400282.32508
   4006575.62108   3122005.15908  21886028.35708  21886030.17908
  -5801583.59208  -4520709.80008  22325518.50708  22325520.81908
  -2575451.62709  -2006844.56708  20420629.70609  20420631.22908
  -5048507.40708  -3933898.11308  22840065.79908  22840067.30108
   -483889.16207   -377056.70207  25112625.62807  25112628.39207
    836822.10608    652067.76407  25096631.79708  25096634.17407
   1969369.19908   1534572.23908  21781725.55008  21781726.63108
 93 07 04 23 03 00.0000000  0  8 16 20 17 03 22 18 29 25
  -2645738.94108  -2061613.15208  23386401.67808  23386404.14408
   4185180.42908   3261177.66908  21920015.79008  21920017.65408
  -6004648.91508  -4678942.40608  22286876.39208  22286878.73008
  -2643366.21709  -2059765.00208  20407705.97909  20407707.51508
  -5226524.73708  -4072612.83408  22806190.25808  22806191.73708
   -526331.39207   -410128.53007  25104549.19907  25104552.09507
    905775.15608    705797.38207  25109752.96408  25109755.50207
   2081528.45008   1621968.97308  21803068.82008  21803069.89608
 93 07 04 23 04 00.0000000  0  8 16 20 17 03 22 18 29 25
  -2716282.71808  -2116582.24508  23372977.37608  23372979.90708
   4365360.40408   3401577.58208  21954302.93308  21954304.79508
  -6206210.31408  -4836003.12808  22248520.43608  22248522.77708
  -2709066.36509  -2110959.90008  20395203.63109  20395205.15008
  -5403321.69208  -4210376.60708  22772546.82108  22772548.35308
   -566340.16907   -441304.13007  25096935.91207  25096938.75507
    976911.16808    761227.98507  25123290.04308  25123292.13707
   2196124.69308   1711264.66008  21824875.80808  21824876.95208
 93 07 04 23 05 00.0000000  0  8 16 20 17 03 22 18 29 25
  -2784679.25608  -2169878.18108  23359962.03508  23359964.55108
   4546939.64508   3543067.82608  21988856.35008  21988858.27808
  -6406364.03408  -4991966.95408  22210432.35608  22210434.63608
  -2772713.13309  -2160554.76608  20383092.03709  20383093.57708
  -5578988.73608  -4347259.92108  22739118.42608  22739119.98708
   -604035.88207   -470677.33907  25089762.40707  25089765.23007
   1050039.66008    818211.14007  25137206.11608  25137208.13107
   2312890.10508   1802250.60508  21847095.58608  21847096.73508
 93 07 04 23 06 00.0000000  0  8 16 20 17 03 22 18 29 25
  -2850847.04208  -2221437.44308  23347370.67708  23347373.17508
   4729903.15508   3685636.71708  22023673.17908  22023675.20108
  -6605057.78808  -5146793.15008  22172622.14108  22172624.34508
  -2834306.08209  -2208549.25708  20371371.27109  20371372.81708
  -5753506.47308  -4483247.67308  22705908.78808  22705910.20808
   -639340.26708   -498187.18607  25083044.35508  25083046.94107
   1125138.38808    876729.52307  25151497.10608  25151499.16907
   2431787.20208   1894897.60008  21869721.07308  21869722.26108
 93 07 04 23 07 00.0000000  0  8 16 20 17 03 22 18 29 25
  -2914768.56808  -2271246.38108  23335206.72108  23335209.29908
   4914097.70408   3829164.85508  22058724.25508  22058726.27108
  -6802423.25108  -5300584.31008  22135064.71308  22135066.94308
  -2893984.30309  -2255051.75108  20360014.87809  20360016.42508
  -5927102.79708  -4618517.44008  22672874.44908  22672875.94408
   -672374.22008   -523927.89307  25076758.10908  25076760.64607
   1202137.50908    936728.80907  25166149.33408  25166151.83007
   2552721.81408   1989132.27508  21892734.18908  21892735.30408
 93 07 04 23 08 00.0000000  0  8 16 20 17 03 22 18 29 25
  -2977229.30508  -2319917.04808  23323320.83008  23323323.40808
   5098688.02408   3973001.39108  22093850.68508  22093852.70908
  -6999299.98108  -5453994.63408  22097600.17308  22097602.38808
  -2952567.69109  -2300701.12708  20348866.82509  20348868.33208
  -6100618.71508  -4753724.57108  22639855.32808  22639856.71208
   -704003.19908   -548573.86207  25070739.55308  25070741.95107
   1280266.38908    997608.45707  25181016.62408  25181019.25907
   2674824.13208   2084276.85508  21915969.59608  21915970.69508
 93 07 04 23 09 00.0000000  0  8 16 20 17 03 22 18 29 25
  -3037924.50008  -2367211.97208  23311770.93108  23311773.33808
   5284018.92308   4117414.99208  22129118.06508  22129120.13708
  -7195345.97708  -5606757.61708  22060293.78808  22060295.96208
  -3009695.99909  -2345216.67408  20337995.63809  20337997.16208
  -6273601.60108  -4888516.34908  22606937.69608  22606939.17708
   -733900.22408   -571870.19807  25065050.17208  25065052.66807
   1359770.11508   1059559.37907  25196145.97108  25196148.26807
   2798392.68708   2180563.95108  21939483.92208  21939485.11508
 93 07 04 23 10 00.0000000  0  8 16 20 17 03 22 18 29 25
  -3095409.36008  -2412005.34108  23300831.85808  23300834.20808
   5471624.73308   4263601.25508  22164818.34908  22164820.43008
  -7388939.10108  -5757609.26308  22023454.11708  22023456.23308
  -3063820.46009  -2387391.56208  20327696.09109  20327697.60608
  -6444424.26808  -5021624.85608  22574431.21908  22574432.58808
   -760516.75908   -592610.31207  25059985.25308  25059987.69207
   1442075.89408   1123693.68907  25211808.22908  25211810.57707
   2925020.05908   2279234.53808  21963580.35708  21963581.48308
 93 07 04 23 11 00.0000000  0  8 16 20 17 03 22 18 29 25
  -3149616.40708  -2454244.55608  23290516.62808  23290518.94808
   5661515.49708   4411567.99508  22200953.47608  22200955.49908
  -7580012.12108  -5906497.18608  21987094.03608  21987096.17908
  -3114916.21209  -2427206.41608  20317972.90309  20317974.42708
  -6613047.84108  -5153019.78408  22542343.18908  22542344.61708
   -783847.13108   -610789.80407  25055545.62708  25055548.28307
   1527241.96907   1190056.81907  25228014.55507  25228017.46007
   3054853.80908   2380403.60108  21988287.00308  21988288.24508
 93 07 04 23 12 00.0000000  0  8 16 20 17 03 22 18 29 25
  -3200895.66108  -2494202.37008  23280758.59308  23280760.94808
   5853226.05408   4560952.76408  22237434.82908  22237436.87208
  -7769041.97108  -6053793.02708  21951122.76608  21951124.85308
  -3163434.62809  -2465012.95708  20308740.14409  20308741.63908
  -6779947.35308  -5283071.29008  22510583.23808  22510584.61808
   -804316.07008   -626739.59207  25051650.54208  25051653.22407
   1614848.03008   1258321.26407  25244685.93508  25244687.94707
   3187418.74108   2483700.85408  22013513.34408  22013514.71808
 93 07 04 23 13 00.0000000  0  8 16 20 17 03 22 18 29 25
  -3250881.26008  -2533152.13008  23271246.47908  23271248.93308
   6045062.76708   4710435.82208  22273940.20908  22273942.33808
  -7957756.19008  -6200842.92608  21915211.56808  21915213.60308
  -3211054.17409  -2502119.08008  20299678.42009  20299679.90408
  -6946850.01808  -5413125.23708  22478822.65308  22478824.05808
   -823617.22408   -641779.42807  25047977.44508  25047980.28407
   1703187.02508   1327156.75307  25261496.26908  25261498.46007
   3320926.18108   2587732.52908  22038918.95908  22038920.40808
 93 07 04 23 14 00.0000000  0  8 16 20 17 03 22 18 29 25
  -3300892.79208  -2572122.08408  23261729.62808  23261731.90208
   6235768.95908   4859037.95608  22310230.44408  22310232.62908
  -8147313.80208  -6348550.02108  21879139.79308  21879141.83408
  -3259017.27109  -2539492.90508  20290551.34009  20290552.83208
  -7115025.72508  -5544171.15908  22446819.84008  22446821.18708
   -843015.75008   -656895.14207  25044286.11008  25044288.77007
   1791028.81507   1395604.82408  25278211.73907  25278214.51808
   3454087.11408   2691494.20408  22064258.67908  22064260.07408
 93 07 04 23 15 00.0000000  0  8 16 20 17 03 22 18 29 25
  -3348730.01708  -2609397.77308  23252626.42008  23252628.83408
   6427605.57008   5008520.93708  22346735.84908  22346737.96508
  -8335323.33808  -6495050.83208  21843362.68108  21843364.63508
  -3305048.87109  -2575361.66808  20281791.81809  20281793.29508
  -7282184.67308  -5674424.79208  22415010.43808  22415011.77508
   -860178.07308   -670268.36607  25041020.23608  25041023.06707
   1880681.39707   1465463.97807  25295272.07407  25295274.57807
   3589180.75008   2796761.88508  22089966.29608  22089967.74508
 93 07 04 23 16 00.0000000  0  8 16 20 17 03 22 18 29 25
  -3392478.70408  -2643487.59608  23244301.11408  23244303.75608
   6622485.21408   5160375.09708  22383820.24708  22383822.37908
  -8519891.00608  -6638869.67408  21808240.52908  21808242.50808
  -3347222.24909  -2608224.02908  20273766.47309  20273767.96608
  -7446317.72108  -5802320.58908  22383776.91808  22383778.21208
   -873097.12408   -680335.15407  25038562.11708  25038564.47007
   1973990.53507   1538172.34607  25313028.43707  25313030.83007
   3728103.81308   2905013.52908  22116402.48108  22116403.98608
 93 07 04 23 17 00.0000000  0  8 16 20 17 03 22 18 29 25
  -3433180.99508  -2675203.59708  23236555.64708  23236558.33108
   6819290.36808   5313729.65208  22421271.11608  22421273.28008
  -8702143.89708  -6780884.79508  21773558.89608  21773560.82608
  -3386640.80309  -2638939.77008  20266265.36709  20266266.85108
  -7608514.55508  -5928707.65208  22352911.82308  22352913.07208
   -882818.18008   -687909.98807  25036712.18308  25036714.50707
   2069775.23607   1612809.64707  25331255.43507  25331258.31707
   3869713.59808   3015358.72508  22143350.00008  22143351.54108
 93 07 04 23 18 00.0000000  0  7 16 20 17 03 22 18 25
  -3471350.26508  -2704945.82308  23229292.17708  23229294.82308
   7017419.19408   5468115.63008  22458973.90008  22458976.07508
  -8882656.48308  -6921543.84208  21739208.42908  21739210.28208
  -3423892.15809  -2667966.78408  20259176.71209  20259178.13208
  -7769267.06608  -6053969.28208  22322321.63608  22322322.85808
   -890021.47208   -693522.89707  25035341.30008  25035343.80607
   4013427.07508   3127343.15708  22170697.84808  22170699.34208
 93 07 04 23 19 00.0000000  0  8 16 20 17 03 22 18 24 25
  -3507395.85808  -2733033.23908  23222433.06508  23222435.45408
   7216492.37808   5623237.47008  22496856.33708  22496858.55808
  -9061734.65308  -7061085.16608  21705130.92108  21705132.73008
  -3459342.55109  -2695590.44908  20252430.69909  20252432.12708
  -7928883.85808  -6178345.94908  22291947.60808  22291948.80608
   -895147.12308   -697516.90507  25034365.65608  25034368.50807
        -0.46817        -0.66517  25107214.27717  25107218.12717
   4158884.60508   3240686.59008  22198377.61608  22198379.14608
 93 07 04 23 20 00.0000000  0  8 16 20 17 03 22 18 24 25
  -3541228.55408  -2759396.33008  23215994.90108  23215997.20908
   7416601.68308   5779166.66608  22534935.96908  22534938.27208
  -9239230.20408  -7199393.28108  21671354.59408  21671356.40008
  -3492885.69209  -2721727.94608  20246047.61509  20246049.05608
  -8087300.00008  -6301787.04408  22261801.85808  22261803.05608
   -898053.36808   -699781.47407  25033812.67108  25033815.36007
    213994.44407    166748.63207  25147936.26407  25147939.79507
   4306127.55608   3355421.25808  22226397.15708  22226398.63708
 93 07 04 23 21 00.0000000  0  8 16 20 17 03 22 18 24 25
  -3572830.59108  -2784021.24908  23209981.21908  23209983.40708
   7617654.14808   5935830.80508  22573195.10708  22573197.41608
  -9415245.74508  -7336548.14608  21637859.81008  21637861.63508
  -3524601.80809  -2746441.78608  20240012.23109  20240013.66808
  -8244645.69208  -6424394.01208  22231859.87908  22231861.10708
   -898799.28908   -700362.67807  25033670.82508  25033673.68707
    428315.97508    333752.25607  25188720.85908  25188723.99007
   4454993.04108   3471420.23808  22254725.42008  22254726.91908
 93 07 04 23 22 00.0000000  0  8 16 20 17 03 22 18 24 25
  -3602054.34108  -2806792.96308  23204420.06108  23204422.33208
   7819661.42308   6093238.94708  22611635.87708  22611638.24408
  -9589762.63108  -7472535.22708  21604650.32908  21604652.06208
  -3554465.43709  -2769712.13208  20234329.39809  20234330.77308
  -8400856.78708  -6546116.87608  22202133.88308  22202135.06808
   -897372.07408   -699250.56307  25033942.26408  25033945.07207
    642903.68008    500963.30607  25229555.73108  25229559.02107
   4605485.18908   3588686.74408  22283363.14808  22283364.71108
 93 07 04 23 23 00.0000000  0  8 16 20 17 03 22 18 24 25
  -3629559.33908  -2828225.39408  23199185.97008  23199188.45108
   8021959.76608   6250873.88408  22650132.07908  22650134.49608
  -9763383.35808  -7607824.01008  21571611.25308  21571613.01208
  -3583126.73209  -2792045.59408  20228875.35109  20228876.69608
  -8556489.18108  -6667388.79908  22172517.96508  22172519.11308
   -894451.66108   -696974.88207  25034497.98908  25034500.83507
    857068.69508    667845.03907  25270310.14208  25270313.57607
   4756974.15208   3706729.98408  22312190.52408  22312192.23608
 93 07 04 23 24 00.0000000  0  8 16 20 17 03 22 18 24 25
  -3655153.71508  -2848169.03008  23194315.59008  23194318.05608
   8224838.24608   6408960.87508  22688738.73508  22688741.07308
  -9935805.41708  -7742178.76608  21538800.49008  21538802.23408
  -3610283.01909  -2813206.32208  20223707.63809  20223709.04308
  -8711265.25808  -6787993.46508  22143065.09508  22143066.20208
   -889809.57308   -693357.65007  25035381.34508  25035384.18007
   1071110.43708    834630.68407  25311040.87608  25311044.57607
   4909777.04308   3825797.05708  22341268.12508  22341269.80708
 93 07 04 23 25 00.0000000  0  8 16 20 17 03 22 18 24 25
  -3677556.19708  -2865625.48408  23190052.53408  23190054.83608
   8429621.49808   6568532.10708  22727707.79408  22727710.21208
 -10105688.65108  -7874555.22308  21506472.57608  21506474.31308
  -3634596.78409  -2832152.10008  20219080.88009  20219082.30108
  -8863939.98108  -6906960.71408  22114011.95308  22114013.10308
   -882141.58808   -687382.58307  25036840.42508  25036842.95307
   1286376.38207   1002370.33208  25352004.60407  25352008.45108
   5065266.63308   3946957.66608  22370856.95908  22370858.59608
 93 07 04 23 26 00.0000000  0  8 16 20 17 03 22 18 24 25
  -3697247.05608  -2880968.98708  23186305.42508  23186307.79608
   8635779.54808   6729174.59908  22766938.50708  22766940.93308
 -10273501.67808  -8005318.53508  21474538.77108  21474540.48008
  -3656585.04509  -2849285.79808  20214896.65409  20214898.05508
  -9015029.80808  -7024692.97808  22085260.40408  22085261.57808
   -871833.89408   -679350.59107  25038802.05408  25038804.59607
   1502386.76607   1170689.96507  25393109.99907  25393113.73107
   5222884.75308   4069776.86508  22400850.73608  22400852.43608
 93 07 04 23 27 00.0000000  0  7 16 20 17 03 22 18 25
  -3714422.81608  -2894352.67108  23183036.93208  23183039.27408
   8843063.76508   6890694.61808  22806383.42708  22806385.94508
 -10439426.14708  -8134610.25008  21442964.36808  21442966.06708
  -3676483.76709  -2864791.28608  20211110.01209  20211111.42708
  -9164667.51508  -7141293.72508  22056785.34208  22056786.42708
   -859001.46408   -669351.28207  25041244.08008  25041246.83107
   5382332.91508   4194022.06708  22431192.81308  22431194.52508
 93 07 04 23 28 00.0000000  0  7 16 20 17 03 22 18 25
  -3729396.39908  -2906020.37708  23180187.62408  23180189.95508
   9051176.15908   7052859.96708  22845986.03508  22845988.54508
 -10603782.61308  -8262680.15108  21411688.32508  21411689.97808
  -3694577.85409  -2878890.56508  20207666.85109  20207668.26308
  -9313015.84608  -7256889.76708  22028555.44208  22028556.47008
   -844027.74608   -657683.44307  25044093.64608  25044096.35807
   5543260.25108   4319419.86408  22461816.32308  22461818.16608
 93 07 04 23 29 00.0000000  0  8 16 20 17 03 22 18 29 25
  -3742161.04608  -2915966.83908  23177758.44008  23177760.77808
   9260137.03208   7215686.47208  22885750.11708  22885752.67708
 -10766560.11708  -8389519.70108  21380712.77408  21380714.38708
  -3710834.99609  -2891558.45408  20204573.20609  20204574.60108
  -9460055.66508  -7371466.18708  22000574.76708  22000575.74608
   -826970.61908   -644392.15307  25047339.05008  25047341.84307
        -0.11317        -0.20617  25573916.98617  25573919.30317
   5705745.49908   4446031.61708  22492736.32208  22492738.09508
 93 07 04 23 30 00.0000000  0  8 16 20 17 03 22 18 29 25
  -3752338.55108  -2923897.34508  23175821.82608  23175824.01008
   9470309.91308   7379457.39208  22925744.81408  22925747.39208
 -10927333.04308  -8514797.24308  21350118.65708  21350120.22308
  -3724878.58309  -2902501.49408  20201900.77509  20201902.17808
  -9605417.02508  -7484734.71508  21972913.37308  21972914.40508
   -807375.86408   -629123.50407  25051067.83408  25051070.26407
    116833.74608     91039.11407  25596149.91408  25596152.10307
   5870199.71608   4574177.64008  22524031.04208  22524032.82908
 93 07 04 23 31 00.0000000  0  8 16 20 17 03 22 18 29 25
  -3760603.12708  -2930337.26008  23174249.19908  23174251.33908
   9680972.26708   7543609.71108  22965832.55808  22965835.26008
 -11086727.78808  -8639000.87908  21319786.75608  21319788.33708
  -3737418.22209  -2912272.62508  20199514.55509  20199515.92708
  -9749792.85908  -7597235.29908  21945439.52108  21945440.47108
   -785863.33508   -612360.48707  25055161.99108  25055164.25807
    234817.18107    182974.15207  25618601.33707  25618603.38107
   6035868.26708   4703269.87808  22555556.74808  22555558.72008
 93 07 04 23 32 00.0000000  0  8 16 20 17 03 22 18 29 25
  -3767582.48408  -2935775.70108  23172921.02508  23172923.13908
   9891406.24808   7707584.07408  23005877.00108  23005879.67208
 -11245406.01608  -8762646.18608  21289591.24608  21289592.85708
  -3749160.02209  -2921422.06208  20197280.17509  20197281.55308
  -9893916.82108  -7709539.62408  21918013.60208  21918014.54208
   -763182.71508   -594687.27107  25059477.69808  25059480.20607
    353122.48408    275160.16907  25641114.30708  25641117.55207
   6201964.36808   4832695.27808  22587163.95208  22587165.83608
 93 07 04 23 33 00.0000000  0  8 16 20 17 03 22 18 29 25
  -3770913.83908  -2938371.54808  23172287.08008  23172289.32708
  10103878.50908   7873146.72208  23046309.20408  23046311.88908
 -11401106.62708  -8883971.27008  21259962.37308  21259963.95108
  -3757824.36909  -2928173.48508  20195631.39309  20195632.77608
 -10035552.45908  -7819904.99908  21891061.14108  21891062.11508
   -737121.79708   -574380.07407  25064436.79508  25064439.91207
    473930.28608    369296.24907  25664103.29308  25664105.80207
   6370690.31408   4964169.89808  22619271.57708  22619273.41408
 93 07 04 23 34 00.0000000  0  8 17 16 20 03 22 18 29 25
 -11554513.19908  -9003508.78808  21230770.03208  21230771.59108
  -3771268.02808  -2938647.52508  23172219.50508  23172221.94008
  10317723.78408   8039779.24508  23087002.78808  23087005.51908
  -3764065.46609  -2933036.66308  20194443.70009  20194445.11008
 -10175241.69408  -7928753.69508  21864479.12608  21864480.10608
   -708346.17008   -551957.48807  25069912.69708  25069914.95507
    596641.06607    464914.84107  25687454.64107  25687456.52807
   6541343.19908   5097146.02908  22651745.84408  22651747.67208
 93 07 04 23 35 00.0000000  0  7 17 16 20 22 18 03 25
 -11706092.77408  -9121622.67008  21201925.33008  21201926.87008
  -3769256.81508  -2937080.32708  23172602.36208  23172604.49208
  10532422.72108   8207076.95508  23127858.73008  23127861.50408
 -10313347.29208  -8036368.39408  21838198.48608  21838199.46308
   -677335.46708   -527793.29007  25075813.79808  25075816.47807
  -3768389.68409  -2936406.17108  20193620.82609  20193622.22908
   6713454.93608   5231258.91908  22684497.66608  22684499.69408
 93 07 04 23 36 00.0000000  0  7 17 16 20 22 18 03 25
 -11855796.26508  -9238274.66908  21173437.59708  21173439.14408
  -3764951.96308  -2933725.87908  23173421.41808  23173423.69208
  10747952.61608   8375022.15908  23168872.77608  23168875.59308
 -10449978.72908  -8142834.39908  21812198.40208  21812199.37308
   -644072.24008   -501873.88807  25082143.65608  25082146.44607
  -3770807.95509  -2938290.52708  20193160.64009  20193162.03508
   6887087.10608   5366556.55608  22717538.84908  22717540.80408
 93 07 04 23 37 00.0000000  0  7 17 16 20 22 18 03 25
 -12003868.81508  -9353655.79808  21145260.24608  21145261.79608
  -3758540.21408  -2928729.68808  23174641.55108  23174643.88308
  10964084.49108   8543436.43808  23210001.47308  23210004.29008
 -10585503.95408  -8248438.41208  21786408.74008  21786409.66708
   -608835.91708   -474417.00607  25088848.84808  25088851.12507
  -3771537.51509  -2938859.00608  20193021.81809  20193023.20208
   7062034.10408   5502878.74608  22750830.34608  22750832.30008
 93 07 04 23 38 00.0000000  0  7 17 22 16 20 18 25 03
 -12149985.94408  -9467513.21908  21117455.07608  21117456.59208
 -10719474.16808  -8352830.72308  21760915.00208  21760915.92408
  -3749567.21608  -2921737.72808  23176349.14808  23176351.25208
  11181155.12908   8712582.21708  23251308.75308  23251311.72708
   -571408.30908   -445252.65507  25095971.08008  25095974.03907
   7238589.64908   5640454.34508  22784427.84308  22784429.84208
  -3770230.06409  -2937840.19908  20193270.60609  20193271.97908
 93 07 04 23 39 00.0000000  0  7 17 22 16 20 18 25 03
 -12294829.35808  -9580378.13108  21089892.27108  21089893.74408
 -10852479.99908  -8456471.56408  21735604.80208  21735605.66608
  -3738758.23208  -2913315.13308  23178405.91608  23178408.26608
  11398403.48108   8881866.47708  23292649.78608  23292652.81308
   -532478.00308   -414917.38907  25103379.43408  25103381.78807
   7415941.95208   5778650.78908  22818176.99308  22818179.13508
  -3767634.76509  -2935817.87208  20193764.45509  20193765.84808
 93 07 04 23 40 00.0000000  0  7 17 22 16 20 18 25 03
 -12438327.60908  -9692194.86808  21062585.40608  21062586.81308
 -10984561.50608  -8559392.15608  21710470.46808  21710471.39108
  -3726213.82908  -2903540.26108  23180793.08208  23180795.19508
  11615771.77608   9051244.18908  23334013.78708  23334016.84308
   -491941.22308   -383330.29807  25111093.12508  25111095.97707
   7593964.65608   5917369.61508  22852053.73408  22852056.01008
  -3763797.44809  -2932827.74108  20194494.66609  20194496.05008
 93 07 04 23 41 00.0000000  0  7 17 22 16 20 18 25 03
 -12578877.27308  -9801714.00808  21035839.61808  21035841.01908
 -11114139.36508  -8660361.85808  21685812.53908  21685813.43208
  -3710339.97108  -2891171.00808  23183813.83208  23183816.02008
  11834864.36308   9221965.50808  23375705.79608  23375708.97308
   -448162.90608   -349217.31507  25119423.76408  25119426.37807
   7774234.57208   6057839.51208  22886358.20008  22886360.33908
  -3757102.52709  -2927610.90608  20195768.64609  20195770.02508
 93 07 04 23 42 00.0000000  0  7 17 22 16 20 18 25 03
 -12717136.24508  -9909448.19308  21009529.77308  21009531.19508
 -11241739.42408  -8759790.42508  21661531.01708  21661531.82808
  -3691677.22308  -2876628.60208  23187365.16008  23187367.39108
  12055114.08208   9393588.48508  23417618.14408  23417621.24908
   -401818.42308   -313104.71807  25128243.04608  25128245.82407
   7956188.49708   6199621.62408  22920982.87508  22920985.07008
  -3748106.20709  -2920600.77608  20197480.61109  20197481.94808
 93 07 04 23 43 00.0000000  0  7 22 16 20 18 25 03 17
 -11367311.16008  -8857638.48608  21637635.51708  21637636.27508
  -3670262.42708  -2859941.75008  23191440.28008  23191442.46108
  12276484.99308   9566085.11608  23459743.77908  23459746.93008
   -352928.81707   -275008.91307  25137546.35507  25137548.88507
   8139824.89908   6342714.76508  22955927.91808  22955930.13708
  -3736833.50909  -2911816.84408  20199625.68809  20199627.07108
 -12853136.55208 -10015422.38208  20983649.65508  20983651.04708
 93 07 04 23 44 00.0000000  0  7 22 16 20 18 25 17 03
 -11491108.87308  -8954104.19808  21614077.56708  21614078.34408
  -3646312.56108  -2841279.52208  23195997.72208  23195999.91908
  12498735.46908   9739267.12708  23502036.81108  23502039.99008
   -301701.13707   -235091.31907  25147294.35007  25147297.60007
   8324943.69608   6486962.99308  22991154.87608  22991157.27608
 -12986968.78108 -10119707.16008  20958182.15908  20958183.49908
  -3723514.89509  -2901438.69308  20202160.11909  20202161.48508
 93 07 04 23 45 00.0000000  0  7 22 16 20 18 25 17 03
 -11613789.18508  -9049699.21008  21590732.22208  21590733.01108
  -3620358.61508  -2821055.67108  23200936.61908  23200938.98808
  12721261.00908   9912663.45708  23544382.10508  23544385.46708
   -248747.08907   -193828.40707  25157371.34907  25157374.21607
   8510913.06108   6631874.00908  23026543.86008  23026546.25908
 -13119161.98508 -10222714.77408  20933026.62308  20933027.95508
  -3708744.00909  -2889928.90408  20204970.93309  20204972.29008
 93 07 04 23 46 00.0000000  0  7 22 16 20 18 03 17 25
 -11735169.44608  -9144281.19608  21567634.31508  21567635.10708
  -3592197.70608  -2799112.11308  23206295.53408  23206297.78808
  12944269.59708  10086436.18408  23586819.36308  23586822.72308
   -193836.78907   -151041.21007  25167820.56607  25167823.32307
  -3692301.14908  -2877116.27808  20208099.88008  20208101.24908
 -13249582.97208 -10324341.43908  20908208.22508  20908209.59108
   8697935.25608   6777605.41108  23062133.07608  23062135.55908
 93 07 04 23 47 00.0000000  0  7 22 16 20 17 03 18 25
 -11855142.05808  -9237766.31608  21544804.26308  21544805.07308
  -3561860.43808  -2775472.69408  23212068.45408  23212070.64508
  13167759.21608  10260583.73708  23629348.29508  23629351.53908
 -13378281.80308 -10424626.16508  20883717.61908  20883718.99008
  -3674178.45808  -2862994.69308  20211548.50708  20211549.85908
   -136971.37407   -106730.54107  25178641.81107  25178644.70707
   8886020.69308   6924165.30608  23097924.77808  23097927.29608
 93 07 04 23 48 00.0000000  0  7 22 16 20 17 03 18 25
 -11973717.92808  -9330163.06508  21522239.94308  21522240.74908
  -3529542.76708  -2750290.10508  23218218.34608  23218220.55608
  13391580.97708  10434990.11208  23671940.26708  23671943.55708
 -13505345.25508 -10523636.56908  20859538.19608  20859539.49508
  -3654513.94909  -2847671.69108  20215290.56809  20215291.89308
    -78327.00607    -61033.62808  25189801.47407  25189804.52008
   9074939.14308   7071374.28508  23133874.72508  23133877.37608
 93 07 04 23 49 00.0000000  0  7 22 16 20 18 17 03 25
 -12091011.01508  -9421560.24208  21499919.82608  21499920.59108
  -3495389.56208  -2723677.22308  23224717.52008  23224719.75008
  13615561.26808  10609520.01308  23714562.38608  23714565.80708
    -18058.46707    -14071.16507  25201270.22407  25201272.84907
 -13630799.86208 -10621393.33308  20835664.95708  20835666.24108
  -3633471.20409  -2831274.74208  20219294.83809  20219296.19208
   9264463.81408   7219055.65008  23169940.38108  23169942.97308
 93 07 04 23 50 00.0000000  0  7 22 16 20 17 03 18 25
 -12205495.44308  -9510768.85008  21478134.10508  21478134.89908
  -3457778.72608  -2694370.08708  23231874.57808  23231876.86908
  13841244.67308  10785377.00008  23757508.59508  23757512.17508
 -13753048.04508 -10716651.58508  20812401.80408  20812403.07408
  -3609494.61709  -2812591.68308  20223857.43309  20223858.78208
     45424.23507     35395.80808  25213350.56507  25213353.42708
   9456139.23608   7368412.92508  23206415.14508  23206417.77308
 93 07 04 23 51 00.0000000  0  6 22 16 20 17 03 25
 -12317988.02208  -9598425.36208  21456727.50708  21456728.24008
  -3417425.26808  -2662925.85408  23239553.53308  23239555.90508
  14067838.19508  10961943.15408  23800628.06908  23800631.75708
 -13872916.84508 -10810055.76908  20789591.47408  20789592.67508
  -3583367.27609  -2792232.71308  20228829.31509  20228830.64208
   9649234.34708   7518876.44608  23243160.01308  23243162.78508
 93 07 04 23 52 00.0000000  0  7 22 16 20 17 03 18 25
 -12428762.76708  -9684743.30108  21435647.72908  21435648.51108
  -3374611.30408  -2629564.33808  23247700.82808  23247703.12108
  14295040.58408  11138983.75008  23843863.54208  23843867.19208
 -13990720.67608 -10901850.89008  20767174.13408  20767175.34108
  -3555380.16008  -2770424.57108  20234155.05708  20234156.40708
         0.49817        -0.15017  25238803.10017  25238806.01017
   9843448.11408   7670211.64308  23280117.78008  23280120.55908
 93 07 04 23 53 00.0000000  0  6 22 16 20 17 03 25
 -12537752.73608  -9769670.50408  21414907.60008  21414908.40208
  -3329381.94108  -2594320.68908  23256307.82508  23256309.94708
  14522882.22708  11316522.45408  23887220.33108  23887224.14908
 -14106441.94308 -10992023.23708  20745153.05108  20745154.25408
  -3525492.56408  -2747135.53808  20239842.47808  20239843.84408
  10038797.20808   7822431.50808  23317291.72308  23317294.45708
 93 07 04 23 54 00.0000000  0  7 22 16 20 28 17 03 25
 -12645270.77108  -9853450.74708  21394447.50308  21394448.34508
  -3282136.24608  -2557505.88308  23265298.38208  23265300.56708
  14751027.21908  11494297.54108  23930635.15408  23930638.89408
        -0.84618        -0.86418  25194273.63518  25194277.41218
 -14220380.98908 -11080806.84108  20723471.16108  20723472.32008
  -3494030.82308  -2722619.89808  20245829.47508  20245830.81208
  10234978.69908   7975299.99408  23354624.07908  23354626.77908
 93 07 04 23 55 00.0000000  0  7 22 16 20 17 03 28 25
 -12750825.08308  -9935700.82008  21374361.12908  21374361.93908
  -3232390.46708  -2518742.96308  23274764.71208  23274766.90008
  14979917.46908  11672653.35808  23974191.75808  23974195.38008
 -14331991.55308 -11167776.04708  20702232.31908  20702233.48608
  -3460543.11308  -2696525.57708  20252201.97808  20252203.31908
   -209214.55908   -163024.39708  25154461.44208  25154465.23308
  10432427.60808   8129156.06808  23392197.42508  23392200.24208
 93 07 04 23 56 00.0000000  0  7 22 16 20 17 03 28 25
 -12854600.66908 -10016564.87708  21354613.18508  21354614.00108
  -3180314.23008  -2478164.10108  23284674.45608  23284676.69808
  15209338.19408  11851422.53008  24017849.27808  24017853.02608
 -14441388.66308 -11253020.48708  20681414.70708  20681415.85208
  -3425233.83709  -2669011.85408  20258921.11009  20258922.44708
   -418461.94508   -326074.16408  25114643.01508  25114646.53308
  10630856.78408   8283775.99408  23429957.53708  23429960.25408
 93 07 04 23 57 00.0000000  0  7 22 16 20 17 03 28 25
 -12956406.83708 -10095894.32408  21335240.22408  21335241.00508
  -3125688.89508  -2435598.93808  23295069.42308  23295071.53808
  15439452.06508  12030731.79908  24061638.57808  24061642.52608
 -14548344.48108 -11336362.62108  20661061.64208  20661062.73208
  -3387931.04909  -2639944.74308  20266019.60609  20266020.94008
   -627507.87208   -488966.95907  25074862.57108  25074865.93807
  10830349.67808   8439224.79108  23467919.83108  23467922.73908
 93 07 04 23 58 00.0000000  0  7 22 16 20 17 03 28 25
 -13056525.85808 -10173909.11208  21316188.18208  21316188.90908
  -3068832.38808  -2391295.20208  23305888.82408  23305890.94908
  15669946.72008  12210337.77908  24105500.48608  24105504.57008
 -14653251.47008 -11418108.27108  20641098.45308  20641099.56108
  -3348937.13109  -2609559.87008  20273439.89609  20273441.23608
   -836567.45407   -651870.23707  25035079.20607  25035082.78107
  11030603.58608   8595266.55808  23506027.03908  23506030.21608
 93 07 04 23 59 00.0000000  0  7 22 16 20 17 03 28 25
 -13154944.92008 -10250599.25608  21297459.69408  21297460.42608
  -3009834.89008  -2345323.16608  23317115.67008  23317117.90708
  15900829.63508  12390246.29008  24149436.28108  24149440.36008
 -14756209.46908 -11498335.22908  20621506.16508  20621507.27208
  -3308235.46609  -2577844.28908  20281185.17209  20281186.54108
  -1045575.90908   -814733.80107  24995306.59908  24995309.91707
  11231631.05208   8751911.09208  23544281.51308  23544284.71308
 93 07 05 00 00 00.0000000  4  1
END OF FILE                                                 COMMENT
